FTP NEW 2
VER 11.0.6.21
INF "" "" "" "" 0.000 0.000 0.000
ELL WGS-84 6378137.000 298.257223563
PRO TME -69.000000 0.999600 0.000000 0.000000 0.000000 500000.0000 0.0000
DTM 0.00 0.00 0.00 0.00000 0.00000 0.00000 0.00000
GEO ??? 0.000
HVU 1.0000000000 1.0000000000
TND 13:34:50 07/03/2012 240
DEV 0 32869 "Garmin GPS" 49156 C:\HYPACK 2011\devices\GPS.dll 11.0.10.6
OFF 0 0.000 0.000 0.000 0.000 0.000 0.000 0.000
DDT 0 SYN 
DEV 1 0 "Disabled" 0 Odom CV3 MK3 Disabled Unknown
USR "NOAA Joint Hydrographic Center" "HYPACK Inc." 0x8 15681181
EOH 0001FFFFFFFFFFFFFFFFFFFFFFFFFFFFFFFFFFFFFFFFFFFFFFFFFFFFFFFFFFFFFFFFFFFFFFFFFFFFFFFFFFFFFFFFFFFFFFFFFFFFFFFFFFFFFFFFFFFFFFFFFFFFFFFFFFFFFFFFFFFFFFFFFFFFFFFFFFFFFFFFFFFFFFFFFFFFFFFFFFFF003021300906052B0E03021A0500041424C03F69BB56CD1529AD190A704A15268BB6851C
MSG 0 48888.587 $GPRMC,173609,A,4303.0249,N,07037.9356,W,000.7,163.2,030712,016.1,W*7D
POS 0 48969.000 367064.748 4767706.119
QUA 0 48969.000 7 9.100 0.900 10.000 1.000 0.000 0.000 0.000
RAW 0 48969.000 4 430302.49000 -703793.56000 -23.00000 173609.00000
MSG 0 48888.737 $GPGGA,173609,4303.0249,N,07037.9356,W,1,10,0.9,9.4,M,-32.4,M,,*76
MSG 0 48888.878 $GPGSA,A,3,,06,07,10,13,16,19,,21,23,30,31,1.4,0.9,1.1*30
MSG 0 48889.001 $GPGSV,3,1,12,03,58,170,33,06,63,134,48,07,18,301,48,10,07,309,42*73
MSG 0 48889.147 $PGRME,4.6,M,5.9,M,7.5,M*22
MSG 0 48889.207 $PGRMB,0.0,200,,,,K,,N,N*31
MSG 0 48889.268 $PGRMM,WGS 84*06
MSG 0 48889.602 $GPRMC,173610,A,4303.0250,N,07037.9357,W,000.3,195.1,030712,016.1,W*72
POS 0 48970.000 367064.616 4767706.307
QUA 0 48970.000 7 9.100 0.900 10.000 1.000 0.000 0.000 0.000
RAW 0 48970.000 4 430302.50000 -703793.57000 -22.90000 173610.00000
MSG 0 48889.752 $GPGGA,173610,4303.0250,N,07037.9357,W,1,10,0.9,9.5,M,-32.4,M,,*76
MSG 0 48889.894 $GPGSA,A,3,,06,07,10,13,16,19,,21,23,30,31,1.4,0.9,1.1*30
MSG 0 48890.017 $GPGSV,3,2,12,13,45,301,50,16,71,029,45,19,24,185,42,20,00,227,00*75
MSG 0 48890.163 $PGRME,4.6,M,5.9,M,7.5,M*22
MSG 0 48890.223 $PGRMB,0.0,200,,,,K,,N,N*31
MSG 0 48890.283 $PGRMM,WGS 84*06
FIX 99 48890.530 106 367064.616 4767706.307
MSG 0 48890.589 $GPRMC,173611,A,4303.0248,N,07037.9359,W,000.4,207.7,030712,016.1,W*7D
POS 0 48971.000 367064.337 4767705.942
QUA 0 48971.000 7 9.100 0.900 10.000 1.000 0.000 0.000 0.000
RAW 0 48971.000 4 430302.48000 -703793.59000 -23.20000 173611.00000
MSG 0 48890.739 $GPGGA,173611,4303.0248,N,07037.9359,W,1,10,0.9,9.2,M,-32.4,M,,*77
MSG 0 48890.880 $GPGSA,A,3,,06,07,10,13,16,19,,21,23,30,31,1.4,0.9,1.1*30
MSG 0 48891.003 $GPGSV,3,3,12,21,10,064,40,23,59,245,51,30,44,058,48,31,15,111,42*77
MSG 0 48891.149 $PGRME,4.6,M,5.9,M,7.5,M*22
MSG 0 48891.209 $PGRMB,0.0,200,,,,K,,N,N*31
MSG 0 48891.270 $PGRMM,WGS 84*06
MSG 0 48891.595 $GPRMC,173612,A,4303.0247,N,07037.9357,W,000.3,162.6,030712,016.1,W*79
POS 0 48972.000 367064.605 4767705.752
QUA 0 48972.000 7 9.100 0.900 10.000 1.000 0.000 0.000 0.000
RAW 0 48972.000 4 430302.47000 -703793.57000 -23.40000 173612.00000
MSG 0 48891.745 $GPGGA,173612,4303.0247,N,07037.9357,W,1,10,0.9,9.0,M,-32.4,M,,*77
MSG 0 48891.886 $GPGSA,A,3,,06,07,10,13,16,19,,21,23,30,31,1.4,0.9,1.1*30
MSG 0 48892.009 $GPGSV,3,1,12,03,58,170,33,06,63,132,48,07,18,301,47,10,07,309,42*7A
MSG 0 48892.155 $PGRME,4.6,M,5.9,M,7.5,M*22
MSG 0 48892.215 $PGRMB,0.0,200,,,,K,,N,N*31
MSG 0 48892.276 $PGRMM,WGS 84*06
MSG 0 48892.636 $GPRMC,173613,A,4303.0246,N,07037.9358,W,000.4,189.1,030712,016.1,W*73
POS 0 48973.000 367064.466 4767705.569
QUA 0 48973.000 7 9.100 0.900 10.000 1.000 0.000 0.000 0.000
RAW 0 48973.000 4 430302.46000 -703793.58000 -23.30000 173613.00000
MSG 0 48892.786 $GPGGA,173613,4303.0246,N,07037.9358,W,1,10,0.9,9.1,M,-32.4,M,,*79
MSG 0 48892.928 $GPGSA,A,3,,06,07,10,13,16,19,,21,23,30,31,1.4,0.9,1.1*30
MSG 0 48893.051 $GPGSV,3,2,12,13,45,301,50,16,71,029,45,19,24,185,42,20,00,227,00*75
MSG 0 48893.196 $PGRME,4.6,M,5.9,M,7.5,M*22
MSG 0 48893.257 $PGRMB,0.0,200,,,,K,,N,N*31
MSG 0 48893.317 $PGRMM,WGS 84*06
MSG 0 48893.589 $GPRMC,173614,A,4303.0245,N,07037.9359,W,000.4,213.5,030712,016.1,W*72
POS 0 48974.000 367064.327 4767705.387
QUA 0 48974.000 7 9.100 0.900 10.000 1.000 0.000 0.000 0.000
RAW 0 48974.000 4 430302.45000 -703793.59000 -23.10000 173614.00000
MSG 0 48893.739 $GPGGA,173614,4303.0245,N,07037.9359,W,1,10,0.9,9.3,M,-32.4,M,,*7E
MSG 0 48893.881 $GPGSA,A,3,,06,07,10,13,16,19,,21,23,30,31,1.4,0.9,1.1*30
MSG 0 48894.003 $GPGSV,3,3,12,21,10,064,40,23,59,245,51,30,44,058,48,31,15,111,42*77
MSG 0 48894.149 $PGRME,4.6,M,5.9,M,7.5,M*22
MSG 0 48894.210 $PGRMB,0.0,200,,,,K,,N,N*31
MSG 0 48894.270 $PGRMM,WGS 84*06
MSG 0 48894.603 $GPRMC,173615,A,4303.0243,N,07037.9359,W,000.6,181.3,030712,016.1,W*79
POS 0 48975.000 367064.319 4767705.017
QUA 0 48975.000 7 9.100 0.900 10.000 1.000 0.000 0.000 0.000
RAW 0 48975.000 4 430302.43000 -703793.59000 -23.10000 173615.00000
MSG 0 48894.753 $GPGGA,173615,4303.0243,N,07037.9359,W,1,10,0.9,9.3,M,-32.4,M,,*79
MSG 0 48894.895 $GPGSA,A,3,,06,07,10,13,16,19,,21,23,30,31,1.4,0.9,1.1*30
MSG 0 48895.018 $GPGSV,3,1,12,03,58,170,33,06,63,132,48,07,19,301,47,10,07,309,42*7B
MSG 0 48895.164 $PGRME,4.6,M,5.9,M,7.5,M*22
MSG 0 48895.224 $PGRMB,0.0,200,,,,K,,N,N*31
MSG 0 48895.284 $PGRMM,WGS 84*06
MSG 0 48895.619 $GPRMC,173616,A,4303.0241,N,07037.9359,W,000.6,180.5,030712,016.1,W*7F
POS 0 48976.000 367064.312 4767704.646
QUA 0 48976.000 7 9.100 0.900 10.000 1.000 0.000 0.000 0.000
RAW 0 48976.000 4 430302.41000 -703793.59000 -23.30000 173616.00000
MSG 0 48895.769 $GPGGA,173616,4303.0241,N,07037.9359,W,1,10,0.9,9.1,M,-32.4,M,,*7A
MSG 0 48895.911 $GPGSA,A,3,,06,07,10,13,16,19,,21,23,30,31,1.4,0.9,1.1*30
MSG 0 48896.033 $GPGSV,3,2,12,13,45,301,50,16,71,029,45,19,24,185,43,20,00,227,00*74
MSG 0 48896.179 $PGRME,4.6,M,5.9,M,7.5,M*22
MSG 0 48896.240 $PGRMB,0.0,200,,,,K,,N,N*31
MSG 0 48896.300 $PGRMM,WGS 84*06
MSG 0 48896.588 $GPRMC,173617,A,4303.0241,N,07037.9362,W,000.5,230.2,030712,016.1,W*7A
POS 0 48977.000 367063.905 4767704.654
QUA 0 48977.000 7 9.100 0.900 10.000 1.000 0.000 0.000 0.000
RAW 0 48977.000 4 430302.41000 -703793.62000 -23.40000 173617.00000
MSG 0 48896.738 $GPGGA,173617,4303.0241,N,07037.9362,W,1,10,0.9,9.0,M,-32.4,M,,*72
MSG 0 48896.879 $GPGSA,A,3,,06,07,10,13,16,19,,21,23,30,31,1.4,0.9,1.1*30
MSG 0 48897.002 $GPGSV,3,3,12,21,10,064,39,23,59,244,51,30,44,058,48,31,15,111,42*78
MSG 0 48897.148 $PGRME,4.6,M,5.9,M,7.5,M*22
MSG 0 48897.208 $PGRMB,0.0,200,,,,K,,N,N*31
MSG 0 48897.269 $PGRMM,WGS 84*06
MSG 0 48897.587 $GPRMC,173618,A,4303.0240,N,07037.9361,W,000.4,195.5,030712,016.1,W*7D
POS 0 48978.000 367064.037 4767704.467
QUA 0 48978.000 7 9.100 0.900 10.000 1.000 0.000 0.000 0.000
RAW 0 48978.000 4 430302.40000 -703793.61000 -23.40000 173618.00000
MSG 0 48897.737 $GPGGA,173618,4303.0240,N,07037.9361,W,1,10,0.9,9.0,M,-32.4,M,,*7F
MSG 0 48897.879 $GPGSA,A,3,,06,07,10,13,16,19,,21,23,30,31,1.4,0.9,1.1*30
MSG 0 48898.002 $GPGSV,3,1,12,03,58,170,33,06,63,132,48,07,19,301,47,10,07,309,43*7A
MSG 0 48898.147 $PGRME,4.6,M,5.9,M,7.5,M*22
MSG 0 48898.208 $PGRMB,0.0,200,,,,K,,N,N*31
MSG 0 48898.268 $PGRMM,WGS 84*06
MSG 0 48898.609 $GPRMC,173619,A,4303.0238,N,07037.9359,W,000.6,157.0,030712,016.1,W*71
POS 0 48979.000 367064.301 4767704.091
QUA 0 48979.000 7 9.100 0.900 10.000 1.000 0.000 0.000 0.000
RAW 0 48979.000 4 430302.38000 -703793.59000 -23.30000 173619.00000
MSG 0 48898.759 $GPGGA,173619,4303.0238,N,07037.9359,W,1,10,0.9,9.1,M,-32.4,M,,*7B
MSG 0 48898.901 $GPGSA,A,3,,06,07,10,13,16,19,,21,23,30,31,1.4,0.9,1.1*30
MSG 0 48899.024 $GPGSV,3,2,12,13,45,301,50,16,71,029,45,19,24,185,43,20,00,227,00*74
MSG 0 48899.169 $PGRME,4.6,M,5.9,M,7.5,M*22
MSG 0 48899.230 $PGRMB,0.0,200,,,,K,,N,N*31
MSG 0 48899.290 $PGRMM,WGS 84*06
MSG 0 48899.618 $GPRMC,173620,A,4303.0238,N,07037.9361,W,000.2,219.1,030712,016.1,W*7C
POS 0 48980.000 367064.030 4767704.096
QUA 0 48980.000 7 9.100 0.900 10.000 1.000 0.000 0.000 0.000
RAW 0 48980.000 4 430302.38000 -703793.61000 -23.60000 173620.00000
MSG 0 48899.768 $GPGGA,173620,4303.0238,N,07037.9361,W,1,10,0.9,8.8,M,-32.4,M,,*72
MSG 0 48899.909 $GPGSA,A,3,,06,07,10,13,16,19,,21,23,30,31,1.4,0.9,1.1*30
MSG 0 48900.032 $GPGSV,3,3,12,21,10,064,39,23,59,244,51,30,44,058,48,31,15,111,42*78
MSG 0 48900.178 $PGRME,4.6,M,5.9,M,7.5,M*22
MSG 0 48900.238 $PGRMB,0.0,200,,,,K,,N,N*31
MSG 0 48900.299 $PGRMM,WGS 84*06
MSG 0 48900.589 $GPRMC,173621,A,4303.0237,N,07037.9361,W,000.4,178.7,030712,016.1,W*76
POS 0 48981.000 367064.026 4767703.911
QUA 0 48981.000 7 9.100 0.900 10.000 1.000 0.000 0.000 0.000
RAW 0 48981.000 4 430302.37000 -703793.61000 -23.60000 173621.00000
MSG 0 48900.739 $GPGGA,173621,4303.0237,N,07037.9361,W,1,10,0.9,8.8,M,-32.4,M,,*7C
MSG 0 48900.880 $GPGSA,A,3,,06,07,10,13,16,19,,21,23,30,31,1.4,0.9,1.1*30
MSG 0 48901.003 $GPGSV,3,1,12,03,58,170,33,06,63,132,49,07,19,301,47,10,07,309,42*7A
MSG 0 48901.149 $PGRME,4.6,M,5.9,M,7.5,M*22
MSG 0 48901.209 $PGRMB,0.0,200,,,,K,,N,N*31
MSG 0 48901.269 $PGRMM,WGS 84*06
MSG 0 48901.588 $GPRMC,173622,A,4303.0235,N,07037.9359,W,000.6,155.8,030712,016.1,W*7E
POS 0 48982.000 367064.291 4767703.536
QUA 0 48982.000 7 9.100 0.900 10.000 1.000 0.000 0.000 0.000
RAW 0 48982.000 4 430302.35000 -703793.59000 -23.20000 173622.00000
MSG 0 48901.738 $GPGGA,173622,4303.0235,N,07037.9359,W,1,10,0.9,9.2,M,-32.4,M,,*7D
MSG 0 48901.880 $GPGSA,A,3,,06,07,10,13,16,19,,21,23,30,31,1.4,0.9,1.1*30
MSG 0 48902.003 $GPGSV,3,2,12,13,45,301,50,16,71,029,45,19,24,185,43,20,00,227,00*74
MSG 0 48902.149 $PGRME,4.6,M,5.9,M,7.5,M*22
MSG 0 48902.209 $PGRMB,0.0,200,,,,K,,N,N*31
MSG 0 48902.269 $PGRMM,WGS 84*06
MSG 0 48902.589 $GPRMC,173623,A,4303.0235,N,07037.9362,W,000.4,220.2,030712,016.1,W*7E
POS 0 48983.000 367063.883 4767703.544
QUA 0 48983.000 7 9.100 0.900 10.000 1.000 0.000 0.000 0.000
RAW 0 48983.000 4 430302.35000 -703793.62000 -23.20000 173623.00000
MSG 0 48902.739 $GPGGA,173623,4303.0235,N,07037.9362,W,1,10,0.9,9.2,M,-32.4,M,,*74
MSG 0 48902.881 $GPGSA,A,3,,06,07,10,13,16,19,,21,23,30,31,1.4,0.9,1.1*30
MSG 0 48903.003 $GPGSV,3,3,12,21,10,064,39,23,59,244,51,30,44,058,48,31,15,111,43*79
MSG 0 48903.149 $PGRME,4.6,M,5.9,M,7.5,M*22
MSG 0 48903.210 $PGRMB,0.0,200,,,,K,,N,N*31
MSG 0 48903.270 $PGRMM,WGS 84*06
MSG 0 48903.601 $GPRMC,173624,A,4303.0234,N,07037.9363,W,000.4,205.9,030712,016.1,W*75
POS 0 48984.000 367063.744 4767703.361
QUA 0 48984.000 7 9.100 0.900 10.000 1.000 0.000 0.000 0.000
RAW 0 48984.000 4 430302.34000 -703793.63000 -23.30000 173624.00000
MSG 0 48903.751 $GPGGA,173624,4303.0234,N,07037.9363,W,1,10,0.9,9.1,M,-32.4,M,,*70
MSG 0 48903.892 $GPGSA,A,3,,06,07,10,13,16,19,,21,23,30,31,1.4,0.9,1.1*30
MSG 0 48904.015 $GPGSV,3,1,12,03,58,170,33,06,63,132,49,07,19,301,47,10,07,309,43*7B
MSG 0 48904.161 $PGRME,4.6,M,5.9,M,7.5,M*22
MSG 0 48904.221 $PGRMB,0.0,200,,,,K,,N,N*31
MSG 0 48904.281 $PGRMM,WGS 84*06
MSG 0 48904.602 $GPRMC,173625,A,4303.0233,N,07037.9364,W,000.4,211.8,030712,016.1,W*70
POS 0 48985.000 367063.605 4767703.179
QUA 0 48985.000 7 9.100 0.900 10.000 1.000 0.000 0.000 0.000
RAW 0 48985.000 4 430302.33000 -703793.64000 -23.30000 173625.00000
MSG 0 48904.752 $GPGGA,173625,4303.0233,N,07037.9364,W,1,10,0.9,9.1,M,-32.4,M,,*71
MSG 0 48904.893 $GPGSA,A,3,,06,07,10,13,16,19,,21,23,30,31,1.4,0.9,1.1*30
MSG 0 48905.016 $GPGSV,3,2,12,13,45,301,50,16,71,029,45,19,24,185,42,20,00,227,00*75
MSG 0 48905.162 $PGRME,4.6,M,5.9,M,7.5,M*22
MSG 0 48905.222 $PGRMB,0.0,200,,,,K,,N,N*31
MSG 0 48905.283 $PGRMM,WGS 84*06
MSG 0 48905.602 $GPRMC,173626,A,4303.0232,N,07037.9364,W,000.4,206.8,030712,016.1,W*74
POS 0 48986.000 367063.601 4767702.994
QUA 0 48986.000 7 9.100 0.900 10.000 1.000 0.000 0.000 0.000
RAW 0 48986.000 4 430302.32000 -703793.64000 -23.50000 173626.00000
MSG 0 48905.752 $GPGGA,173626,4303.0232,N,07037.9364,W,1,10,0.9,8.9,M,-32.4,M,,*7A
MSG 0 48905.893 $GPGSA,A,3,,06,07,10,13,16,19,,21,23,30,31,1.4,0.9,1.1*30
MSG 0 48906.016 $GPGSV,3,3,12,21,10,064,39,23,59,244,51,30,44,058,47,31,15,111,44*71
MSG 0 48906.162 $PGRME,4.6,M,5.9,M,7.5,M*22
MSG 0 48906.222 $PGRMB,0.0,200,,,,K,,N,N*31
MSG 0 48906.283 $PGRMM,WGS 84*06
MSG 0 48906.588 $GPRMC,173627,A,4303.0230,N,07037.9364,W,000.5,179.3,030712,016.1,W*76
POS 0 48987.000 367063.594 4767702.624
QUA 0 48987.000 7 9.100 0.900 10.000 1.000 0.000 0.000 0.000
RAW 0 48987.000 4 430302.30000 -703793.64000 -23.60000 173627.00000
MSG 0 48906.738 $GPGGA,173627,4303.0230,N,07037.9364,W,1,10,0.9,8.8,M,-32.4,M,,*78
MSG 0 48906.879 $GPGSA,A,3,,06,07,10,13,16,19,,21,23,30,31,1.4,0.9,1.1*30
MSG 0 48907.002 $GPGSV,3,1,12,03,58,170,33,06,63,132,48,07,19,301,46,10,07,308,42*7B
MSG 0 48907.148 $PGRME,4.6,M,5.9,M,7.5,M*22
MSG 0 48907.208 $PGRMB,0.0,200,,,,K,,N,N*31
MSG 0 48907.269 $PGRMM,WGS 84*06
MSG 0 48907.639 $GPRMC,173628,A,4303.0228,N,07037.9365,W,000.5,192.9,030712,016.1,W*7E
POS 0 48988.000 367063.451 4767702.256
QUA 0 48988.000 7 9.100 0.900 10.000 1.000 0.000 0.000 0.000
RAW 0 48988.000 4 430302.28000 -703793.65000 -23.40000 173628.00000
MSG 0 48907.789 $GPGGA,173628,4303.0228,N,07037.9365,W,1,10,0.9,9.0,M,-32.4,M,,*76
MSG 0 48907.931 $GPGSA,A,3,,06,07,10,13,16,19,,21,23,30,31,1.4,0.9,1.1*30
MSG 0 48908.054 $GPGSV,3,2,12,13,45,301,50,16,71,029,45,19,24,185,43,20,00,227,00*74
MSG 0 48908.199 $PGRME,4.6,M,5.9,M,7.5,M*22
MSG 0 48908.260 $PGRMB,0.0,200,,,,K,,N,N*31
MSG 0 48908.320 $PGRMM,WGS 84*06
MSG 0 48908.602 $GPRMC,173629,A,4303.0228,N,07037.9365,W,000.4,192.4,030712,016.1,W*73
POS 0 48989.000 367063.451 4767702.256
QUA 0 48989.000 7 9.100 0.900 10.000 1.000 0.000 0.000 0.000
RAW 0 48989.000 4 430302.28000 -703793.65000 -23.50000 173629.00000
MSG 0 48908.752 $GPGGA,173629,4303.0228,N,07037.9365,W,1,10,0.9,8.9,M,-32.4,M,,*7F
MSG 0 48908.893 $GPGSA,A,3,,06,07,10,13,16,19,,21,23,30,31,1.4,0.9,1.1*30
MSG 0 48909.016 $GPGSV,3,3,12,21,10,064,39,23,59,244,51,30,44,058,48,31,15,111,44*7E
MSG 0 48909.162 $PGRME,4.6,M,5.9,M,7.5,M*22
MSG 0 48909.222 $PGRMB,0.0,200,,,,K,,N,N*31
MSG 0 48909.283 $PGRMM,WGS 84*06
MSG 0 48909.621 $GPRMC,173630,A,4303.0226,N,07037.9365,W,000.5,179.1,030712,016.1,W*74
POS 0 48990.000 367063.444 4767701.886
QUA 0 48990.000 7 9.100 0.900 10.000 1.000 0.000 0.000 0.000
RAW 0 48990.000 4 430302.26000 -703793.65000 -23.40000 173630.00000
MSG 0 48909.771 $GPGGA,173630,4303.0226,N,07037.9365,W,1,10,0.9,9.0,M,-32.4,M,,*71
MSG 0 48909.912 $GPGSA,A,3,,06,07,10,13,16,19,,21,23,30,31,1.4,0.9,1.1*30
MSG 0 48910.035 $GPGSV,3,1,12,03,58,170,32,06,63,132,48,07,19,301,46,10,07,308,43*7B
MSG 0 48910.181 $PGRME,4.6,M,5.9,M,7.5,M*22
MSG 0 48910.241 $PGRMB,0.0,200,,,,K,,N,N*31
MSG 0 48910.302 $PGRMM,WGS 84*06
MSG 0 48910.621 $GPRMC,173631,A,4303.0226,N,07037.9366,W,000.3,210.1,030712,016.1,W*7C
POS 0 48991.000 367063.308 4767701.889
QUA 0 48991.000 7 9.100 0.900 10.000 1.000 0.000 0.000 0.000
RAW 0 48991.000 4 430302.26000 -703793.66000 -23.50000 173631.00000
MSG 0 48910.771 $GPGGA,173631,4303.0226,N,07037.9366,W,1,10,0.9,8.9,M,-32.4,M,,*7B
MSG 0 48910.912 $GPGSA,A,3,,06,07,10,13,16,19,,21,23,30,31,1.4,0.9,1.1*30
MSG 0 48911.035 $GPGSV,3,2,12,13,45,301,50,16,71,029,45,19,24,185,43,20,00,227,00*74
MSG 0 48911.181 $PGRME,4.6,M,5.9,M,7.5,M*22
MSG 0 48911.241 $PGRMB,0.0,200,,,,K,,N,N*31
MSG 0 48911.302 $PGRMM,WGS 84*06
MSG 0 48911.619 $GPRMC,173632,A,4303.0225,N,07037.9366,W,000.4,180.3,030712,016.1,W*73
POS 0 48992.000 367063.304 4767701.703
QUA 0 48992.000 7 9.100 0.900 10.000 1.000 0.000 0.000 0.000
RAW 0 48992.000 4 430302.25000 -703793.66000 -23.50000 173632.00000
MSG 0 48911.769 $GPGGA,173632,4303.0225,N,07037.9366,W,1,10,0.9,8.9,M,-32.4,M,,*7B
MSG 0 48911.910 $GPGSA,A,3,,06,07,10,13,16,19,,21,23,30,31,1.4,0.9,1.1*30
MSG 0 48912.033 $GPGSV,3,3,12,21,10,064,39,23,59,244,51,30,44,058,47,31,15,111,44*71
MSG 0 48912.179 $PGRME,4.6,M,5.9,M,7.5,M*22
MSG 0 48912.239 $PGRMB,0.0,200,,,,K,,N,N*31
MSG 0 48912.300 $PGRMM,WGS 84*06
MSG 0 48912.600 $GPRMC,173633,A,4303.0224,N,07037.9365,W,000.4,172.3,030712,016.1,W*7D
POS 0 48993.000 367063.436 4767701.516
QUA 0 48993.000 7 9.100 0.900 10.000 1.000 0.000 0.000 0.000
RAW 0 48993.000 4 430302.24000 -703793.65000 -23.40000 173633.00000
MSG 0 48912.750 $GPGGA,173633,4303.0224,N,07037.9365,W,1,10,0.9,9.0,M,-32.4,M,,*70
MSG 0 48912.892 $GPGSA,A,3,,06,07,10,13,16,19,,21,23,30,31,1.4,0.9,1.1*30
MSG 0 48913.015 $GPGSV,3,1,12,03,58,170,31,06,63,132,49,07,19,301,47,10,07,308,42*79
MSG 0 48913.160 $PGRME,4.6,M,5.9,M,7.5,M*22
MSG 0 48913.221 $PGRMB,0.0,200,,,,K,,N,N*31
MSG 0 48913.281 $PGRMM,WGS 84*06
MSG 0 48913.613 $GPRMC,173634,A,4303.0223,N,07037.9367,W,000.4,220.2,030712,016.1,W*7A
POS 0 48994.000 367063.161 4767701.336
QUA 0 48994.000 7 9.100 0.900 10.000 1.000 0.000 0.000 0.000
RAW 0 48994.000 4 430302.23000 -703793.67000 -23.30000 173634.00000
MSG 0 48913.763 $GPGGA,173634,4303.0223,N,07037.9367,W,1,10,0.9,9.1,M,-32.4,M,,*73
MSG 0 48913.905 $GPGSA,A,3,,06,07,10,13,16,19,,21,23,30,31,1.4,0.9,1.1*30
MSG 0 48914.028 $GPGSV,3,2,12,13,45,301,50,16,71,029,45,19,24,185,43,20,00,227,00*74
MSG 0 48914.173 $PGRME,4.6,M,5.9,M,7.5,M*22
MSG 0 48914.234 $PGRMT,GPS 17-HVS Ver. 2.80,P,P,R,R,P,,38,R*00
MSG 0 48914.334 $PGRMB,0.0,200,,,,K,,N,N*31
MSG 0 48914.394 $PGRMM,WGS 84*06
MSG 0 48914.604 $GPRMC,173635,A,4303.0222,N,07037.9367,W,000.4,189.6,030712,016.1,W*7E
POS 0 48995.000 367063.158 4767701.151
QUA 0 48995.000 7 9.100 0.900 10.000 1.000 0.000 0.000 0.000
RAW 0 48995.000 4 430302.22000 -703793.67000 -23.20000 173635.00000
MSG 0 48914.754 $GPGGA,173635,4303.0222,N,07037.9367,W,1,10,0.9,9.2,M,-32.4,M,,*70
MSG 0 48914.895 $GPGSA,A,3,,06,07,10,13,16,19,,21,23,30,31,1.4,0.9,1.1*30
MSG 0 48915.018 $GPGSV,3,3,12,21,10,064,40,23,59,244,50,30,44,058,47,31,15,111,44*7E
MSG 0 48915.164 $PGRME,4.6,M,5.9,M,7.5,M*22
MSG 0 48915.224 $PGRMB,0.0,200,,,,K,,N,N*31
MSG 0 48915.284 $PGRMM,WGS 84*06
MSG 0 48915.600 $GPRMC,173636,A,4303.0222,N,07037.9369,W,000.3,220.3,030712,016.1,W*71
POS 0 48996.000 367062.886 4767701.156
QUA 0 48996.000 7 9.100 0.900 10.000 1.000 0.000 0.000 0.000
RAW 0 48996.000 4 430302.22000 -703793.69000 -23.30000 173636.00000
MSG 0 48915.750 $GPGGA,173636,4303.0222,N,07037.9369,W,1,10,0.9,9.1,M,-32.4,M,,*7E
MSG 0 48915.892 $GPGSA,A,3,,06,07,10,13,16,19,,21,23,30,31,1.4,0.9,1.1*30
MSG 0 48916.015 $GPGSV,3,1,12,03,58,170,32,06,63,132,48,07,19,301,47,10,07,308,43*7A
MSG 0 48916.161 $PGRME,4.6,M,5.9,M,7.5,M*22
MSG 0 48916.221 $PGRMB,0.0,200,,,,K,,N,N*31
MSG 0 48916.281 $PGRMM,WGS 84*06
MSG 0 48916.621 $GPRMC,173637,A,4303.0220,N,07037.9369,W,000.4,200.7,030712,016.1,W*73
POS 0 48997.000 367062.879 4767700.786
QUA 0 48997.000 7 9.100 0.900 10.000 1.000 0.000 0.000 0.000
RAW 0 48997.000 4 430302.20000 -703793.69000 -23.60000 173637.00000
MSG 0 48916.771 $GPGGA,173637,4303.0220,N,07037.9369,W,1,10,0.9,8.8,M,-32.4,M,,*75
MSG 0 48916.912 $GPGSA,A,3,,06,07,10,13,16,19,,21,23,30,31,1.4,0.9,1.1*30
MSG 0 48917.035 $GPGSV,3,2,12,13,46,300,50,16,71,029,45,19,24,185,43,20,00,227,00*76
MSG 0 48917.181 $PGRME,4.6,M,5.9,M,7.5,M*22
MSG 0 48917.241 $PGRMB,0.0,200,,,,K,,N,N*31
MSG 0 48917.302 $PGRMM,WGS 84*06
MSG 0 48917.603 $GPRMC,173638,A,4303.0218,N,07037.9368,W,000.5,177.5,030712,016.1,W*76
POS 0 48998.000 367063.008 4767700.413
QUA 0 48998.000 7 9.100 0.900 10.000 1.000 0.000 0.000 0.000
RAW 0 48998.000 4 430302.18000 -703793.68000 -23.70000 173638.00000
MSG 0 48917.753 $GPGGA,173638,4303.0218,N,07037.9368,W,1,10,0.9,8.7,M,-32.4,M,,*7F
MSG 0 48917.895 $GPGSA,A,3,,06,07,10,13,16,19,,21,23,30,31,1.4,0.9,1.1*30
MSG 0 48918.018 $GPGSV,3,3,12,21,10,064,39,23,59,244,51,30,44,058,47,31,15,111,44*71
MSG 0 48918.164 $PGRME,4.6,M,5.9,M,7.5,M*22
MSG 0 48918.224 $PGRMB,0.0,200,,,,K,,N,N*31
MSG 0 48918.284 $PGRMM,WGS 84*06
MSG 0 48918.600 $GPRMC,173639,A,4303.0218,N,07037.9367,W,000.4,166.1,030712,016.1,W*7D
POS 0 48999.000 367063.143 4767700.410
QUA 0 48999.000 7 9.100 0.900 10.000 1.000 0.000 0.000 0.000
RAW 0 48999.000 4 430302.18000 -703793.67000 -23.50000 173639.00000
MSG 0 48918.750 $GPGGA,173639,4303.0218,N,07037.9367,W,1,10,0.9,8.9,M,-32.4,M,,*7F
MSG 0 48918.891 $GPGSA,A,3,,06,07,10,13,16,19,,21,23,30,31,1.4,0.9,1.1*30
MSG 0 48919.014 $GPGSV,3,1,12,03,58,170,32,06,63,132,48,07,19,301,46,10,07,308,43*7B
MSG 0 48919.160 $PGRME,4.6,M,5.9,M,7.5,M*22
MSG 0 48919.220 $PGRMB,0.0,200,,,,K,,N,N*31
MSG 0 48919.281 $PGRMM,WGS 84*06
MSG 0 48919.603 $GPRMC,173640,A,4303.0216,N,07037.9368,W,000.4,181.8,030712,016.1,W*72
POS 0 49000.000 367063.000 4767700.043
QUA 0 49000.000 7 9.100 0.900 10.000 1.000 0.000 0.000 0.000
RAW 0 49000.000 4 430302.16000 -703793.68000 -23.30000 173640.00000
MSG 0 48919.753 $GPGGA,173640,4303.0216,N,07037.9368,W,1,10,0.9,9.1,M,-32.4,M,,*79
MSG 0 48919.895 $GPGSA,A,3,,06,07,10,13,16,19,,21,23,30,31,1.4,0.9,1.1*30
MSG 0 48920.017 $GPGSV,3,2,12,13,46,300,50,16,71,029,45,19,24,185,43,20,00,227,00*76
MSG 0 48920.163 $PGRME,4.6,M,5.9,M,7.5,M*22
MSG 0 48920.224 $PGRMB,0.0,200,,,,K,,N,N*31
MSG 0 48920.284 $PGRMM,WGS 84*06
MSG 0 48920.612 $GPRMC,173641,A,4303.0215,N,07037.9369,W,000.4,197.4,030712,016.1,W*7A
POS 0 49001.000 367062.861 4767699.861
QUA 0 49001.000 7 9.100 0.900 10.000 1.000 0.000 0.000 0.000
RAW 0 49001.000 4 430302.15000 -703793.69000 -23.20000 173641.00000
MSG 0 48920.762 $GPGGA,173641,4303.0215,N,07037.9369,W,1,10,0.9,9.2,M,-32.4,M,,*79
MSG 0 48920.903 $GPGSA,A,3,,06,07,10,13,16,19,,21,23,30,31,1.4,0.9,1.1*30
MSG 0 48921.026 $GPGSV,3,3,12,21,10,064,39,23,59,244,51,30,44,058,47,31,15,111,44*71
MSG 0 48921.172 $PGRME,4.6,M,5.9,M,7.5,M*22
MSG 0 48921.232 $PGRMB,0.0,200,,,,K,,N,N*31
MSG 0 48921.293 $PGRMM,WGS 84*06
MSG 0 48921.588 $GPRMC,173642,A,4303.0214,N,07037.9369,W,000.5,185.8,030712,016.1,W*76
POS 0 49002.000 367062.858 4767699.675
QUA 0 49002.000 7 9.100 0.900 10.000 1.000 0.000 0.000 0.000
RAW 0 49002.000 4 430302.14000 -703793.69000 -23.10000 173642.00000
MSG 0 48921.738 $GPGGA,173642,4303.0214,N,07037.9369,W,1,10,0.9,9.3,M,-32.4,M,,*7A
MSG 0 48921.880 $GPGSA,A,3,,06,07,10,13,16,19,,21,23,30,31,1.4,0.9,1.1*30
MSG 0 48922.003 $GPGSV,3,1,12,03,58,170,00,06,63,132,48,07,19,301,46,10,07,308,44*7D
MSG 0 48922.148 $PGRME,4.6,M,5.9,M,7.5,M*22
MSG 0 48922.209 $PGRMB,0.0,200,,,,K,,N,N*31
MSG 0 48922.269 $PGRMM,WGS 84*06
MSG 0 48922.620 $GPRMC,173643,A,4303.0213,N,07037.9371,W,000.4,221.0,030712,016.1,W*7D
POS 0 49003.000 367062.582 4767699.496
QUA 0 49003.000 7 9.100 0.900 10.000 1.000 0.000 0.000 0.000
RAW 0 49003.000 4 430302.13000 -703793.71000 -23.20000 173643.00000
MSG 0 48922.770 $GPGGA,173643,4303.0213,N,07037.9371,W,1,10,0.9,9.2,M,-32.4,M,,*74
MSG 0 48922.912 $GPGSA,A,3,,06,07,10,13,16,19,,21,23,30,31,1.4,0.9,1.1*30
MSG 0 48923.035 $GPGSV,3,2,12,13,46,300,50,16,71,029,45,19,24,185,44,20,00,227,00*71
MSG 0 48923.180 $PGRME,4.6,M,5.9,M,7.5,M*22
MSG 0 48923.241 $PGRMB,0.0,200,,,,K,,N,N*31
MSG 0 48923.301 $PGRMM,WGS 84*06
MSG 0 48923.588 $GPRMC,173644,A,4303.0213,N,07037.9373,W,000.5,241.8,030712,016.1,W*77
POS 0 49004.000 367062.311 4767699.501
QUA 0 49004.000 7 9.100 0.900 10.000 1.000 0.000 0.000 0.000
RAW 0 49004.000 4 430302.13000 -703793.73000 -23.20000 173644.00000
MSG 0 48923.738 $GPGGA,173644,4303.0213,N,07037.9373,W,1,10,0.9,9.2,M,-32.4,M,,*71
MSG 0 48923.879 $GPGSA,A,3,,06,07,10,13,16,19,,21,23,30,31,1.4,0.9,1.1*30
MSG 0 48924.002 $GPGSV,3,3,12,21,10,064,40,23,59,244,51,30,44,058,47,31,15,111,44*7F
MSG 0 48924.148 $PGRME,4.6,M,5.9,M,7.5,M*22
MSG 0 48924.208 $PGRMB,0.0,200,,,,K,,N,N*31
MSG 0 48924.268 $PGRMM,WGS 84*06
MSG 0 48924.619 $GPRMC,173645,A,4303.0212,N,07037.9371,W,000.4,167.9,030712,016.1,W*72
POS 0 49005.000 367062.579 4767699.311
QUA 0 49005.000 7 9.100 0.900 10.000 1.000 0.000 0.000 0.000
RAW 0 49005.000 4 430302.12000 -703793.71000 -23.40000 173645.00000
MSG 0 48924.769 $GPGGA,173645,4303.0212,N,07037.9371,W,1,10,0.9,9.0,M,-32.4,M,,*71
MSG 0 48924.911 $GPGSA,A,3,,06,07,10,13,16,19,,21,23,30,31,1.4,0.9,1.1*30
MSG 0 48925.033 $GPGSV,3,1,12,03,58,170,00,06,63,132,48,07,19,301,47,10,07,308,42*7A
MSG 0 48925.179 $PGRME,4.6,M,5.9,M,7.5,M*22
MSG 0 48925.240 $PGRMB,0.0,200,,,,K,,N,N*31
MSG 0 48925.300 $PGRMM,WGS 84*06
MSG 0 48925.603 $GPRMC,173646,A,4303.0211,N,07037.9371,W,000.3,167.0,030712,016.1,W*7C
POS 0 49006.000 367062.575 4767699.125
QUA 0 49006.000 7 9.100 0.900 10.000 1.000 0.000 0.000 0.000
RAW 0 49006.000 4 430302.11000 -703793.71000 -23.50000 173646.00000
MSG 0 48925.753 $GPGGA,173646,4303.0211,N,07037.9371,W,1,10,0.9,8.9,M,-32.4,M,,*79
MSG 0 48925.895 $GPGSA,A,3,,06,07,10,13,16,19,,21,23,30,31,1.4,0.9,1.1*30
MSG 0 48926.017 $GPGSV,3,2,12,13,46,300,50,16,71,029,44,19,24,185,44,20,00,227,00*70
MSG 0 48926.163 $PGRME,4.6,M,5.9,M,7.5,M*22
MSG 0 48926.224 $PGRMB,0.0,200,,,,K,,N,N*31
MSG 0 48926.284 $PGRMM,WGS 84*06
MSG 0 48926.588 $GPRMC,173647,A,4303.0210,N,07037.9372,W,000.3,207.8,030712,016.1,W*72
POS 0 49007.000 367062.436 4767698.943
QUA 0 49007.000 7 9.100 0.900 10.000 1.000 0.000 0.000 0.000
RAW 0 49007.000 4 430302.10000 -703793.72000 -23.60000 173647.00000
MSG 0 48926.738 $GPGGA,173647,4303.0210,N,07037.9372,W,1,10,0.9,8.8,M,-32.4,M,,*7B
MSG 0 48926.880 $GPGSA,A,3,,06,07,10,13,16,19,,21,23,30,31,1.4,0.9,1.1*30
MSG 0 48927.002 $GPGSV,3,3,12,21,10,064,39,23,59,244,51,30,44,058,47,31,15,111,44*71
MSG 0 48927.148 $PGRME,4.6,M,5.9,M,7.5,M*22
MSG 0 48927.209 $PGRMB,0.0,200,,,,K,,N,N*31
MSG 0 48927.269 $PGRMM,WGS 84*06
MSG 0 48927.598 $GPRMC,173648,A,4303.0208,N,07037.9370,W,000.7,161.3,030712,016.1,W*7A
POS 0 49008.000 367062.700 4767698.568
QUA 0 49008.000 7 9.100 0.900 10.000 1.000 0.000 0.000 0.000
RAW 0 49008.000 4 430302.08000 -703793.70000 -23.40000 173648.00000
MSG 0 48927.748 $GPGGA,173648,4303.0208,N,07037.9370,W,1,10,0.9,9.0,M,-32.4,M,,*76
MSG 0 48927.890 $GPGSA,A,3,,06,07,10,13,16,19,,21,23,30,31,1.4,0.9,1.1*30
MSG 0 48928.013 $GPGSV,3,1,12,03,58,170,00,06,63,132,49,07,19,301,46,10,07,308,42*7A
MSG 0 48928.158 $PGRME,4.6,M,5.9,M,7.5,M*22
MSG 0 48928.219 $PGRMB,0.0,200,,,,K,,N,N*31
MSG 0 48928.279 $PGRMM,WGS 84*06
MSG 0 48928.590 $GPRMC,173649,A,4303.0208,N,07037.9372,W,000.4,201.7,030712,016.1,W*7B
POS 0 49009.000 367062.429 4767698.573
QUA 0 49009.000 7 9.100 0.900 10.000 1.000 0.000 0.000 0.000
RAW 0 49009.000 4 430302.08000 -703793.72000 -23.10000 173649.00000
MSG 0 48928.740 $GPGGA,173649,4303.0208,N,07037.9372,W,1,10,0.9,9.3,M,-32.4,M,,*76
MSG 0 48928.882 $GPGSA,A,3,,06,07,10,13,16,19,,21,23,30,31,1.4,0.9,1.1*30
MSG 0 48929.004 $GPGSV,3,2,12,13,46,300,50,16,70,031,45,19,24,185,44,20,00,227,00*79
MSG 0 48929.150 $PGRME,4.6,M,5.9,M,7.5,M*22
MSG 0 48929.211 $PGRMB,0.0,200,,,,K,,N,N*31
MSG 0 48929.271 $PGRMM,WGS 84*06
MSG 0 48929.605 $GPRMC,173650,A,4303.0206,N,07037.9374,W,000.6,225.8,030712,016.1,W*70
POS 0 49010.000 367062.150 4767698.208
QUA 0 49010.000 7 9.100 0.900 10.000 1.000 0.000 0.000 0.000
RAW 0 49010.000 4 430302.06000 -703793.74000 -23.20000 173650.00000
MSG 0 48929.755 $GPGGA,173650,4303.0206,N,07037.9374,W,1,10,0.9,9.2,M,-32.4,M,,*77
MSG 0 48929.896 $GPGSA,A,3,,06,07,10,13,16,19,,21,23,30,31,1.4,0.9,1.1*30
MSG 0 48930.019 $GPGSV,3,3,12,21,10,064,39,23,59,244,51,30,44,058,47,31,15,111,44*71
MSG 0 48930.165 $PGRME,4.6,M,5.9,M,7.5,M*22
MSG 0 48930.225 $PGRMB,0.0,200,,,,K,,N,N*31
MSG 0 48930.286 $PGRMM,WGS 84*06
MSG 0 48930.612 $GPRMC,173651,A,4303.0205,N,07037.9372,W,000.4,170.1,030712,016.1,W*7C
POS 0 49011.000 367062.418 4767698.018
QUA 0 49011.000 7 9.100 0.900 10.000 1.000 0.000 0.000 0.000
RAW 0 49011.000 4 430302.05000 -703793.72000 -23.30000 173651.00000
MSG 0 48930.762 $GPGGA,173651,4303.0205,N,07037.9372,W,1,10,0.9,9.1,M,-32.4,M,,*70
MSG 0 48930.903 $GPGSA,A,3,,06,07,10,13,16,19,,21,23,30,31,1.4,0.9,1.1*30
MSG 0 48931.026 $GPGSV,3,1,12,03,58,170,00,06,63,132,48,07,19,301,46,10,07,308,43*7A
MSG 0 48931.172 $PGRME,4.6,M,5.9,M,7.5,M*22
MSG 0 48931.232 $PGRMB,0.0,200,,,,K,,N,N*31
MSG 0 48931.293 $PGRMM,WGS 84*06
MSG 0 48931.590 $GPRMC,173652,A,4303.0205,N,07037.9374,W,000.3,213.1,030712,016.1,W*78
POS 0 49012.000 367062.146 4767698.023
QUA 0 49012.000 7 9.100 0.900 10.000 1.000 0.000 0.000 0.000
RAW 0 49012.000 4 430302.05000 -703793.74000 -23.60000 173652.00000
MSG 0 48931.740 $GPGGA,173652,4303.0205,N,07037.9374,W,1,10,0.9,8.8,M,-32.4,M,,*7D
MSG 0 48931.881 $GPGSA,A,3,,06,07,10,13,16,19,,21,23,30,31,1.4,0.9,1.1*30
MSG 0 48932.004 $GPGSV,3,2,12,13,46,300,50,16,70,031,44,19,24,185,43,20,00,227,00*7F
MSG 0 48932.150 $PGRME,4.6,M,5.9,M,7.5,M*22
MSG 0 48932.210 $PGRMB,0.0,200,,,,K,,N,N*31
MSG 0 48932.271 $PGRMM,WGS 84*06
MSG 0 48932.606 $GPRMC,173653,A,4303.0204,N,07037.9373,W,000.3,169.5,030712,016.1,W*75
POS 0 49013.000 367062.279 4767697.835
QUA 0 49013.000 7 9.100 0.900 10.000 1.000 0.000 0.000 0.000
RAW 0 49013.000 4 430302.04000 -703793.73000 -23.50000 173653.00000
MSG 0 48932.756 $GPGGA,173653,4303.0204,N,07037.9373,W,1,10,0.9,8.9,M,-32.4,M,,*7B
MSG 0 48932.897 $GPGSA,A,3,,06,07,10,13,16,19,,21,23,30,31,1.4,0.9,1.1*30
MSG 0 48933.020 $GPGSV,3,3,12,21,10,064,38,23,59,244,51,30,44,058,47,31,15,111,44*70
MSG 0 48933.166 $PGRME,4.6,M,5.9,M,7.5,M*22
MSG 0 48933.226 $PGRMB,0.0,200,,,,K,,N,N*31
MSG 0 48933.287 $PGRMM,WGS 84*06
MSG 0 48933.615 $GPRMC,173654,A,4303.0202,N,07037.9372,W,000.5,170.3,030712,016.1,W*7D
POS 0 49014.000 367062.407 4767697.462
QUA 0 49014.000 7 9.100 0.900 10.000 1.000 0.000 0.000 0.000
RAW 0 49014.000 4 430302.02000 -703793.72000 -23.10000 173654.00000
MSG 0 48933.765 $GPGGA,173654,4303.0202,N,07037.9372,W,1,10,0.9,9.3,M,-32.4,M,,*70
MSG 0 48933.907 $GPGSA,A,3,,06,07,10,13,16,19,,21,23,30,31,1.4,0.9,1.1*30
MSG 0 48934.029 $GPGSV,3,1,12,03,58,170,33,06,63,132,49,07,19,301,46,10,07,308,43*7B
MSG 0 48934.175 $PGRME,4.6,M,5.9,M,7.5,M*22
MSG 0 48934.236 $PGRMB,0.0,200,,,,K,,N,N*31
MSG 0 48934.296 $PGRMM,WGS 84*06
MSG 0 48934.588 $GPRMC,173655,A,4303.0202,N,07037.9375,W,000.5,222.7,030712,016.1,W*7B
POS 0 49015.000 367062.000 4767697.470
QUA 0 49015.000 7 9.100 0.900 10.000 1.000 0.000 0.000 0.000
RAW 0 49015.000 4 430302.02000 -703793.75000 -23.10000 173655.00000
MSG 0 48934.738 $GPGGA,173655,4303.0202,N,07037.9375,W,1,10,0.9,9.3,M,-32.4,M,,*76
MSG 0 48934.879 $GPGSA,A,3,,06,07,10,13,16,19,,21,23,30,31,1.4,0.9,1.1*30
MSG 0 48935.002 $GPGSV,3,2,12,13,46,300,50,16,70,031,45,19,24,185,44,20,00,227,00*79
MSG 0 48935.148 $PGRME,4.6,M,5.9,M,7.5,M*22
MSG 0 48935.208 $PGRMB,0.0,200,,,,K,,N,N*31
MSG 0 48935.269 $PGRMM,WGS 84*06
MSG 0 48935.586 $GPRMC,173656,A,4303.0200,N,07037.9376,W,000.5,209.4,030712,016.1,W*73
POS 0 49016.000 367061.857 4767697.103
QUA 0 49016.000 7 9.100 0.900 10.000 1.000 0.000 0.000 0.000
RAW 0 49016.000 4 430302.00000 -703793.76000 -23.20000 173656.00000
MSG 0 48935.736 $GPGGA,173656,4303.0200,N,07037.9376,W,1,10,0.9,9.2,M,-32.4,M,,*75
MSG 0 48935.878 $GPGSA,A,3,,06,07,10,13,16,19,,21,23,30,31,1.4,0.9,1.1*30
MSG 0 48936.001 $GPGSV,3,3,12,21,10,064,39,23,59,244,51,30,44,058,47,31,15,111,44*71
MSG 0 48936.146 $PGRME,4.6,M,5.9,M,7.5,M*22
MSG 0 48936.207 $PGRMB,0.0,200,,,,K,,N,N*31
MSG 0 48936.267 $PGRMM,WGS 84*06
MSG 0 48936.583 $GPRMC,173657,A,4303.0199,N,07037.9376,W,000.5,201.9,030712,016.1,W*74
POS 0 49017.000 367061.853 4767696.918
QUA 0 49017.000 7 9.100 0.900 10.000 1.000 0.000 0.000 0.000
RAW 0 49017.000 4 430301.99000 -703793.76000 -23.40000 173657.00000
MSG 0 48936.732 $GPGGA,173657,4303.0199,N,07037.9376,W,1,10,0.9,9.0,M,-32.4,M,,*75
MSG 0 48936.874 $GPGSA,A,3,,06,07,10,13,16,19,,21,23,30,31,1.4,0.9,1.1*30
MSG 0 48936.997 $GPGSV,3,1,12,03,58,170,32,06,63,132,48,07,19,301,46,10,07,308,43*7B
MSG 0 48937.143 $PGRME,4.6,M,5.9,M,7.5,M*22
MSG 0 48937.203 $PGRMB,0.0,200,,,,K,,N,N*31
MSG 0 48937.263 $PGRMM,WGS 84*06
MSG 0 48937.604 $GPRMC,173658,A,4303.0199,N,07037.9377,W,000.3,205.4,030712,016.1,W*75
POS 0 49018.000 367061.718 4767696.920
QUA 0 49018.000 7 9.100 0.900 10.000 1.000 0.000 0.000 0.000
RAW 0 49018.000 4 430301.99000 -703793.77000 -23.60000 173658.00000
MSG 0 48937.754 $GPGGA,173658,4303.0199,N,07037.9377,W,1,10,0.9,8.8,M,-32.4,M,,*72
MSG 0 48937.895 $GPGSA,A,3,,06,07,10,13,16,19,,21,23,30,31,1.4,0.9,1.1*30
MSG 0 48938.018 $GPGSV,3,2,12,13,46,300,49,16,70,031,45,19,24,185,44,20,00,227,00*71
MSG 0 48938.164 $PGRME,4.6,M,5.9,M,7.5,M*22
MSG 0 48938.224 $PGRMB,0.0,200,,,,K,,N,N*31
MSG 0 48938.285 $PGRMM,WGS 84*06
MSG 0 48938.620 $GPRMC,173659,A,4303.0198,N,07037.9376,W,000.3,178.0,030712,016.1,W*79
POS 0 49019.000 367061.850 4767696.733
QUA 0 49019.000 7 9.100 0.900 10.000 1.000 0.000 0.000 0.000
RAW 0 49019.000 4 430301.98000 -703793.76000 -23.40000 173659.00000
MSG 0 48938.770 $GPGGA,173659,4303.0198,N,07037.9376,W,1,10,0.9,9.0,M,-32.4,M,,*7A
MSG 0 48938.911 $GPGSA,A,3,,06,07,10,13,16,19,,21,23,30,31,1.4,0.9,1.1*30
MSG 0 48939.034 $GPGSV,3,3,12,21,10,064,39,23,59,244,51,30,44,058,47,31,15,111,44*71
MSG 0 48939.180 $PGRME,4.6,M,5.9,M,7.5,M*22
MSG 0 48939.240 $PGRMB,0.0,200,,,,K,,N,N*31
MSG 0 48939.300 $PGRMM,WGS 84*06
MSG 0 48939.600 $GPRMC,173700,A,4303.0196,N,07037.9376,W,000.4,175.3,030712,016.1,W*73
POS 0 49020.000 367061.843 4767696.362
QUA 0 49020.000 7 9.100 0.900 10.000 1.000 0.000 0.000 0.000
RAW 0 49020.000 4 430301.96000 -703793.76000 -23.20000 173700.00000
MSG 0 48939.750 $GPGGA,173700,4303.0196,N,07037.9376,W,1,10,0.9,9.2,M,-32.4,M,,*7B
MSG 0 48939.891 $GPGSA,A,3,,06,07,10,13,16,19,,21,23,30,31,1.4,0.9,1.1*30
MSG 0 48940.014 $GPGSV,3,1,12,03,58,170,32,06,63,132,48,07,19,301,45,10,07,308,43*78
MSG 0 48940.160 $PGRME,4.6,M,5.9,M,7.5,M*22
MSG 0 48940.220 $PGRMB,0.0,200,,,,K,,N,N*31
MSG 0 48940.281 $PGRMM,WGS 84*06
MSG 0 48940.585 $GPRMC,173701,A,4303.0196,N,07037.9376,W,000.3,170.7,030712,016.1,W*74
POS 0 49021.000 367061.843 4767696.362
QUA 0 49021.000 7 9.100 0.900 10.000 1.000 0.000 0.000 0.000
RAW 0 49021.000 4 430301.96000 -703793.76000 -23.30000 173701.00000
MSG 0 48940.735 $GPGGA,173701,4303.0196,N,07037.9376,W,1,10,0.9,9.1,M,-32.4,M,,*79
MSG 0 48940.877 $GPGSA,A,3,,06,07,10,13,16,19,,21,23,30,31,1.4,0.9,1.1*30
MSG 0 48940.999 $GPGSV,3,2,12,13,46,300,49,16,70,031,45,19,25,185,44,20,00,227,00*70
MSG 0 48941.145 $PGRME,4.6,M,5.9,M,7.5,M*22
MSG 0 48941.206 $PGRMB,0.0,200,,,,K,,N,N*31
MSG 0 48941.266 $PGRMM,WGS 84*06
MSG 0 48941.587 $GPRMC,173702,A,4303.0195,N,07037.9378,W,000.4,219.6,030712,016.1,W*70
POS 0 49022.000 367061.567 4767696.183
QUA 0 49022.000 7 9.100 0.900 10.000 1.000 0.000 0.000 0.000
RAW 0 49022.000 4 430301.95000 -703793.78000 -23.30000 173702.00000
MSG 0 48941.737 $GPGGA,173702,4303.0195,N,07037.9378,W,1,10,0.9,9.1,M,-32.4,M,,*77
MSG 0 48941.878 $GPGSA,A,3,,06,07,10,13,16,19,21,23,30,31,,1.4,0.9,1.1*30
MSG 0 48942.001 $GPGSV,3,3,11,23,59,244,51,30,44,058,47,31,15,111,44*48
MSG 0 48942.120 $PGRME,4.6,M,5.9,M,7.5,M*22
MSG 0 48942.180 $PGRMB,0.0,200,,,,K,,N,N*31
MSG 0 48942.240 $PGRMM,WGS 84*06
MSG 0 48942.590 $GPRMC,173703,A,4303.0193,N,07037.9377,W,000.4,183.3,030712,016.1,W*7D
POS 0 49023.000 367061.696 4767695.810
QUA 0 49023.000 7 9.100 0.900 10.000 1.000 0.000 0.000 0.000
RAW 0 49023.000 4 430301.93000 -703793.77000 -23.40000 173703.00000
MSG 0 48942.740 $GPGGA,173703,4303.0193,N,07037.9377,W,1,10,0.9,9.0,M,-32.4,M,,*7E
MSG 0 48942.881 $GPGSA,A,3,,06,07,10,13,16,19,21,23,30,31,,1.4,0.9,1.1*30
MSG 0 48943.004 $GPGSV,3,1,11,03,58,170,00,06,63,132,48,07,19,301,46,10,07,308,43*79
MSG 0 48943.150 $PGRME,4.6,M,5.9,M,7.5,M*22
MSG 0 48943.210 $PGRMB,0.0,200,,,,K,,N,N*31
MSG 0 48943.270 $PGRMM,WGS 84*06
MSG 0 48943.577 $GPRMC,173704,A,4303.0192,N,07037.9377,W,000.4,173.5,030712,016.1,W*72
POS 0 49024.000 367061.692 4767695.625
QUA 0 49024.000 7 9.100 0.900 10.000 1.000 0.000 0.000 0.000
RAW 0 49024.000 4 430301.92000 -703793.77000 -23.40000 173704.00000
MSG 0 48943.727 $GPGGA,173704,4303.0192,N,07037.9377,W,1,10,0.9,9.0,M,-32.4,M,,*78
MSG 0 48943.868 $GPGSA,A,3,,06,07,10,13,16,19,21,23,30,31,,1.4,0.9,1.1*30
MSG 0 48943.991 $GPGSV,3,2,11,13,46,300,50,16,70,031,45,19,25,185,44,21,10,064,39*74
MSG 0 48944.137 $PGRME,4.6,M,5.9,M,7.5,M*22
MSG 0 48944.197 $PGRMB,0.0,200,,,,K,,N,N*31
MSG 0 48944.258 $PGRMM,WGS 84*06
MSG 0 48944.576 $GPRMC,173705,A,4303.0192,N,07037.9379,W,000.4,220.8,030712,016.1,W*75
POS 0 49025.000 367061.421 4767695.630
QUA 0 49025.000 7 9.100 0.900 10.000 1.000 0.000 0.000 0.000
RAW 0 49025.000 4 430301.92000 -703793.79000 -23.30000 173705.00000
MSG 0 48944.726 $GPGGA,173705,4303.0192,N,07037.9379,W,1,10,0.9,9.1,M,-32.4,M,,*76
MSG 0 48944.868 $GPGSA,A,3,,06,07,10,13,16,19,21,23,30,31,,1.4,0.9,1.1*30
MSG 0 48944.990 $GPGSV,3,3,11,23,59,244,50,30,44,058,47,31,15,111,44*49
MSG 0 48945.109 $PGRME,4.6,M,5.9,M,7.5,M*22
MSG 0 48945.170 $PGRMB,0.0,200,,,,K,,N,N*31
MSG 0 48945.230 $PGRMM,WGS 84*06
MSG 0 48945.582 $GPRMC,173706,A,4303.0191,N,07037.9379,W,000.3,198.7,030712,016.1,W*7D
POS 0 49026.000 367061.417 4767695.445
QUA 0 49026.000 7 9.100 0.900 10.000 1.000 0.000 0.000 0.000
RAW 0 49026.000 4 430301.91000 -703793.79000 -23.20000 173706.00000
MSG 0 48945.732 $GPGGA,173706,4303.0191,N,07037.9379,W,1,10,0.9,9.2,M,-32.4,M,,*75
MSG 0 48945.874 $GPGSA,A,3,,06,07,10,13,16,19,21,23,30,31,,1.4,0.9,1.1*30
MSG 0 48945.997 $GPGSV,3,1,11,03,58,170,33,06,63,132,48,07,19,301,46,10,07,308,43*79
MSG 0 48946.142 $PGRME,4.6,M,5.9,M,7.5,M*22
MSG 0 48946.203 $PGRMB,0.0,200,,,,K,,N,N*31
MSG 0 48946.263 $PGRMM,WGS 84*06
MSG 0 48946.579 $GPRMC,173707,A,4303.0189,N,07037.9380,W,000.4,195.6,030712,016.1,W*78
POS 0 49027.000 367061.274 4767695.077
QUA 0 49027.000 7 9.100 0.900 10.000 1.000 0.000 0.000 0.000
RAW 0 49027.000 4 430301.89000 -703793.80000 -23.00000 173707.00000
MSG 0 48946.729 $GPGGA,173707,4303.0189,N,07037.9380,W,1,10,0.9,9.4,M,-32.4,M,,*7D
MSG 0 48946.870 $GPGSA,A,3,,06,07,10,13,16,19,21,23,30,31,,1.4,0.9,1.1*30
MSG 0 48946.993 $GPGSV,3,2,11,13,46,300,50,16,70,031,45,19,25,185,44,21,10,063,40*7D
MSG 0 48947.139 $PGRME,4.6,M,5.9,M,7.5,M*22
MSG 0 48947.199 $PGRMB,0.0,200,,,,K,,N,N*31
MSG 0 48947.260 $PGRMM,WGS 84*06
MSG 0 48947.577 $GPRMC,173708,A,4303.0189,N,07037.9381,W,000.4,213.9,030712,016.1,W*74
POS 0 49028.000 367061.139 4767695.080
QUA 0 49028.000 7 9.100 0.900 10.000 1.000 0.000 0.000 0.000
RAW 0 49028.000 4 430301.89000 -703793.81000 -23.30000 173708.00000
MSG 0 48947.727 $GPGGA,173708,4303.0189,N,07037.9381,W,1,10,0.9,9.1,M,-32.4,M,,*76
MSG 0 48947.868 $GPGSA,A,3,,06,07,10,13,16,19,21,23,30,31,,1.4,0.9,1.1*30
MSG 0 48947.991 $GPGSV,3,3,11,23,59,244,51,30,44,058,47,31,15,111,45*49
MSG 0 48948.110 $PGRME,4.6,M,5.9,M,7.5,M*22
MSG 0 48948.170 $PGRMB,0.0,200,,,,K,,N,N*31
MSG 0 48948.230 $PGRMM,WGS 84*06
MSG 0 48948.578 $GPRMC,173709,A,4303.0187,N,07037.9381,W,000.5,198.5,030712,016.1,W*76
POS 0 49029.000 367061.131 4767694.710
QUA 0 49029.000 7 9.100 0.900 10.000 1.000 0.000 0.000 0.000
RAW 0 49029.000 4 430301.87000 -703793.81000 -23.40000 173709.00000
MSG 0 48948.728 $GPGGA,173709,4303.0187,N,07037.9381,W,1,10,0.9,9.0,M,-32.4,M,,*78
MSG 0 48948.870 $GPGSA,A,3,,06,07,10,13,16,19,21,23,30,31,,1.4,0.9,1.1*30
MSG 0 48948.992 $GPGSV,3,1,11,03,58,170,34,06,63,132,48,07,19,301,47,10,07,308,43*7F
MSG 0 48949.138 $PGRME,4.6,M,5.9,M,7.5,M*22
MSG 0 48949.199 $PGRMB,0.0,200,,,,K,,N,N*31
MSG 0 48949.259 $PGRMM,WGS 84*06
MSG 0 48949.578 $GPRMC,173710,A,4303.0186,N,07037.9381,W,000.5,181.2,030712,016.1,W*70
POS 0 49030.000 367061.128 4767694.525
QUA 0 49030.000 7 9.100 0.900 10.000 1.000 0.000 0.000 0.000
RAW 0 49030.000 4 430301.86000 -703793.81000 -23.50000 173710.00000
MSG 0 48949.728 $GPGGA,173710,4303.0186,N,07037.9381,W,1,10,0.9,8.9,M,-32.4,M,,*79
MSG 0 48949.870 $GPGSA,A,3,,06,07,10,13,16,19,21,23,30,31,,1.4,0.9,1.1*30
MSG 0 48949.992 $GPGSV,3,2,11,13,46,300,50,16,70,031,45,19,25,185,44,21,10,063,39*73
MSG 0 48950.138 $PGRME,4.6,M,5.9,M,7.5,M*22
MSG 0 48950.199 $PGRMB,0.0,200,,,,K,,N,N*31
MSG 0 48950.259 $PGRMM,WGS 84*06
MSG 0 48950.576 $GPRMC,173711,A,4303.0186,N,07037.9380,W,000.2,144.4,030712,016.1,W*78
POS 0 49031.000 367061.264 4767694.522
QUA 0 49031.000 7 9.100 0.900 10.000 1.000 0.000 0.000 0.000
RAW 0 49031.000 4 430301.86000 -703793.80000 -23.30000 173711.00000
MSG 0 48950.726 $GPGGA,173711,4303.0186,N,07037.9380,W,1,10,0.9,9.1,M,-32.4,M,,*70
MSG 0 48950.868 $GPGSA,A,3,,06,07,10,13,16,19,21,23,30,31,,1.4,0.9,1.1*30
MSG 0 48950.991 $GPGSV,3,3,11,23,59,244,51,30,44,058,47,31,15,111,44*48
MSG 0 48951.110 $PGRME,4.6,M,5.9,M,7.5,M*22
MSG 0 48951.170 $PGRMB,0.0,200,,,,K,,N,N*31
MSG 0 48951.230 $PGRMM,WGS 84*06
MSG 0 48951.576 $GPRMC,173712,A,4303.0185,N,07037.9383,W,000.4,233.9,030712,016.1,W*73
POS 0 49032.000 367060.853 4767694.345
QUA 0 49032.000 7 9.100 0.900 10.000 1.000 0.000 0.000 0.000
RAW 0 49032.000 4 430301.85000 -703793.83000 -23.10000 173712.00000
MSG 0 48951.726 $GPGGA,173712,4303.0185,N,07037.9383,W,1,10,0.9,9.3,M,-32.4,M,,*71
MSG 0 48951.867 $GPGSA,A,3,,06,07,10,13,16,19,21,23,30,31,,1.4,0.9,1.1*30
MSG 0 48951.990 $GPGSV,3,1,11,03,58,170,33,06,63,132,48,07,19,301,46,10,07,308,44*7E
MSG 0 48952.136 $PGRME,4.6,M,5.9,M,7.5,M*22
MSG 0 48952.196 $PGRMB,0.0,200,,,,K,,N,N*31
MSG 0 48952.257 $PGRMM,WGS 84*06
MSG 0 48952.590 $GPRMC,173713,A,4303.0184,N,07037.9381,W,000.3,161.7,030712,016.1,W*7C
POS 0 49033.000 367061.121 4767694.154
QUA 0 49033.000 7 9.100 0.900 10.000 1.000 0.000 0.000 0.000
RAW 0 49033.000 4 430301.84000 -703793.81000 -23.20000 173713.00000
MSG 0 48952.740 $GPGGA,173713,4303.0184,N,07037.9381,W,1,10,0.9,9.2,M,-32.4,M,,*72
MSG 0 48952.881 $GPGSA,A,3,,06,07,10,13,16,19,21,23,30,31,,1.4,0.9,1.1*30
MSG 0 48953.004 $GPGSV,3,2,11,13,46,300,50,16,70,031,45,19,25,185,44,21,10,063,39*73
MSG 0 48953.150 $PGRME,4.6,M,5.9,M,7.5,M*22
MSG 0 48953.210 $PGRMB,0.0,200,,,,K,,N,N*31
MSG 0 48953.271 $PGRMM,WGS 84*06
MSG 0 48953.577 $GPRMC,173714,A,4303.0182,N,07037.9382,W,000.5,190.3,030712,016.1,W*72
POS 0 49034.000 367060.978 4767693.787
QUA 0 49034.000 7 9.100 0.900 10.000 1.000 0.000 0.000 0.000
RAW 0 49034.000 4 430301.82000 -703793.82000 -23.50000 173714.00000
MSG 0 48953.727 $GPGGA,173714,4303.0182,N,07037.9382,W,1,10,0.9,8.9,M,-32.4,M,,*7A
MSG 0 48953.868 $GPGSA,A,3,,06,07,10,13,16,19,21,23,30,31,,1.4,0.9,1.1*30
MSG 0 48953.991 $GPGSV,3,3,11,23,58,244,51,30,44,058,47,31,15,111,44*49
MSG 0 48954.110 $PGRME,4.6,M,5.9,M,7.5,M*22
MSG 0 48954.170 $PGRMB,0.0,200,,,,K,,N,N*31
MSG 0 48954.231 $PGRMM,WGS 84*06
MSG 0 48954.580 $GPRMC,173715,A,4303.0182,N,07037.9383,W,000.4,221.0,030712,016.1,W*79
POS 0 49035.000 367060.842 4767693.790
QUA 0 49035.000 7 9.100 0.900 10.000 1.000 0.000 0.000 0.000
RAW 0 49035.000 4 430301.82000 -703793.83000 -23.40000 173715.00000
MSG 0 48954.730 $GPGGA,173715,4303.0182,N,07037.9383,W,1,10,0.9,9.0,M,-32.4,M,,*72
MSG 0 48954.872 $GPGSA,A,3,,06,07,10,13,16,19,21,23,30,31,,1.4,0.9,1.1*30
MSG 0 48954.995 $GPGSV,3,1,11,03,58,170,33,06,63,132,48,07,19,301,46,10,07,308,43*79
MSG 0 48955.140 $PGRME,4.6,M,5.9,M,7.5,M*22
MSG 0 48955.201 $PGRMB,0.0,200,,,,K,,N,N*31
MSG 0 48955.261 $PGRMM,WGS 84*06
MSG 0 48955.577 $GPRMC,173716,A,4303.0181,N,07037.9382,W,000.4,173.9,030712,016.1,W*75
POS 0 49036.000 367060.974 4767693.602
QUA 0 49036.000 7 9.100 0.900 10.000 1.000 0.000 0.000 0.000
RAW 0 49036.000 4 430301.81000 -703793.82000 -23.30000 173716.00000
MSG 0 48955.727 $GPGGA,173716,4303.0181,N,07037.9382,W,1,10,0.9,9.1,M,-32.4,M,,*72
MSG 0 48955.869 $GPGSA,A,3,,06,07,10,13,16,19,21,23,30,31,,1.4,0.9,1.1*30
MSG 0 48955.991 $GPGSV,3,2,11,13,46,300,49,16,70,031,45,19,25,185,44,21,10,063,39*7B
MSG 0 48956.137 $PGRME,4.6,M,5.9,M,7.5,M*22
MSG 0 48956.198 $PGRMB,0.0,200,,,,K,,N,N*31
MSG 0 48956.258 $PGRMM,WGS 84*06
MSG 0 48956.592 $GPRMC,173717,A,4303.0180,N,07037.9381,W,000.4,162.5,030712,016.1,W*7A
POS 0 49037.000 367061.106 4767693.414
QUA 0 49037.000 7 9.100 0.900 10.000 1.000 0.000 0.000 0.000
RAW 0 49037.000 4 430301.80000 -703793.81000 -23.30000 173717.00000
MSG 0 48956.742 $GPGGA,173717,4303.0180,N,07037.9381,W,1,10,0.9,9.1,M,-32.4,M,,*71
FIX 99 48956.984 107 367061.106 4767693.414
