FTP NEW 2
VER 11.0.6.21
INF "" "" "" "" 0.000 0.000 0.000
ELL WGS-84 6378137.000 298.257223563
PRO TME -69.000000 0.999600 0.000000 0.000000 0.000000 500000.0000 0.0000
DTM 0.00 0.00 0.00 0.00000 0.00000 0.00000 0.00000
GEO ??? 0.000
HVU 1.0000000000 1.0000000000
TND 11:40:16 07/03/2012 240
DEV 0 32869 "Garmin GPS" 49156 C:\HYPACK 2011\devices\GPS.dll 11.0.10.6
OFF 0 0.000 0.000 0.000 0.000 0.000 0.000 0.000
DDT 0 SYN 
DEV 1 0 "Disabled" 0 Odom CV3 MK3 Disabled Unknown
USR "NOAA Joint Hydrographic Center" "HYPACK Inc." 0x8 15681181
EOH 0001FFFFFFFFFFFFFFFFFFFFFFFFFFFFFFFFFFFFFFFFFFFFFFFFFFFFFFFFFFFFFFFFFFFFFFFFFFFFFFFFFFFFFFFFFFFFFFFFFFFFFFFFFFFFFFFFFFFFFFFFFFFFFFFFFFFFFFFFFFFFFFFFFFFFFFFFFFFFFFFFFFFFFFFFFFFFFFFFFFFF003021300906052B0E03021A05000414FF370C21382CCFB78B602ED65B9F67D5C0998103
QUA 0 42094.000 7 9.200 0.800 10.000 1.000 0.000 0.000 0.000
RAW 0 42094.000 4 430317.21000 -703869.25000 -25.70000 154134.00000
MSG 0 42013.998 $GPGGA,154134,4303.1721,N,07038.6925,W,1,10,0.8,6.7,M,-32.4,M,,*73
MSG 0 42014.139 $GPGSA,A,3,,06,13,14,16,20,,25,29,30,31,32,1.3,0.8,1.1*30
MSG 0 42014.262 $GPGSV,3,2,12,16,52,218,48,20,29,268,47,23,32,311,32,25,06,047,39*70
MSG 0 42014.408 $PGRME,5.1,M,5.9,M,7.8,M*29
MSG 0 42014.468 $PGRMT,GPS 17-HVS Ver. 2.80,P,P,R,R,P,,38,R*00
MSG 0 42014.568 $PGRMB,0.0,200,,,,K,,N,N*31
MSG 0 42014.628 $PGRMM,WGS 84*06
MSG 0 42014.832 $GPRMC,154135,A,4303.1717,N,07038.6921,W,001.1,138.1,030712,016.1,W*7F
POS 0 42095.000 366043.201 4767997.880
QUA 0 42095.000 7 9.200 0.800 10.000 1.000 0.000 0.000 0.000
RAW 0 42095.000 4 430317.17000 -703869.21000 -26.00000 154135.00000
MSG 0 42014.982 $GPGGA,154135,4303.1717,N,07038.6921,W,1,10,0.8,6.4,M,-32.4,M,,*70
MSG 0 42015.123 $GPGSA,A,3,,06,13,14,16,20,,25,29,30,31,32,1.3,0.8,1.1*30
MSG 0 42015.246 $GPGSV,3,3,12,29,23,053,43,30,83,225,50,31,54,065,50,32,34,237,45*7D
MSG 0 42015.392 $PGRME,5.1,M,5.9,M,7.8,M*29
MSG 0 42015.452 $PGRMB,0.0,200,,,,K,,N,N*31
MSG 0 42015.512 $PGRMM,WGS 84*06
MSG 0 42015.856 $GPRMC,154136,A,4303.1717,N,07038.6919,W,000.7,118.1,030712,016.1,W*72
FIX 99 42016.225 82 366043.201 4767997.880
POS 0 42096.000 366043.473 4767997.875
QUA 0 42096.000 7 9.200 0.800 10.000 1.000 0.000 0.000 0.000
RAW 0 42096.000 4 430317.17000 -703869.19000 -25.80000 154136.00000
MSG 0 42016.006 $GPGGA,154136,4303.1717,N,07038.6919,W,1,10,0.8,6.6,M,-32.4,M,,*7A
MSG 0 42016.148 $GPGSA,A,3,,06,13,14,16,20,,25,29,30,31,32,1.3,0.8,1.1*30
MSG 0 42016.271 $GPGSV,3,1,12,03,05,184,33,06,14,170,43,13,02,315,38,14,14,138,45*76
MSG 0 42016.416 $PGRME,5.1,M,5.9,M,7.8,M*29
MSG 0 42016.477 $PGRMB,0.0,200,,,,K,,N,N*31
MSG 0 42016.537 $PGRMM,WGS 84*06
MSG 0 42016.856 $GPRMC,154137,A,4303.1717,N,07038.6919,W,000.3,119.4,030712,016.1,W*73
POS 0 42097.000 366043.473 4767997.875
QUA 0 42097.000 7 9.200 0.800 10.000 1.000 0.000 0.000 0.000
RAW 0 42097.000 4 430317.17000 -703869.19000 -25.60000 154137.00000
MSG 0 42017.006 $GPGGA,154137,4303.1717,N,07038.6919,W,1,10,0.8,6.8,M,-32.4,M,,*75
MSG 0 42017.148 $GPGSA,A,3,,06,13,14,16,20,,25,29,30,31,32,1.3,0.8,1.1*30
MSG 0 42017.271 $GPGSV,3,2,12,16,52,218,48,20,29,268,47,23,32,311,32,25,06,047,40*7E
MSG 0 42017.417 $PGRME,5.1,M,5.9,M,7.8,M*29
MSG 0 42017.477 $PGRMB,0.0,200,,,,K,,N,N*31
MSG 0 42017.537 $PGRMM,WGS 84*06
MSG 0 42017.856 $GPRMC,154138,A,4303.1715,N,07038.6915,W,000.7,125.0,030712,016.1,W*7D
POS 0 42098.000 366044.009 4767997.494
QUA 0 42098.000 7 9.200 0.800 10.000 1.000 0.000 0.000 0.000
RAW 0 42098.000 4 430317.15000 -703869.15000 -25.70000 154138.00000
MSG 0 42018.006 $GPGGA,154138,4303.1715,N,07038.6915,W,1,10,0.8,6.7,M,-32.4,M,,*7B
MSG 0 42018.148 $GPGSA,A,3,,06,13,14,16,20,,25,29,30,31,32,1.3,0.8,1.1*30
MSG 0 42018.271 $GPGSV,3,3,12,29,23,053,42,30,83,225,50,31,53,066,50,32,34,237,45*78
MSG 0 42018.417 $PGRME,5.1,M,5.9,M,7.8,M*29
MSG 0 42018.477 $PGRMB,0.0,200,,,,K,,N,N*31
MSG 0 42018.537 $PGRMM,WGS 84*06
MSG 0 42018.855 $GPRMC,154139,A,4303.1712,N,07038.6913,W,000.9,144.6,030712,016.1,W*72
POS 0 42099.000 366044.269 4767996.933
QUA 0 42099.000 7 9.200 0.800 10.000 1.000 0.000 0.000 0.000
RAW 0 42099.000 4 430317.12000 -703869.13000 -25.80000 154139.00000
MSG 0 42019.005 $GPGGA,154139,4303.1712,N,07038.6913,W,1,10,0.8,6.6,M,-32.4,M,,*7A
MSG 0 42019.147 $GPGSA,A,3,,06,13,14,16,20,,25,29,30,31,32,1.3,0.8,1.1*30
MSG 0 42019.270 $GPGSV,3,1,12,03,05,184,32,06,14,170,43,13,02,315,39,14,14,138,45*76
MSG 0 42019.415 $PGRME,5.1,M,5.9,M,7.8,M*29
MSG 0 42019.476 $PGRMB,0.0,200,,,,K,,N,N*31
MSG 0 42019.536 $PGRMM,WGS 84*06
MSG 0 42019.832 $GPRMC,154140,A,4303.1713,N,07038.6913,W,000.4,141.6,030712,016.1,W*75
POS 0 42100.000 366044.273 4767997.118
QUA 0 42100.000 7 9.200 0.800 10.000 1.000 0.000 0.000 0.000
RAW 0 42100.000 4 430317.13000 -703869.13000 -25.60000 154140.00000
MSG 0 42019.982 $GPGGA,154140,4303.1713,N,07038.6913,W,1,10,0.8,6.8,M,-32.4,M,,*7B
MSG 0 42020.124 $GPGSA,A,3,,06,13,14,16,20,,25,29,30,31,32,1.3,0.8,1.1*30
MSG 0 42020.247 $GPGSV,3,2,12,16,52,218,48,20,29,268,47,23,32,311,32,25,06,047,40*7E
MSG 0 42020.392 $PGRME,5.1,M,5.9,M,7.8,M*29
MSG 0 42020.453 $PGRMB,0.0,200,,,,K,,N,N*31
MSG 0 42020.513 $PGRMM,WGS 84*06
MSG 0 42020.832 $GPRMC,154141,A,4303.1710,N,07038.6911,W,000.7,144.0,030712,016.1,W*75
POS 0 42101.000 366044.533 4767996.558
QUA 0 42101.000 7 9.200 0.800 10.000 1.000 0.000 0.000 0.000
RAW 0 42101.000 4 430317.10000 -703869.11000 -25.70000 154141.00000
MSG 0 42020.982 $GPGGA,154141,4303.1710,N,07038.6911,W,1,10,0.8,6.7,M,-32.4,M,,*74
MSG 0 42021.124 $GPGSA,A,3,,06,13,14,16,20,,25,29,30,31,32,1.3,0.8,1.1*30
MSG 0 42021.247 $GPGSV,3,3,12,29,23,053,42,30,83,225,51,31,53,066,50,32,33,236,45*7F
MSG 0 42021.392 $PGRME,5.1,M,5.9,M,7.8,M*29
MSG 0 42021.453 $PGRMB,0.0,200,,,,K,,N,N*31
MSG 0 42021.513 $PGRMM,WGS 84*06
MSG 0 42021.831 $GPRMC,154142,A,4303.1708,N,07038.6909,W,000.8,141.5,030712,016.1,W*79
POS 0 42102.000 366044.798 4767996.182
QUA 0 42102.000 7 9.200 0.800 10.000 1.000 0.000 0.000 0.000
RAW 0 42102.000 4 430317.08000 -703869.09000 -25.60000 154142.00000
MSG 0 42021.981 $GPGGA,154142,4303.1708,N,07038.6909,W,1,10,0.8,6.8,M,-32.4,M,,*78
MSG 0 42022.123 $GPGSA,A,3,,06,13,14,16,20,,25,29,30,31,32,1.3,0.8,1.1*30
MSG 0 42022.246 $GPGSV,3,1,12,03,05,184,33,06,14,170,43,13,02,315,39,14,14,138,45*77
MSG 0 42022.391 $PGRME,5.1,M,5.9,M,7.8,M*29
MSG 0 42022.452 $PGRMB,0.0,200,,,,K,,N,N*31
MSG 0 42022.512 $PGRMM,WGS 84*06
MSG 0 42022.832 $GPRMC,154143,A,4303.1708,N,07038.6908,W,000.5,130.4,030712,016.1,W*73
POS 0 42103.000 366044.933 4767996.180
QUA 0 42103.000 7 9.200 0.800 10.000 1.000 0.000 0.000 0.000
RAW 0 42103.000 4 430317.08000 -703869.08000 -25.70000 154143.00000
MSG 0 42022.982 $GPGGA,154143,4303.1708,N,07038.6908,W,1,10,0.8,6.7,M,-32.4,M,,*77
MSG 0 42023.124 $GPGSA,A,3,,06,13,14,16,20,,25,29,30,31,32,1.3,0.8,1.1*30
MSG 0 42023.247 $GPGSV,3,2,12,16,52,218,48,20,29,268,47,23,32,311,32,25,06,047,40*7E
MSG 0 42023.393 $PGRME,5.1,M,5.9,M,7.8,M*29
MSG 0 42023.453 $PGRMB,0.0,200,,,,K,,N,N*31
MSG 0 42023.513 $PGRMM,WGS 84*06
MSG 0 42023.831 $GPRMC,154144,A,4303.1707,N,07038.6906,W,000.5,136.2,030712,016.1,W*75
POS 0 42104.000 366045.201 4767995.989
QUA 0 42104.000 7 9.200 0.800 10.000 1.000 0.000 0.000 0.000
RAW 0 42104.000 4 430317.07000 -703869.06000 -26.00000 154144.00000
MSG 0 42023.981 $GPGGA,154144,4303.1707,N,07038.6906,W,1,10,0.8,6.4,M,-32.4,M,,*72
MSG 0 42024.123 $GPGSA,A,3,,06,13,14,16,20,,25,29,30,31,32,1.3,0.8,1.1*30
MSG 0 42024.246 $GPGSV,3,3,12,29,23,053,42,30,83,225,51,31,53,066,51,32,33,236,45*7E
MSG 0 42024.391 $PGRME,5.1,M,5.9,M,7.8,M*29
MSG 0 42024.452 $PGRMB,0.0,200,,,,K,,N,N*31
MSG 0 42024.512 $PGRMM,WGS 84*06
MSG 0 42024.831 $GPRMC,154145,A,4303.1704,N,07038.6903,W,000.9,139.3,030712,016.1,W*70
POS 0 42105.000 366045.597 4767995.426
QUA 0 42105.000 7 9.200 0.800 10.000 1.000 0.000 0.000 0.000
RAW 0 42105.000 4 430317.04000 -703869.03000 -26.30000 154145.00000
MSG 0 42024.981 $GPGGA,154145,4303.1704,N,07038.6903,W,1,10,0.8,6.1,M,-32.4,M,,*70
MSG 0 42025.122 $GPGSA,A,3,,06,13,14,16,20,,25,29,30,31,32,1.3,0.8,1.1*30
MSG 0 42025.245 $GPGSV,3,1,12,03,05,184,33,06,14,170,43,13,02,315,39,14,14,138,44*76
MSG 0 42025.391 $PGRME,5.1,M,5.9,M,7.8,M*29
MSG 0 42025.451 $PGRMB,0.0,200,,,,K,,N,N*31
MSG 0 42025.511 $PGRMM,WGS 84*06
MSG 0 42025.845 $GPRMC,154146,A,4303.1703,N,07038.6901,W,000.7,137.8,030712,016.1,W*7D
POS 0 42106.000 366045.865 4767995.236
QUA 0 42106.000 7 9.200 0.800 10.000 1.000 0.000 0.000 0.000
RAW 0 42106.000 4 430317.03000 -703869.01000 -26.00000 154146.00000
MSG 0 42025.995 $GPGGA,154146,4303.1703,N,07038.6901,W,1,10,0.8,6.4,M,-32.4,M,,*73
MSG 0 42026.136 $GPGSA,A,3,,06,13,14,16,20,,25,29,30,31,32,1.3,0.8,1.1*30
MSG 0 42026.259 $GPGSV,3,2,12,16,52,218,48,20,29,268,47,23,32,311,32,25,06,047,40*7E
MSG 0 42026.405 $PGRME,5.1,M,5.9,M,7.8,M*29
MSG 0 42026.465 $PGRMB,0.0,200,,,,K,,N,N*31
MSG 0 42026.525 $PGRMM,WGS 84*06
MSG 0 42026.830 $GPRMC,154147,A,4303.1702,N,07038.6899,W,000.7,129.2,030712,016.1,W*78
POS 0 42107.000 366046.133 4767995.045
QUA 0 42107.000 7 9.200 0.800 10.000 1.000 0.000 0.000 0.000
RAW 0 42107.000 4 430317.02000 -703868.99000 -25.60000 154147.00000
MSG 0 42026.980 $GPGGA,154147,4303.1702,N,07038.6899,W,1,10,0.8,6.8,M,-32.4,M,,*7F
MSG 0 42027.122 $GPGSA,A,3,,06,13,14,16,20,,25,29,30,31,32,1.3,0.8,1.1*30
MSG 0 42027.245 $GPGSV,3,3,12,29,23,053,43,30,83,225,51,31,53,066,50,32,33,236,45*7E
MSG 0 42027.391 $PGRME,5.1,M,5.9,M,7.8,M*29
MSG 0 42027.451 $PGRMB,0.0,200,,,,K,,N,N*31
MSG 0 42027.511 $PGRMM,WGS 84*06
MSG 0 42027.843 $GPRMC,154148,A,4303.1701,N,07038.6897,W,000.6,133.8,030712,016.1,W*7A
POS 0 42108.000 366046.401 4767994.855
QUA 0 42108.000 7 9.200 0.800 10.000 1.000 0.000 0.000 0.000
RAW 0 42108.000 4 430317.01000 -703868.97000 -25.70000 154148.00000
MSG 0 42027.993 $GPGGA,154148,4303.1701,N,07038.6897,W,1,10,0.8,6.7,M,-32.4,M,,*72
MSG 0 42028.135 $GPGSA,A,3,,06,13,14,16,20,,25,29,30,31,32,1.3,0.8,1.1*30
MSG 0 42028.257 $GPGSV,3,1,12,03,05,184,33,06,14,170,42,13,02,315,39,14,14,138,44*77
MSG 0 42028.403 $PGRME,5.1,M,5.9,M,7.8,M*29
MSG 0 42028.463 $PGRMB,0.0,200,,,,K,,N,N*31
MSG 0 42028.524 $PGRMM,WGS 84*06
MSG 0 42028.833 $GPRMC,154149,A,4303.1700,N,07038.6895,W,000.7,124.0,030712,016.1,W*77
POS 0 42109.000 366046.669 4767994.664
QUA 0 42109.000 7 9.200 0.800 10.000 1.000 0.000 0.000 0.000
RAW 0 42109.000 4 430317.00000 -703868.95000 -25.80000 154149.00000
MSG 0 42028.983 $GPGGA,154149,4303.1700,N,07038.6895,W,1,10,0.8,6.6,M,-32.4,M,,*71
MSG 0 42029.125 $GPGSA,A,3,,06,13,14,16,20,,25,29,30,31,32,1.3,0.8,1.1*30
MSG 0 42029.248 $GPGSV,3,2,12,16,52,218,48,20,29,268,47,23,32,311,32,25,06,047,41*7F
MSG 0 42029.393 $PGRME,5.1,M,5.9,M,7.8,M*29
MSG 0 42029.454 $PGRMB,0.0,200,,,,K,,N,N*31
MSG 0 42029.514 $PGRMM,WGS 84*06
MSG 0 42029.832 $GPRMC,154150,A,4303.1699,N,07038.6895,W,000.4,145.7,030712,016.1,W*7D
POS 0 42110.000 366046.665 4767994.479
QUA 0 42110.000 7 9.200 0.800 10.000 1.000 0.000 0.000 0.000
RAW 0 42110.000 4 430316.99000 -703868.95000 -25.90000 154150.00000
MSG 0 42029.982 $GPGGA,154150,4303.1699,N,07038.6895,W,1,10,0.8,6.5,M,-32.4,M,,*7B
MSG 0 42030.123 $GPGSA,A,3,,06,13,14,16,20,,25,29,30,31,32,1.3,0.8,1.1*30
MSG 0 42030.246 $GPGSV,3,3,12,29,23,053,42,30,83,225,51,31,53,066,50,32,33,236,45*7F
MSG 0 42030.392 $PGRME,5.1,M,5.9,M,7.8,M*29
MSG 0 42030.452 $PGRMB,0.0,200,,,,K,,N,N*31
MSG 0 42030.513 $PGRMM,WGS 84*06
MSG 0 42030.831 $GPRMC,154151,A,4303.1698,N,07038.6893,W,000.4,130.2,030712,016.1,W*7C
POS 0 42111.000 366046.933 4767994.289
QUA 0 42111.000 7 9.200 0.800 10.000 1.000 0.000 0.000 0.000
RAW 0 42111.000 4 430316.98000 -703868.93000 -25.80000 154151.00000
MSG 0 42030.981 $GPGGA,154151,4303.1698,N,07038.6893,W,1,10,0.8,6.6,M,-32.4,M,,*7E
MSG 0 42031.123 $GPGSA,A,3,,06,13,14,16,20,,25,29,30,31,32,1.3,0.8,1.1*30
MSG 0 42031.245 $GPGSV,3,1,12,03,05,184,33,06,14,170,42,13,02,315,39,14,14,138,45*76
MSG 0 42031.391 $PGRME,5.1,M,5.9,M,7.8,M*29
MSG 0 42031.451 $PGRMB,0.0,200,,,,K,,N,N*31
MSG 0 42031.512 $PGRMM,WGS 84*06
MSG 0 42031.845 $GPRMC,154152,A,4303.1696,N,07038.6890,W,000.8,139.4,030712,016.1,W*71
POS 0 42112.000 366047.333 4767993.911
QUA 0 42112.000 7 9.200 0.800 10.000 1.000 0.000 0.000 0.000
RAW 0 42112.000 4 430316.96000 -703868.90000 -26.10000 154152.00000
MSG 0 42031.995 $GPGGA,154152,4303.1696,N,07038.6890,W,1,10,0.8,6.3,M,-32.4,M,,*75
MSG 0 42032.136 $GPGSA,A,3,,06,13,14,16,20,,25,29,30,31,32,1.3,0.8,1.1*30
MSG 0 42032.259 $GPGSV,3,2,12,16,52,218,48,20,29,268,47,23,32,311,32,25,06,047,41*7F
MSG 0 42032.405 $PGRME,5.1,M,5.9,M,7.8,M*29
MSG 0 42032.465 $PGRMB,0.0,200,,,,K,,N,N*31
MSG 0 42032.526 $PGRMM,WGS 84*06
MSG 0 42032.829 $GPRMC,154153,A,4303.1694,N,07038.6888,W,000.9,139.5,030712,016.1,W*7B
POS 0 42113.000 366047.597 4767993.535
QUA 0 42113.000 7 9.200 0.800 10.000 1.000 0.000 0.000 0.000
RAW 0 42113.000 4 430316.94000 -703868.88000 -26.00000 154153.00000
MSG 0 42032.979 $GPGGA,154153,4303.1694,N,07038.6888,W,1,10,0.8,6.4,M,-32.4,M,,*78
MSG 0 42033.120 $GPGSA,A,3,,06,13,14,16,20,,25,29,30,31,32,1.3,0.8,1.1*30
MSG 0 42033.243 $GPGSV,3,3,12,29,23,053,43,30,83,225,51,31,53,066,50,32,33,236,45*7E
MSG 0 42033.389 $PGRME,5.1,M,5.9,M,7.8,M*29
MSG 0 42033.449 $PGRMB,0.0,200,,,,K,,N,N*31
MSG 0 42033.510 $PGRMM,WGS 84*06
MSG 0 42033.830 $GPRMC,154154,A,4303.1694,N,07038.6887,W,000.4,121.8,030712,016.1,W*7A
POS 0 42114.000 366047.733 4767993.533
QUA 0 42114.000 7 9.200 0.800 10.000 1.000 0.000 0.000 0.000
RAW 0 42114.000 4 430316.94000 -703868.87000 -25.80000 154154.00000
MSG 0 42033.980 $GPGGA,154154,4303.1694,N,07038.6887,W,1,10,0.8,6.6,M,-32.4,M,,*72
MSG 0 42034.122 $GPGSA,A,3,,06,13,14,16,20,,25,29,30,31,32,1.3,0.8,1.1*30
MSG 0 42034.245 $GPGSV,3,1,12,03,06,184,33,06,14,170,42,13,02,315,38,14,14,138,44*75
MSG 0 42034.391 $PGRME,5.1,M,5.9,M,7.8,M*29
MSG 0 42034.451 $PGRMB,0.0,200,,,,K,,N,N*31
MSG 0 42034.511 $PGRMM,WGS 84*06
MSG 0 42034.832 $GPRMC,154155,A,4303.1692,N,07038.6885,W,000.7,134.2,030712,016.1,W*72
POS 0 42115.000 366047.997 4767993.157
QUA 0 42115.000 7 9.200 0.800 10.000 1.000 0.000 0.000 0.000
RAW 0 42115.000 4 430316.92000 -703868.85000 -25.60000 154155.00000
MSG 0 42034.982 $GPGGA,154155,4303.1692,N,07038.6885,W,1,10,0.8,6.8,M,-32.4,M,,*79
MSG 0 42035.124 $GPGSA,A,3,,06,13,14,16,20,,25,29,30,31,32,1.3,0.8,1.1*30
MSG 0 42035.246 $GPGSV,3,2,12,16,52,218,48,20,29,268,47,23,32,311,32,25,06,047,41*7F
MSG 0 42035.392 $PGRME,5.1,M,5.9,M,7.8,M*29
MSG 0 42035.453 $PGRMB,0.0,200,,,,K,,N,N*31
MSG 0 42035.513 $PGRMM,WGS 84*06
MSG 0 42035.857 $GPRMC,154156,A,4303.1691,N,07038.6882,W,000.7,125.5,030712,016.1,W*72
POS 0 42116.000 366048.401 4767992.964
QUA 0 42116.000 7 9.200 0.800 10.000 1.000 0.000 0.000 0.000
RAW 0 42116.000 4 430316.91000 -703868.82000 -25.90000 154156.00000
MSG 0 42036.007 $GPGGA,154156,4303.1691,N,07038.6882,W,1,10,0.8,6.5,M,-32.4,M,,*73
MSG 0 42036.148 $GPGSA,A,3,,06,13,14,16,20,,25,29,30,31,32,1.3,0.8,1.1*30
MSG 0 42036.271 $GPGSV,3,3,12,29,23,053,43,30,83,225,50,31,53,066,50,32,33,236,45*7F
MSG 0 42036.417 $PGRME,5.1,M,5.9,M,7.8,M*29
MSG 0 42036.477 $PGRMB,0.0,200,,,,K,,N,N*31
MSG 0 42036.538 $PGRMM,WGS 84*06
MSG 0 42036.851 $GPRMC,154157,A,4303.1691,N,07038.6883,W,000.3,156.3,030712,016.1,W*74
POS 0 42117.000 366048.265 4767992.967
QUA 0 42117.000 7 9.200 0.800 10.000 1.000 0.000 0.000 0.000
RAW 0 42117.000 4 430316.91000 -703868.83000 -25.90000 154157.00000
MSG 0 42037.001 $GPGGA,154157,4303.1691,N,07038.6883,W,1,10,0.8,6.5,M,-32.4,M,,*73
MSG 0 42037.142 $GPGSA,A,3,,06,13,14,16,20,,25,29,30,31,32,1.3,0.8,1.1*30
MSG 0 42037.265 $GPGSV,3,1,12,03,06,184,33,06,14,170,43,13,02,315,38,14,14,138,44*74
MSG 0 42037.411 $PGRME,5.1,M,5.9,M,7.8,M*29
MSG 0 42037.471 $PGRMB,0.0,200,,,,K,,N,N*31
MSG 0 42037.532 $PGRMM,WGS 84*06
MSG 0 42037.854 $GPRMC,154158,A,4303.1689,N,07038.6879,W,000.7,123.1,030712,016.1,W*73
POS 0 42118.000 366048.801 4767992.586
QUA 0 42118.000 7 9.200 0.800 10.000 1.000 0.000 0.000 0.000
RAW 0 42118.000 4 430316.89000 -703868.79000 -26.20000 154158.00000
MSG 0 42038.004 $GPGGA,154158,4303.1689,N,07038.6879,W,1,10,0.8,6.2,M,-32.4,M,,*77
MSG 0 42038.146 $GPGSA,A,3,,06,13,14,16,20,,25,29,30,31,32,1.3,0.8,1.1*30
MSG 0 42038.269 $GPGSV,3,2,12,16,52,218,49,20,29,268,47,23,32,311,32,25,06,047,41*7E
MSG 0 42038.414 $PGRME,5.1,M,5.9,M,7.8,M*29
MSG 0 42038.475 $PGRMB,0.0,200,,,,K,,N,N*31
MSG 0 42038.535 $PGRMM,WGS 84*06
MSG 0 42038.845 $GPRMC,154159,A,4303.1687,N,07038.6877,W,000.7,136.6,030712,016.1,W*71
POS 0 42119.000 366049.065 4767992.210
QUA 0 42119.000 7 9.200 0.800 10.000 1.000 0.000 0.000 0.000
RAW 0 42119.000 4 430316.87000 -703868.77000 -26.00000 154159.00000
MSG 0 42038.995 $GPGGA,154159,4303.1687,N,07038.6877,W,1,10,0.8,6.4,M,-32.4,M,,*70
MSG 0 42039.137 $GPGSA,A,3,,06,13,14,16,20,,25,29,30,31,32,1.3,0.8,1.1*30
MSG 0 42039.260 $GPGSV,3,3,12,29,23,053,44,30,83,225,51,31,53,066,50,32,33,236,45*79
MSG 0 42039.405 $PGRME,5.1,M,5.9,M,7.8,M*29
MSG 0 42039.466 $PGRMB,0.0,200,,,,K,,N,N*31
MSG 0 42039.526 $PGRMM,WGS 84*06
MSG 0 42039.829 $GPRMC,154200,A,4303.1687,N,07038.6874,W,000.7,125.5,030712,016.1,W*7C
POS 0 42120.000 366049.472 4767992.202
QUA 0 42120.000 7 9.200 0.800 10.000 1.000 0.000 0.000 0.000
RAW 0 42120.000 4 430316.87000 -703868.74000 -26.00000 154200.00000
MSG 0 42039.978 $GPGGA,154200,4303.1687,N,07038.6874,W,1,10,0.8,6.4,M,-32.4,M,,*7C
MSG 0 42040.120 $GPGSA,A,3,,06,13,14,16,20,,25,29,30,31,32,1.3,0.8,1.1*30
MSG 0 42040.243 $GPGSV,3,1,12,03,06,184,00,06,14,170,42,13,02,315,37,14,14,138,44*7A
MSG 0 42040.389 $PGRME,5.1,M,5.9,M,7.8,M*29
MSG 0 42040.449 $PGRMB,0.0,200,,,,K,,N,N*31
MSG 0 42040.509 $PGRMM,WGS 84*06
MSG 0 42040.854 $GPRMC,154201,A,4303.1686,N,07038.6873,W,000.7,131.1,030712,016.1,W*7A
POS 0 42121.000 366049.604 4767992.015
QUA 0 42121.000 7 9.200 0.800 10.000 1.000 0.000 0.000 0.000
RAW 0 42121.000 4 430316.86000 -703868.73000 -25.80000 154201.00000
MSG 0 42041.004 $GPGGA,154201,4303.1686,N,07038.6873,W,1,10,0.8,6.6,M,-32.4,M,,*79
MSG 0 42041.145 $GPGSA,A,3,,06,13,14,16,20,,25,29,30,31,32,1.3,0.8,1.1*30
MSG 0 42041.268 $GPGSV,3,2,12,16,52,218,49,20,29,268,48,23,32,311,32,25,06,047,42*72
MSG 0 42041.414 $PGRME,5.1,M,5.9,M,7.8,M*29
MSG 0 42041.474 $PGRMB,0.0,200,,,,K,,N,N*31
MSG 0 42041.534 $PGRMM,WGS 84*06
MSG 0 42041.855 $GPRMC,154202,A,4303.1684,N,07038.6871,W,000.6,134.3,030712,016.1,W*7F
POS 0 42122.000 366049.868 4767991.639
QUA 0 42122.000 7 9.200 0.800 10.000 1.000 0.000 0.000 0.000
RAW 0 42122.000 4 430316.84000 -703868.71000 -25.90000 154202.00000
MSG 0 42042.005 $GPGGA,154202,4303.1684,N,07038.6871,W,1,10,0.8,6.5,M,-32.4,M,,*79
MSG 0 42042.147 $GPGSA,A,3,,06,13,14,16,20,,25,29,30,31,32,1.3,0.8,1.1*30
MSG 0 42042.270 $GPGSV,3,3,12,29,23,053,44,30,83,225,51,31,53,066,50,32,33,236,46*7A
MSG 0 42042.415 $PGRME,5.1,M,5.9,M,7.8,M*29
MSG 0 42042.476 $PGRMB,0.0,200,,,,K,,N,N*31
MSG 0 42042.536 $PGRMM,WGS 84*06
MSG 0 42042.830 $GPRMC,154203,A,4303.1683,N,07038.6869,W,000.6,138.2,030712,016.1,W*7D
POS 0 42123.000 366050.136 4767991.449
QUA 0 42123.000 7 9.200 0.800 10.000 1.000 0.000 0.000 0.000
RAW 0 42123.000 4 430316.83000 -703868.69000 -25.90000 154203.00000
MSG 0 42042.980 $GPGGA,154203,4303.1683,N,07038.6869,W,1,10,0.8,6.5,M,-32.4,M,,*76
MSG 0 42043.121 $GPGSA,A,3,,06,13,14,16,20,,25,29,30,31,32,1.3,0.8,1.1*30
MSG 0 42043.244 $GPGSV,3,1,12,03,06,184,00,06,15,170,42,13,02,315,37,14,14,138,44*7B
MSG 0 42043.390 $PGRME,5.1,M,5.9,M,7.8,M*29
MSG 0 42043.450 $PGRMB,0.0,200,,,,K,,N,N*31
MSG 0 42043.511 $PGRMM,WGS 84*06
MSG 0 42043.830 $GPRMC,154204,A,4303.1683,N,07038.6869,W,000.4,139.9,030712,016.1,W*72
POS 0 42124.000 366050.136 4767991.449
QUA 0 42124.000 7 9.200 0.800 10.000 1.000 0.000 0.000 0.000
RAW 0 42124.000 4 430316.83000 -703868.69000 -25.80000 154204.00000
MSG 0 42043.980 $GPGGA,154204,4303.1683,N,07038.6869,W,1,10,0.8,6.6,M,-32.4,M,,*72
MSG 0 42044.121 $GPGSA,A,3,,06,13,14,16,20,,25,29,30,31,32,1.3,0.8,1.1*30
MSG 0 42044.244 $GPGSV,3,2,12,16,52,218,49,20,29,268,48,23,32,311,32,25,06,047,42*72
MSG 0 42044.390 $PGRME,5.1,M,5.9,M,7.8,M*29
MSG 0 42044.450 $PGRMB,0.0,200,,,,K,,N,N*31
MSG 0 42044.511 $PGRMM,WGS 84*06
MSG 0 42044.845 $GPRMC,154205,A,4303.1681,N,07038.6866,W,000.6,132.5,030712,016.1,W*7B
POS 0 42125.000 366050.536 4767991.071
QUA 0 42125.000 7 9.200 0.800 10.000 1.000 0.000 0.000 0.000
RAW 0 42125.000 4 430316.81000 -703868.66000 -26.10000 154205.00000
MSG 0 42044.994 $GPGGA,154205,4303.1681,N,07038.6866,W,1,10,0.8,6.3,M,-32.4,M,,*7B
MSG 0 42045.136 $GPGSA,A,3,,06,13,14,16,20,,25,29,30,31,32,1.3,0.8,1.1*30
MSG 0 42045.259 $GPGSV,3,3,12,29,23,053,44,30,83,225,51,31,53,066,50,32,33,236,46*7A
MSG 0 42045.405 $PGRME,5.1,M,5.9,M,7.8,M*29
MSG 0 42045.465 $PGRMB,0.0,200,,,,K,,N,N*31
MSG 0 42045.525 $PGRMM,WGS 84*06
MSG 0 42045.850 $GPRMC,154206,A,4303.1679,N,07038.6864,W,000.7,139.0,030712,016.1,W*72
POS 0 42126.000 366050.800 4767990.695
QUA 0 42126.000 7 9.200 0.800 10.000 1.000 0.000 0.000 0.000
RAW 0 42126.000 4 430316.79000 -703868.64000 -26.00000 154206.00000
MSG 0 42046.000 $GPGGA,154206,4303.1679,N,07038.6864,W,1,10,0.8,6.4,M,-32.4,M,,*7A
MSG 0 42046.141 $GPGSA,A,3,,06,13,14,16,20,,25,29,30,31,32,1.3,0.8,1.1*30
MSG 0 42046.264 $GPGSV,3,1,12,03,06,184,00,06,15,170,41,13,02,315,38,14,14,138,44*77
MSG 0 42046.410 $PGRME,5.1,M,5.9,M,7.8,M*29
MSG 0 42046.470 $PGRMB,0.0,200,,,,K,,N,N*31
MSG 0 42046.531 $PGRMM,WGS 84*06
MSG 0 42046.832 $GPRMC,154207,A,4303.1679,N,07038.6862,W,000.6,125.1,030712,016.1,W*78
POS 0 42127.000 366051.072 4767990.690
QUA 0 42127.000 7 9.200 0.800 10.000 1.000 0.000 0.000 0.000
RAW 0 42127.000 4 430316.79000 -703868.62000 -25.90000 154207.00000
MSG 0 42046.982 $GPGGA,154207,4303.1679,N,07038.6862,W,1,10,0.8,6.5,M,-32.4,M,,*7C
MSG 0 42047.124 $GPGSA,A,3,,06,13,14,16,20,,25,29,30,31,32,1.3,0.8,1.1*30
MSG 0 42047.246 $GPGSV,3,2,12,16,52,218,49,20,29,268,48,23,32,311,32,25,06,047,42*72
MSG 0 42047.392 $PGRME,5.1,M,5.9,M,7.8,M*29
MSG 0 42047.453 $PGRMB,0.0,200,,,,K,,N,N*31
MSG 0 42047.513 $PGRMM,WGS 84*06
MSG 0 42047.845 $GPRMC,154208,A,4303.1678,N,07038.6862,W,000.5,139.4,030712,016.1,W*7D
POS 0 42128.000 366051.068 4767990.505
QUA 0 42128.000 7 9.200 0.800 10.000 1.000 0.000 0.000 0.000
RAW 0 42128.000 4 430316.78000 -703868.62000 -26.00000 154208.00000
MSG 0 42047.995 $GPGGA,154208,4303.1678,N,07038.6862,W,1,10,0.8,6.4,M,-32.4,M,,*73
MSG 0 42048.137 $GPGSA,A,3,,06,13,14,16,20,,25,29,30,31,32,1.3,0.8,1.1*30
MSG 0 42048.259 $GPGSV,3,3,12,29,23,053,44,30,83,225,51,31,53,066,49,32,33,236,46*72
MSG 0 42048.405 $PGRME,5.1,M,5.9,M,7.8,M*29
MSG 0 42048.466 $PGRMB,0.0,200,,,,K,,N,N*31
MSG 0 42048.526 $PGRMM,WGS 84*06
MSG 0 42048.830 $GPRMC,154209,A,4303.1675,N,07038.6858,W,000.9,131.7,030712,016.1,W*7F
POS 0 42129.000 366051.600 4767989.939
QUA 0 42129.000 7 9.200 0.800 10.000 1.000 0.000 0.000 0.000
RAW 0 42129.000 4 430316.75000 -703868.58000 -26.20000 154209.00000
MSG 0 42048.980 $GPGGA,154209,4303.1675,N,07038.6858,W,1,10,0.8,6.2,M,-32.4,M,,*70
MSG 0 42049.122 $GPGSA,A,3,,06,13,14,16,20,,25,29,30,31,32,1.3,0.8,1.1*30
MSG 0 42049.245 $GPGSV,3,1,12,03,06,184,32,06,15,170,42,13,02,315,38,14,14,138,44*75
MSG 0 42049.391 $PGRME,5.1,M,5.9,M,7.8,M*29
MSG 0 42049.451 $PGRMB,0.0,200,,,,K,,N,N*31
MSG 0 42049.511 $PGRMM,WGS 84*06
MSG 0 42049.830 $GPRMC,154210,A,4303.1674,N,07038.6857,W,000.6,133.8,030712,016.1,W*7B
POS 0 42130.000 366051.732 4767989.751
QUA 0 42130.000 7 9.200 0.800 10.000 1.000 0.000 0.000 0.000
RAW 0 42130.000 4 430316.74000 -703868.57000 -26.10000 154210.00000
MSG 0 42049.980 $GPGGA,154210,4303.1674,N,07038.6857,W,1,10,0.8,6.3,M,-32.4,M,,*77
MSG 0 42050.121 $GPGSA,A,3,,06,13,14,16,20,,25,29,30,31,32,1.3,0.8,1.1*30
MSG 0 42050.244 $GPGSV,3,2,12,16,52,218,49,20,29,268,47,23,32,311,32,25,06,047,42*7D
MSG 0 42050.390 $PGRME,5.1,M,5.8,M,7.8,M*28
MSG 0 42050.450 $PGRMB,0.0,200,,,,K,,N,N*31
MSG 0 42050.511 $PGRMM,WGS 84*06
MSG 0 42050.830 $GPRMC,154211,A,4303.1673,N,07038.6855,W,000.5,136.3,030712,016.1,W*72
POS 0 42131.000 366052.000 4767989.561
QUA 0 42131.000 7 9.200 0.800 10.000 1.000 0.000 0.000 0.000
RAW 0 42131.000 4 430316.73000 -703868.55000 -25.80000 154211.00000
MSG 0 42050.980 $GPGGA,154211,4303.1673,N,07038.6855,W,1,10,0.8,6.6,M,-32.4,M,,*76
MSG 0 42051.121 $GPGSA,A,3,,06,13,14,16,20,,25,29,30,31,32,1.3,0.8,1.1*30
MSG 0 42051.244 $GPGSV,3,3,12,29,23,053,44,30,83,225,51,31,53,066,49,32,33,236,46*72
MSG 0 42051.390 $PGRME,5.1,M,5.8,M,7.8,M*28
MSG 0 42051.450 $PGRMB,0.0,200,,,,K,,N,N*31
MSG 0 42051.511 $PGRMM,WGS 84*06
MSG 0 42051.831 $GPRMC,154212,A,4303.1672,N,07038.6853,W,000.7,132.4,030712,016.1,W*77
POS 0 42132.000 366052.268 4767989.370
QUA 0 42132.000 7 9.200 0.800 10.000 1.000 0.000 0.000 0.000
RAW 0 42132.000 4 430316.72000 -703868.53000 -25.70000 154212.00000
MSG 0 42051.981 $GPGGA,154212,4303.1672,N,07038.6853,W,1,10,0.8,6.7,M,-32.4,M,,*73
MSG 0 42052.123 $GPGSA,A,3,,06,13,14,16,20,,25,29,30,31,32,1.3,0.8,1.1*30
MSG 0 42052.246 $GPGSV,3,1,12,03,06,184,33,06,15,170,42,13,02,315,40,14,14,138,44*7B
MSG 0 42052.391 $PGRME,5.1,M,5.8,M,7.8,M*28
MSG 0 42052.452 $PGRMB,0.0,200,,,,K,,N,N*31
MSG 0 42052.512 $PGRMM,WGS 84*06
MSG 0 42052.831 $GPRMC,154213,A,4303.1670,N,07038.6851,W,000.7,135.0,030712,016.1,W*75
POS 0 42133.000 366052.532 4767988.995
QUA 0 42133.000 7 9.200 0.800 10.000 1.000 0.000 0.000 0.000
RAW 0 42133.000 4 430316.70000 -703868.51000 -25.80000 154213.00000
MSG 0 42052.981 $GPGGA,154213,4303.1670,N,07038.6851,W,1,10,0.8,6.6,M,-32.4,M,,*73
MSG 0 42053.123 $GPGSA,A,3,,06,13,14,16,20,,25,29,30,31,32,1.3,0.8,1.1*30
MSG 0 42053.245 $GPGSV,3,2,12,16,52,218,49,20,29,268,47,23,32,311,32,25,06,047,42*7D
MSG 0 42053.391 $PGRME,5.1,M,5.8,M,7.8,M*28
MSG 0 42053.451 $PGRMB,0.0,200,,,,K,,N,N*31
MSG 0 42053.512 $PGRMM,WGS 84*06
MSG 0 42053.855 $GPRMC,154214,A,4303.1669,N,07038.6851,W,000.4,144.4,030712,016.1,W*7B
POS 0 42134.000 366052.529 4767988.810
QUA 0 42134.000 7 9.200 0.800 10.000 1.000 0.000 0.000 0.000
RAW 0 42134.000 4 430316.69000 -703868.51000 -25.80000 154214.00000
MSG 0 42054.005 $GPGGA,154214,4303.1669,N,07038.6851,W,1,10,0.8,6.6,M,-32.4,M,,*7C
MSG 0 42054.147 $GPGSA,A,3,,06,13,14,16,20,,25,29,30,31,32,1.3,0.8,1.1*30
MSG 0 42054.270 $GPGSV,3,3,12,29,23,053,43,30,83,225,51,31,53,066,49,32,33,236,46*75
MSG 0 42054.415 $PGRME,5.1,M,5.8,M,7.8,M*28
MSG 0 42054.476 $PGRMB,0.0,200,,,,K,,N,N*31
MSG 0 42054.536 $PGRMM,WGS 84*06
MSG 0 42054.835 $GPRMC,154215,A,4303.1669,N,07038.6849,W,000.3,128.2,030712,016.1,W*78
POS 0 42135.000 366052.800 4767988.804
QUA 0 42135.000 7 9.200 0.800 10.000 1.000 0.000 0.000 0.000
RAW 0 42135.000 4 430316.69000 -703868.49000 -25.70000 154215.00000
MSG 0 42054.985 $GPGGA,154215,4303.1669,N,07038.6849,W,1,10,0.8,6.7,M,-32.4,M,,*75
MSG 0 42055.126 $GPGSA,A,3,,06,13,14,16,20,,25,29,30,31,32,1.3,0.8,1.1*30
MSG 0 42055.249 $GPGSV,3,1,12,03,06,184,33,06,15,170,44,13,02,315,41,14,14,138,44*7C
MSG 0 42055.395 $PGRME,5.1,M,5.8,M,7.8,M*28
MSG 0 42055.455 $PGRMB,0.0,200,,,,K,,N,N*31
MSG 0 42055.515 $PGRMM,WGS 84*06
MSG 0 42055.819 $GPRMC,154216,A,4303.1666,N,07038.6846,W,000.8,137.4,030712,016.1,W*78
POS 0 42136.000 366053.196 4767988.241
QUA 0 42136.000 7 9.200 0.800 10.000 1.000 0.000 0.000 0.000
RAW 0 42136.000 4 430316.66000 -703868.46000 -26.20000 154216.00000
MSG 0 42055.969 $GPGGA,154216,4303.1666,N,07038.6846,W,1,10,0.8,6.2,M,-32.4,M,,*73
MSG 0 42056.111 $GPGSA,A,3,,06,13,14,16,20,,25,29,30,31,32,1.3,0.8,1.1*30
MSG 0 42056.234 $GPGSV,3,2,12,16,52,218,48,20,28,268,46,23,32,311,43,25,06,047,41*79
MSG 0 42056.380 $PGRME,5.1,M,5.8,M,7.8,M*28
MSG 0 42056.440 $PGRMB,0.0,200,,,,K,,N,N*31
MSG 0 42056.500 $PGRMM,WGS 84*06
MSG 0 42056.835 $GPRMC,154217,A,4303.1665,N,07038.6844,W,000.7,137.3,030712,016.1,W*70
POS 0 42137.000 366053.464 4767988.051
QUA 0 42137.000 7 9.200 0.800 10.000 1.000 0.000 0.000 0.000
RAW 0 42137.000 4 430316.65000 -703868.44000 -26.10000 154217.00000
MSG 0 42056.985 $GPGGA,154217,4303.1665,N,07038.6844,W,1,10,0.8,6.3,M,-32.4,M,,*72
MSG 0 42057.126 $GPGSA,A,3,,06,13,14,16,20,,25,29,30,31,32,1.3,0.8,1.1*30
MSG 0 42057.249 $GPGSV,3,3,12,29,23,053,43,30,83,225,51,31,53,066,49,32,33,236,47*74
MSG 0 42057.395 $PGRME,5.1,M,5.8,M,7.8,M*28
MSG 0 42057.455 $PGRMB,0.0,200,,,,K,,N,N*31
MSG 0 42057.515 $PGRMM,WGS 84*06
MSG 0 42057.817 $GPRMC,154218,A,4303.1665,N,07038.6843,W,000.4,117.6,030712,016.1,W*7C
POS 0 42138.000 366053.600 4767988.048
QUA 0 42138.000 7 9.200 0.800 10.000 1.000 0.000 0.000 0.000
RAW 0 42138.000 4 430316.65000 -703868.43000 -25.90000 154218.00000
MSG 0 42057.966 $GPGGA,154218,4303.1665,N,07038.6843,W,1,10,0.8,6.5,M,-32.4,M,,*7C
MSG 0 42058.108 $GPGSA,A,3,,06,13,14,16,20,,25,29,30,31,32,1.3,0.8,1.1*30
MSG 0 42058.231 $GPGSV,3,1,12,03,06,184,32,06,15,170,44,13,02,315,41,14,14,138,44*7D
MSG 0 42058.377 $PGRME,5.1,M,5.8,M,7.8,M*28
MSG 0 42058.437 $PGRMB,0.0,200,,,,K,,N,N*31
MSG 0 42058.497 $PGRMM,WGS 84*06
MSG 0 42058.832 $GPRMC,154219,A,4303.1663,N,07038.6840,W,000.7,127.1,030712,016.1,W*7F
POS 0 42139.000 366054.000 4767987.670
QUA 0 42139.000 7 9.200 0.800 10.000 1.000 0.000 0.000 0.000
RAW 0 42139.000 4 430316.63000 -703868.40000 -25.80000 154219.00000
MSG 0 42058.982 $GPGGA,154219,4303.1663,N,07038.6840,W,1,10,0.8,6.6,M,-32.4,M,,*7B
MSG 0 42059.123 $GPGSA,A,3,,06,13,14,16,20,,25,29,30,31,32,1.3,0.8,1.1*30
MSG 0 42059.246 $GPGSV,3,2,12,16,52,218,49,20,28,268,46,23,32,311,46,25,06,047,41*7D
MSG 0 42059.392 $PGRME,5.1,M,5.8,M,7.8,M*28
MSG 0 42059.452 $PGRMB,0.0,200,,,,K,,N,N*31
MSG 0 42059.512 $PGRMM,WGS 84*06
MSG 0 42059.820 $GPRMC,154220,A,4303.1661,N,07038.6837,W,000.9,126.0,030712,016.1,W*79
POS 0 42140.000 366054.400 4767987.292
QUA 0 42140.000 7 9.200 0.800 10.000 1.000 0.000 0.000 0.000
RAW 0 42140.000 4 430316.61000 -703868.37000 -26.00000 154220.00000
MSG 0 42059.970 $GPGGA,154220,4303.1661,N,07038.6837,W,1,10,0.8,6.4,M,-32.4,M,,*71
MSG 0 42060.112 $GPGSA,A,3,,06,13,14,16,20,,25,29,30,31,32,1.3,0.8,1.1*30
MSG 0 42060.235 $GPGSV,3,3,12,29,23,053,43,30,83,225,50,31,53,066,49,32,33,236,47*75
MSG 0 42060.380 $PGRME,5.1,M,5.8,M,7.8,M*28
MSG 0 42060.441 $PGRMB,0.0,200,,,,K,,N,N*31
MSG 0 42060.501 $PGRMM,WGS 84*06
MSG 0 42060.819 $GPRMC,154221,A,4303.1661,N,07038.6836,W,000.5,128.8,030712,016.1,W*73
POS 0 42141.000 366054.536 4767987.289
QUA 0 42141.000 7 9.200 0.800 10.000 1.000 0.000 0.000 0.000
RAW 0 42141.000 4 430316.61000 -703868.36000 -25.80000 154221.00000
MSG 0 42060.969 $GPGGA,154221,4303.1661,N,07038.6836,W,1,10,0.8,6.6,M,-32.4,M,,*73
MSG 0 42061.110 $GPGSA,A,3,,06,13,14,16,20,,25,29,30,31,32,1.3,0.8,1.1*30
MSG 0 42061.233 $GPGSV,3,1,12,03,06,184,33,06,15,170,44,13,02,315,42,14,14,138,44*7F
MSG 0 42061.379 $PGRME,5.1,M,5.8,M,7.7,M*27
MSG 0 42061.439 $PGRMB,0.0,200,,,,K,,N,N*31
MSG 0 42061.500 $PGRMM,WGS 84*06
MSG 0 42061.821 $GPRMC,154222,A,4303.1660,N,07038.6836,W,000.4,154.0,030712,016.1,W*73
POS 0 42142.000 366054.532 4767987.104
QUA 0 42142.000 7 9.200 0.800 10.000 1.000 0.000 0.000 0.000
RAW 0 42142.000 4 430316.60000 -703868.36000 -25.70000 154222.00000
MSG 0 42061.971 $GPGGA,154222,4303.1660,N,07038.6836,W,1,10,0.8,6.7,M,-32.4,M,,*70
MSG 0 42062.113 $GPGSA,A,3,,06,13,14,16,20,,25,29,30,31,32,1.3,0.8,1.1*30
MSG 0 42062.236 $GPGSV,3,2,12,16,52,218,48,20,28,268,45,23,32,311,46,25,06,047,40*7E
MSG 0 42062.381 $PGRME,5.1,M,5.8,M,7.7,M*27
MSG 0 42062.442 $PGRMB,0.0,200,,,,K,,N,N*31
MSG 0 42062.502 $PGRMM,WGS 84*06
MSG 0 42062.820 $GPRMC,154223,A,4303.1658,N,07038.6833,W,000.6,135.8,030712,016.1,W*71
POS 0 42143.000 366054.932 4767986.726
QUA 0 42143.000 7 9.200 0.800 11.000 1.000 0.000 0.000 0.000
RAW 0 42143.000 4 430316.58000 -703868.33000 -25.80000 154223.00000
MSG 0 42062.970 $GPGGA,154223,4303.1658,N,07038.6833,W,1,11,0.8,6.6,M,-32.4,M,,*7F
MSG 0 42063.112 $GPGSA,A,3,,06,13,14,16,20,23,25,29,30,31,32,1.3,0.8,1.1*31
MSG 0 42063.239 $GPGSV,3,3,12,29,23,053,43,30,83,225,50,31,53,066,49,32,33,236,47*75
MSG 0 42063.384 $PGRME,4.4,M,5.7,M,7.2,M*29
MSG 0 42063.445 $PGRMB,0.0,200,,,,K,,N,N*31
MSG 0 42063.505 $PGRMM,WGS 84*06
MSG 0 42063.818 $GPRMC,154224,A,4303.1656,N,07038.6831,W,000.7,138.1,030712,016.1,W*7F
POS 0 42144.000 366055.196 4767986.350
QUA 0 42144.000 7 9.300 0.700 11.000 1.000 0.000 0.000 0.000
RAW 0 42144.000 4 430316.56000 -703868.31000 -26.10000 154224.00000
MSG 0 42063.968 $GPGGA,154224,4303.1656,N,07038.6831,W,1,11,0.7,6.3,M,-32.4,M,,*7E
MSG 0 42064.109 $GPGSA,A,3,,06,13,14,16,20,23,25,29,30,31,32,1.3,0.7,1.1*3E
MSG 0 42064.236 $GPGSV,3,1,12,03,06,184,32,06,15,170,44,13,02,315,42,14,14,138,45*7F
MSG 0 42064.382 $PGRME,4.4,M,5.7,M,7.2,M*29
MSG 0 42064.442 $PGRMB,0.0,200,,,,K,,N,N*31
MSG 0 42064.503 $PGRMM,WGS 84*06
MSG 0 42064.820 $GPRMC,154225,A,4303.1656,N,07038.6829,W,000.5,120.6,030712,016.1,W*7B
POS 0 42145.000 366055.468 4767986.345
QUA 0 42145.000 7 9.300 0.700 11.000 1.000 0.000 0.000 0.000
RAW 0 42145.000 4 430316.56000 -703868.29000 -26.00000 154225.00000
MSG 0 42064.970 $GPGGA,154225,4303.1656,N,07038.6829,W,1,11,0.7,6.4,M,-32.4,M,,*71
MSG 0 42065.112 $GPGSA,A,3,,06,13,14,16,20,23,25,29,30,31,32,1.3,0.7,1.1*3E
MSG 0 42065.239 $GPGSV,3,2,12,16,52,218,48,20,28,268,45,23,32,311,47,25,06,047,39*71
MSG 0 42065.385 $PGRME,4.4,M,5.7,M,7.2,M*29
MSG 0 42065.445 $PGRMB,0.0,200,,,,K,,N,N*31
MSG 0 42065.505 $PGRMM,WGS 84*06
MSG 0 42065.818 $GPRMC,154226,A,4303.1655,N,07038.6827,W,000.6,129.2,030712,016.1,W*7B
POS 0 42146.000 366055.736 4767986.155
QUA 0 42146.000 7 9.300 0.700 11.000 1.000 0.000 0.000 0.000
RAW 0 42146.000 4 430316.55000 -703868.27000 -25.80000 154226.00000
MSG 0 42065.968 $GPGGA,154226,4303.1655,N,07038.6827,W,1,11,0.7,6.6,M,-32.4,M,,*7D
MSG 0 42066.109 $GPGSA,A,3,,06,13,14,16,20,23,25,29,30,31,32,1.3,0.7,1.1*3E
MSG 0 42066.236 $GPGSV,3,3,12,29,23,053,43,30,83,225,51,31,53,066,49,32,33,236,47*74
MSG 0 42066.382 $PGRME,4.4,M,5.7,M,7.2,M*29
MSG 0 42066.442 $PGRMB,0.0,200,,,,K,,N,N*31
MSG 0 42066.503 $PGRMM,WGS 84*06
MSG 0 42066.818 $GPRMC,154227,A,4303.1654,N,07038.6825,W,000.6,130.1,030712,016.1,W*72
POS 0 42147.000 366056.003 4767985.964
QUA 0 42147.000 7 9.300 0.700 11.000 1.000 0.000 0.000 0.000
RAW 0 42147.000 4 430316.54000 -703868.25000 -25.70000 154227.00000
MSG 0 42066.968 $GPGGA,154227,4303.1654,N,07038.6825,W,1,11,0.7,6.7,M,-32.4,M,,*7E
MSG 0 42067.110 $GPGSA,A,3,,06,13,14,16,20,23,25,29,30,31,32,1.3,0.7,1.1*3E
MSG 0 42067.237 $GPGSV,3,1,12,03,06,184,30,06,15,170,43,13,02,315,43,14,14,138,44*7A
MSG 0 42067.383 $PGRME,4.4,M,5.7,M,7.2,M*29
MSG 0 42067.443 $PGRMB,0.0,200,,,,K,,N,N*31
MSG 0 42067.503 $PGRMM,WGS 84*06
MSG 0 42067.820 $GPRMC,154228,A,4303.1652,N,07038.6824,W,000.7,147.2,030712,016.1,W*78
POS 0 42148.000 366056.132 4767985.591
QUA 0 42148.000 7 9.300 0.700 11.000 1.000 0.000 0.000 0.000
RAW 0 42148.000 4 430316.52000 -703868.24000 -25.80000 154228.00000
MSG 0 42067.970 $GPGGA,154228,4303.1652,N,07038.6824,W,1,11,0.7,6.6,M,-32.4,M,,*77
MSG 0 42068.111 $GPGSA,A,3,,06,13,14,16,20,23,25,29,30,31,32,1.3,0.7,1.1*3E
MSG 0 42068.238 $GPGSV,3,2,12,16,52,218,47,20,28,268,44,23,32,311,47,25,06,047,40*71
MSG 0 42068.384 $PGRME,4.4,M,5.7,M,7.2,M*29
MSG 0 42068.445 $PGRMB,0.0,200,,,,K,,N,N*31
MSG 0 42068.505 $PGRMM,WGS 84*06
MSG 0 42068.819 $GPRMC,154229,A,4303.1652,N,07038.6823,W,000.4,126.9,030712,016.1,W*71
POS 0 42149.000 366056.268 4767985.589
QUA 0 42149.000 7 9.300 0.700 11.000 1.000 0.000 0.000 0.000
RAW 0 42149.000 4 430316.52000 -703868.23000 -25.80000 154229.00000
MSG 0 42068.969 $GPGGA,154229,4303.1652,N,07038.6823,W,1,11,0.7,6.6,M,-32.4,M,,*71
MSG 0 42069.111 $GPGSA,A,3,,06,13,14,16,20,23,25,29,30,31,32,1.3,0.7,1.1*3E
MSG 0 42069.238 $GPGSV,3,3,12,29,23,053,42,30,83,225,50,31,53,066,49,32,33,236,47*74
MSG 0 42069.383 $PGRME,4.4,M,5.7,M,7.2,M*29
MSG 0 42069.444 $PGRMB,0.0,200,,,,K,,N,N*31
MSG 0 42069.504 $PGRMM,WGS 84*06
MSG 0 42069.819 $GPRMC,154230,A,4303.1650,N,07038.6822,W,000.6,144.8,030712,016.1,W*7D
POS 0 42150.000 366056.396 4767985.216
QUA 0 42150.000 7 9.300 0.700 11.000 1.000 0.000 0.000 0.000
RAW 0 42150.000 4 430316.50000 -703868.22000 -26.00000 154230.00000
MSG 0 42069.969 $GPGGA,154230,4303.1650,N,07038.6822,W,1,11,0.7,6.4,M,-32.4,M,,*78
MSG 0 42070.111 $GPGSA,A,3,,06,13,14,16,20,23,25,29,30,31,32,1.3,0.7,1.1*3E
MSG 0 42070.238 $GPGSV,3,1,12,03,06,184,30,06,15,170,44,13,02,315,43,14,14,138,45*7C
MSG 0 42070.383 $PGRME,4.4,M,5.7,M,7.2,M*29
MSG 0 42070.444 $PGRMB,0.0,200,,,,K,,N,N*31
MSG 0 42070.504 $PGRMM,WGS 84*06
MSG 0 42070.819 $GPRMC,154231,A,4303.1648,N,07038.6817,W,000.9,121.3,030712,016.1,W*74
POS 0 42151.000 366057.067 4767984.832
QUA 0 42151.000 7 9.300 0.700 11.000 1.000 0.000 0.000 0.000
RAW 0 42151.000 4 430316.48000 -703868.17000 -26.00000 154231.00000
MSG 0 42070.969 $GPGGA,154231,4303.1648,N,07038.6817,W,1,11,0.7,6.4,M,-32.4,M,,*76
MSG 0 42071.111 $GPGSA,A,3,,06,13,14,16,20,23,25,29,30,31,32,1.3,0.7,1.1*3E
MSG 0 42071.238 $GPGSV,3,2,12,16,52,218,47,20,28,268,44,23,32,311,48,25,06,047,40*7E
MSG 0 42071.383 $PGRME,4.4,M,5.7,M,7.2,M*29
MSG 0 42071.444 $PGRMB,0.0,200,,,,K,,N,N*31
MSG 0 42071.504 $PGRMM,WGS 84*06
MSG 0 42071.855 $GPRMC,154232,A,4303.1648,N,07038.6817,W,000.4,137.7,030712,016.1,W*79
POS 0 42152.000 366057.067 4767984.832
QUA 0 42152.000 7 9.300 0.700 11.000 1.000 0.000 0.000 0.000
RAW 0 42152.000 4 430316.48000 -703868.17000 -25.50000 154232.00000
MSG 0 42072.005 $GPGGA,154232,4303.1648,N,07038.6817,W,1,11,0.7,6.9,M,-32.4,M,,*78
MSG 0 42072.147 $GPGSA,A,3,,06,13,14,16,20,23,25,29,30,31,32,1.3,0.7,1.1*3E
MSG 0 42072.274 $GPGSV,3,3,12,29,23,053,43,30,83,225,51,31,53,066,49,32,33,236,47*74
MSG 0 42072.419 $PGRME,4.4,M,5.7,M,7.2,M*29
MSG 0 42072.480 $PGRMB,0.0,200,,,,K,,N,N*31
MSG 0 42072.540 $PGRMM,WGS 84*06
MSG 0 42072.820 $GPRMC,154233,A,4303.1646,N,07038.6815,W,000.6,135.3,030712,016.1,W*70
POS 0 42153.000 366057.332 4767984.457
QUA 0 42153.000 7 9.300 0.700 11.000 1.000 0.000 0.000 0.000
RAW 0 42153.000 4 430316.46000 -703868.15000 -25.80000 154233.00000
MSG 0 42072.970 $GPGGA,154233,4303.1646,N,07038.6815,W,1,11,0.7,6.6,M,-32.4,M,,*7A
MSG 0 42073.112 $GPGSA,A,3,,06,13,14,16,20,23,25,29,30,31,32,1.3,0.7,1.1*3E
MSG 0 42073.239 $GPGSV,3,1,12,03,06,184,30,06,15,170,44,13,02,315,43,14,13,138,44*7A
MSG 0 42073.384 $PGRME,4.5,M,5.7,M,7.3,M*29
MSG 0 42073.445 $PGRMB,0.0,200,,,,K,,N,N*31
MSG 0 42073.505 $PGRMM,WGS 84*06
MSG 0 42073.820 $GPRMC,154234,A,4303.1644,N,07038.6812,W,000.8,134.5,030712,016.1,W*7B
POS 0 42154.000 366057.732 4767984.079
QUA 0 42154.000 7 9.300 0.700 11.000 1.000 0.000 0.000 0.000
RAW 0 42154.000 4 430316.44000 -703868.12000 -26.00000 154234.00000
MSG 0 42073.970 $GPGGA,154234,4303.1644,N,07038.6812,W,1,11,0.7,6.4,M,-32.4,M,,*7A
MSG 0 42074.111 $GPGSA,A,3,,06,13,14,16,20,23,25,29,30,31,32,1.3,0.7,1.1*3E
MSG 0 42074.238 $GPGSV,3,2,12,16,52,218,47,20,28,268,44,23,32,311,48,25,06,047,41*7F
MSG 0 42074.384 $PGRME,4.4,M,5.7,M,7.2,M*29
MSG 0 42074.444 $PGRMT,GPS 17-HVS Ver. 2.80,P,P,R,R,P,,38,R*00
MSG 0 42074.544 $PGRMB,0.0,200,,,,K,,N,N*31
MSG 0 42074.605 $PGRMM,WGS 84*06
MSG 0 42074.819 $GPRMC,154235,A,4303.1643,N,07038.6812,W,000.5,146.2,030712,016.1,W*72
POS 0 42155.000 366057.728 4767983.894
QUA 0 42155.000 7 9.300 0.700 11.000 1.000 0.000 0.000 0.000
RAW 0 42155.000 4 430316.43000 -703868.12000 -25.80000 154235.00000
MSG 0 42074.969 $GPGGA,154235,4303.1643,N,07038.6812,W,1,11,0.7,6.6,M,-32.4,M,,*7E
MSG 0 42075.111 $GPGSA,A,3,,06,13,14,16,20,23,25,29,30,31,32,1.3,0.7,1.1*3E
MSG 0 42075.238 $GPGSV,3,3,12,29,23,053,42,30,83,225,51,31,53,066,48,32,33,236,47*74
MSG 0 42075.383 $PGRME,4.4,M,5.7,M,7.2,M*29
MSG 0 42075.444 $PGRMB,0.0,200,,,,K,,N,N*31
MSG 0 42075.504 $PGRMM,WGS 84*06
MSG 0 42075.819 $GPRMC,154236,A,4303.1643,N,07038.6812,W,000.2,140.6,030712,016.1,W*74
POS 0 42156.000 366057.728 4767983.894
QUA 0 42156.000 7 9.300 0.700 11.000 1.000 0.000 0.000 0.000
RAW 0 42156.000 4 430316.43000 -703868.12000 -25.60000 154236.00000
MSG 0 42075.969 $GPGGA,154236,4303.1643,N,07038.6812,W,1,11,0.7,6.8,M,-32.4,M,,*73
MSG 0 42076.110 $GPGSA,A,3,,06,13,14,16,20,23,25,29,30,31,32,1.3,0.7,1.1*3E
MSG 0 42076.237 $GPGSV,3,1,12,03,06,184,30,06,15,170,45,13,02,315,44,14,13,138,45*7D
MSG 0 42076.383 $PGRME,4.4,M,5.7,M,7.2,M*29
MSG 0 42076.444 $PGRMB,0.0,200,,,,K,,N,N*31
MSG 0 42076.504 $PGRMM,WGS 84*06
MSG 0 42076.820 $GPRMC,154237,A,4303.1641,N,07038.6808,W,000.8,132.3,030712,016.1,W*76
POS 0 42157.000 366058.264 4767983.513
QUA 0 42157.000 7 9.300 0.700 11.000 1.000 0.000 0.000 0.000
RAW 0 42157.000 4 430316.41000 -703868.08000 -25.80000 154237.00000
MSG 0 42076.970 $GPGGA,154237,4303.1641,N,07038.6808,W,1,11,0.7,6.6,M,-32.4,M,,*75
MSG 0 42077.112 $GPGSA,A,3,,06,13,14,16,20,23,25,29,30,31,32,1.3,0.7,1.1*3E
MSG 0 42077.239 $GPGSV,3,2,12,16,52,218,47,20,28,268,44,23,32,311,47,25,06,047,40*71
MSG 0 42077.384 $PGRME,4.4,M,5.7,M,7.2,M*29
MSG 0 42077.445 $PGRMB,0.0,200,,,,K,,N,N*31
MSG 0 42077.505 $PGRMM,WGS 84*06
MSG 0 42077.819 $GPRMC,154238,A,4303.1640,N,07038.6805,W,000.7,125.2,030712,016.1,W*7D
POS 0 42158.000 366058.667 4767983.320
QUA 0 42158.000 7 9.200 0.800 11.000 1.000 0.000 0.000 0.000
RAW 0 42158.000 4 430316.40000 -703868.05000 -26.10000 154238.00000
MSG 0 42077.969 $GPGGA,154238,4303.1640,N,07038.6805,W,1,11,0.8,6.3,M,-32.4,M,,*7C
MSG 0 42078.110 $GPGSA,A,3,,06,13,14,16,20,23,25,29,30,31,32,1.3,0.8,1.1*31
MSG 0 42078.238 $GPGSV,3,3,12,29,23,053,42,30,83,225,51,31,53,066,49,32,33,236,47*75
MSG 0 42078.383 $PGRME,4.4,M,5.7,M,7.2,M*29
MSG 0 42078.444 $PGRMB,0.0,200,,,,K,,N,N*31
MSG 0 42078.504 $PGRMM,WGS 84*06
MSG 0 42078.821 $GPRMC,154239,A,4303.1639,N,07038.6805,W,000.3,136.9,030712,016.1,W*7F
POS 0 42159.000 366058.664 4767983.135
QUA 0 42159.000 7 9.300 0.700 11.000 1.000 0.000 0.000 0.000
RAW 0 42159.000 4 430316.39000 -703868.05000 -25.90000 154239.00000
MSG 0 42078.970 $GPGGA,154239,4303.1639,N,07038.6805,W,1,11,0.7,6.5,M,-32.4,M,,*7A
MSG 0 42079.112 $GPGSA,A,3,,06,13,14,16,20,23,25,29,30,31,32,1.3,0.7,1.1*3E
MSG 0 42079.239 $GPGSV,3,1,12,03,06,184,31,06,15,170,44,13,02,315,44,14,13,138,44*7C
MSG 0 42079.385 $PGRME,4.4,M,5.7,M,7.2,M*29
MSG 0 42079.445 $PGRMB,0.0,200,,,,K,,N,N*31
MSG 0 42079.506 $PGRMM,WGS 84*06
MSG 0 42079.847 $GPRMC,154240,A,4303.1637,N,07038.6802,W,000.7,134.9,030712,016.1,W*7E
POS 0 42160.000 366059.064 4767982.756
QUA 0 42160.000 7 9.300 0.700 11.000 1.000 0.000 0.000 0.000
RAW 0 42160.000 4 430316.37000 -703868.02000 -25.60000 154240.00000
MSG 0 42079.997 $GPGGA,154240,4303.1637,N,07038.6802,W,1,11,0.7,6.8,M,-32.4,M,,*70
MSG 0 42080.138 $GPGSA,A,3,,06,13,14,16,20,23,25,29,30,31,32,1.3,0.7,1.1*3E
MSG 0 42080.265 $GPGSV,3,2,12,16,53,219,47,20,28,268,44,23,32,311,47,25,06,047,41*70
MSG 0 42080.411 $PGRME,4.5,M,5.7,M,7.3,M*29
MSG 0 42080.472 $PGRMB,0.0,200,,,,K,,N,N*31
MSG 0 42080.532 $PGRMM,WGS 84*06
MSG 0 42080.834 $GPRMC,154241,A,4303.1635,N,07038.6800,W,000.7,138.8,030712,016.1,W*72
POS 0 42161.000 366059.328 4767982.381
QUA 0 42161.000 7 9.300 0.700 11.000 1.000 0.000 0.000 0.000
RAW 0 42161.000 4 430316.35000 -703868.00000 -25.80000 154241.00000
MSG 0 42080.984 $GPGGA,154241,4303.1635,N,07038.6800,W,1,11,0.7,6.6,M,-32.4,M,,*7F
MSG 0 42081.125 $GPGSA,A,3,,06,13,14,16,20,23,25,29,30,31,32,1.3,0.7,1.1*3E
MSG 0 42081.252 $GPGSV,3,3,12,29,23,053,43,30,83,225,51,31,53,066,49,32,33,236,46*75
MSG 0 42081.398 $PGRME,4.4,M,5.7,M,7.2,M*29
MSG 0 42081.458 $PGRMB,0.0,200,,,,K,,N,N*31
MSG 0 42081.519 $PGRMM,WGS 84*06
MSG 0 42081.816 $GPRMC,154242,A,4303.1635,N,07038.6800,W,000.4,146.4,030712,016.1,W*77
POS 0 42162.000 366059.328 4767982.381
QUA 0 42162.000 7 9.300 0.700 11.000 1.000 0.000 0.000 0.000
RAW 0 42162.000 4 430316.35000 -703868.00000 -25.80000 154242.00000
MSG 0 42081.966 $GPGGA,154242,4303.1635,N,07038.6800,W,1,11,0.7,6.6,M,-32.4,M,,*7C
MSG 0 42082.108 $GPGSA,A,3,,06,13,14,16,20,23,25,29,30,31,32,1.3,0.7,1.1*3E
MSG 0 42082.235 $GPGSV,3,1,12,03,06,184,32,06,15,170,45,13,02,315,44,14,13,138,43*79
MSG 0 42082.381 $PGRME,4.4,M,5.7,M,7.2,M*29
MSG 0 42082.441 $PGRMB,0.0,200,,,,K,,N,N*31
MSG 0 42082.501 $PGRMM,WGS 84*06
MSG 0 42082.818 $GPRMC,154243,A,4303.1634,N,07038.6799,W,000.5,141.2,030712,016.1,W*78
POS 0 42163.000 366059.460 4767982.193
QUA 0 42163.000 7 9.300 0.700 11.000 1.000 0.000 0.000 0.000
RAW 0 42163.000 4 430316.34000 -703867.99000 -26.10000 154243.00000
MSG 0 42082.968 $GPGGA,154243,4303.1634,N,07038.6799,W,1,11,0.7,6.3,M,-32.4,M,,*76
MSG 0 42083.110 $GPGSA,A,3,,06,13,14,16,20,23,25,29,30,31,32,1.3,0.7,1.1*3E
MSG 0 42083.237 $GPGSV,3,2,12,16,53,219,47,20,28,268,44,23,32,311,48,25,06,047,41*7F
MSG 0 42083.383 $PGRME,4.4,M,5.7,M,7.2,M*29
MSG 0 42083.443 $PGRMB,0.0,200,,,,K,,N,N*31
MSG 0 42083.504 $PGRMM,WGS 84*06
MSG 0 42083.825 $GPRMC,154244,A,4303.1632,N,07038.6795,W,000.7,121.1,030712,016.1,W*72
POS 0 42164.000 366059.996 4767981.812
QUA 0 42164.000 7 9.300 0.700 11.000 1.000 0.000 0.000 0.000
RAW 0 42164.000 4 430316.32000 -703867.95000 -26.10000 154244.00000
MSG 0 42083.975 $GPGGA,154244,4303.1632,N,07038.6795,W,1,11,0.7,6.3,M,-32.4,M,,*7B
MSG 0 42084.116 $GPGSA,A,3,,06,13,14,16,20,23,25,29,30,31,32,1.3,0.7,1.1*3E
MSG 0 42084.244 $GPGSV,3,3,12,29,23,053,42,30,83,225,51,31,53,066,49,32,33,236,47*75
MSG 0 42084.389 $PGRME,4.4,M,5.7,M,7.2,M*29
MSG 0 42084.450 $PGRMB,0.0,200,,,,K,,N,N*31
MSG 0 42084.510 $PGRMM,WGS 84*06
MSG 0 42084.829 $GPRMC,154245,A,4303.1631,N,07038.6794,W,000.6,143.7,030712,016.1,W*72
POS 0 42165.000 366060.128 4767981.625
QUA 0 42165.000 7 9.300 0.700 11.000 1.000 0.000 0.000 0.000
RAW 0 42165.000 4 430316.31000 -703867.94000 -26.00000 154245.00000
MSG 0 42084.978 $GPGGA,154245,4303.1631,N,07038.6794,W,1,11,0.7,6.4,M,-32.4,M,,*7F
MSG 0 42085.120 $GPGSA,A,3,,06,13,14,16,20,23,25,29,30,31,32,1.3,0.7,1.1*3E
MSG 0 42085.247 $GPGSV,3,1,12,03,06,184,32,06,15,170,45,13,02,315,45,14,13,138,44*7F
MSG 0 42085.393 $PGRME,4.4,M,5.7,M,7.2,M*29
MSG 0 42085.453 $PGRMB,0.0,200,,,,K,,N,N*31
MSG 0 42085.514 $PGRMM,WGS 84*06
MSG 0 42085.849 $GPRMC,154246,A,4303.1631,N,07038.6792,W,000.5,114.4,030712,016.1,W*75
POS 0 42166.000 366060.399 4767981.619
QUA 0 42166.000 7 9.300 0.700 11.000 1.000 0.000 0.000 0.000
RAW 0 42166.000 4 430316.31000 -703867.92000 -25.80000 154246.00000
MSG 0 42085.999 $GPGGA,154246,4303.1631,N,07038.6792,W,1,11,0.7,6.6,M,-32.4,M,,*78
MSG 0 42086.141 $GPGSA,A,3,,06,13,14,16,20,23,25,29,30,31,32,1.3,0.7,1.1*3E
MSG 0 42086.268 $GPGSV,3,2,12,16,53,219,47,20,28,268,44,23,32,311,48,25,06,047,40*7E
MSG 0 42086.414 $PGRME,4.4,M,5.7,M,7.2,M*29
MSG 0 42086.474 $PGRMB,0.0,200,,,,K,,N,N*31
MSG 0 42086.534 $PGRMM,WGS 84*06
MSG 0 42086.817 $GPRMC,154247,A,4303.1629,N,07038.6791,W,000.5,147.3,030712,016.1,W*7F
POS 0 42167.000 366060.528 4767981.247
QUA 0 42167.000 7 9.300 0.700 11.000 1.000 0.000 0.000 0.000
RAW 0 42167.000 4 430316.29000 -703867.91000 -25.80000 154247.00000
MSG 0 42086.967 $GPGGA,154247,4303.1629,N,07038.6791,W,1,11,0.7,6.6,M,-32.4,M,,*73
MSG 0 42087.109 $GPGSA,A,3,,06,13,14,16,20,23,25,29,30,31,32,1.3,0.7,1.1*3E
MSG 0 42087.236 $GPGSV,3,3,12,29,23,053,42,30,83,225,51,31,53,066,49,32,33,236,47*75
MSG 0 42087.381 $PGRME,4.5,M,5.7,M,7.3,M*29
MSG 0 42087.442 $PGRMB,0.0,200,,,,K,,N,N*31
MSG 0 42087.502 $PGRMM,WGS 84*06
MSG 0 42087.821 $GPRMC,154248,A,4303.1628,N,07038.6789,W,000.5,138.1,030712,016.1,W*72
POS 0 42168.000 366060.796 4767981.056
QUA 0 42168.000 7 9.300 0.700 11.000 1.000 0.000 0.000 0.000
RAW 0 42168.000 4 430316.28000 -703867.89000 -25.90000 154248.00000
MSG 0 42087.971 $GPGGA,154248,4303.1628,N,07038.6789,W,1,11,0.7,6.5,M,-32.4,M,,*77
MSG 0 42088.112 $GPGSA,A,3,,06,13,14,16,20,23,25,29,30,31,32,1.3,0.7,1.1*3E
MSG 0 42088.239 $GPGSV,3,1,12,03,06,184,33,06,15,170,45,13,02,315,44,14,13,138,44*7F
MSG 0 42088.385 $PGRME,4.4,M,5.7,M,7.2,M*29
MSG 0 42088.445 $PGRMB,0.0,200,,,,K,,N,N*31
MSG 0 42088.506 $PGRMM,WGS 84*06
MSG 0 42088.824 $GPRMC,154249,A,4303.1626,N,07038.6788,W,000.5,139.7,030712,016.1,W*7B
POS 0 42169.000 366060.924 4767980.683
QUA 0 42169.000 7 9.300 0.700 11.000 1.000 0.000 0.000 0.000
RAW 0 42169.000 4 430316.26000 -703867.88000 -25.80000 154249.00000
MSG 0 42088.974 $GPGGA,154249,4303.1626,N,07038.6788,W,1,11,0.7,6.6,M,-32.4,M,,*7A
MSG 0 42089.115 $GPGSA,A,3,,06,13,14,16,20,23,25,29,30,31,32,1.3,0.7,1.1*3E
MSG 0 42089.242 $GPGSV,3,2,12,16,53,219,47,20,28,268,44,23,32,311,48,25,06,047,41*7F
MSG 0 42089.388 $PGRME,4.4,M,5.7,M,7.2,M*29
MSG 0 42089.449 $PGRMB,0.0,200,,,,K,,N,N*31
MSG 0 42089.509 $PGRMM,WGS 84*06
MSG 0 42089.817 $GPRMC,154250,A,4303.1625,N,07038.6787,W,000.6,143.0,030712,016.1,W*76
POS 0 42170.000 366061.056 4767980.496
QUA 0 42170.000 7 9.300 0.700 11.000 1.000 0.000 0.000 0.000
RAW 0 42170.000 4 430316.25000 -703867.87000 -26.00000 154250.00000
MSG 0 42089.967 $GPGGA,154250,4303.1625,N,07038.6787,W,1,11,0.7,6.4,M,-32.4,M,,*7C
MSG 0 42090.109 $GPGSA,A,3,,06,13,14,16,20,23,25,29,30,31,32,1.3,0.7,1.1*3E
MSG 0 42090.236 $GPGSV,3,3,12,29,23,053,42,30,83,225,51,31,53,066,49,32,33,236,47*75
MSG 0 42090.381 $PGRME,4.4,M,5.7,M,7.2,M*29
MSG 0 42090.442 $PGRMB,0.0,200,,,,K,,N,N*31
MSG 0 42090.502 $PGRMM,WGS 84*06
MSG 0 42090.817 $GPRMC,154251,A,4303.1623,N,07038.6784,W,000.6,137.6,030712,016.1,W*77
POS 0 42171.000 366061.456 4767980.117
QUA 0 42171.000 7 9.300 0.700 11.000 1.000 0.000 0.000 0.000
RAW 0 42171.000 4 430316.23000 -703867.84000 -26.10000 154251.00000
MSG 0 42090.967 $GPGGA,154251,4303.1623,N,07038.6784,W,1,11,0.7,6.3,M,-32.4,M,,*7F
MSG 0 42091.108 $GPGSA,A,3,,06,13,14,16,20,23,25,29,30,31,32,1.3,0.7,1.1*3E
MSG 0 42091.235 $GPGSV,3,1,12,03,06,184,33,06,15,170,45,13,02,315,44,14,13,138,44*7F
MSG 0 42091.381 $PGRME,4.4,M,5.7,M,7.2,M*29
MSG 0 42091.441 $PGRMB,0.0,200,,,,K,,N,N*31
MSG 0 42091.502 $PGRMM,WGS 84*06
MSG 0 42091.822 $GPRMC,154252,A,4303.1622,N,07038.6782,W,000.7,132.2,030712,016.1,W*73
POS 0 42172.000 366061.724 4767979.927
QUA 0 42172.000 7 9.300 0.700 11.000 1.000 0.000 0.000 0.000
RAW 0 42172.000 4 430316.22000 -703867.82000 -26.10000 154252.00000
MSG 0 42091.972 $GPGGA,154252,4303.1622,N,07038.6782,W,1,11,0.7,6.3,M,-32.4,M,,*7B
MSG 0 42092.114 $GPGSA,A,3,,06,13,14,16,20,23,25,29,30,31,32,1.3,0.7,1.1*3E
MSG 0 42092.241 $GPGSV,3,2,12,16,53,219,47,20,28,268,44,23,32,311,48,25,06,047,41*7F
MSG 0 42092.387 $PGRME,4.4,M,5.7,M,7.2,M*29
MSG 0 42092.447 $PGRMB,0.0,200,,,,K,,N,N*31
MSG 0 42092.507 $PGRMM,WGS 84*06
MSG 0 42092.823 $GPRMC,154253,A,4303.1622,N,07038.6780,W,000.5,125.4,030712,016.1,W*72
POS 0 42173.000 366061.995 4767979.922
QUA 0 42173.000 7 9.300 0.700 11.000 1.000 0.000 0.000 0.000
RAW 0 42173.000 4 430316.22000 -703867.80000 -26.00000 154253.00000
MSG 0 42092.973 $GPGGA,154253,4303.1622,N,07038.6780,W,1,11,0.7,6.4,M,-32.4,M,,*7F
MSG 0 42093.114 $GPGSA,A,3,,06,13,14,16,20,23,25,29,30,31,32,1.3,0.7,1.1*3E
MSG 0 42093.241 $GPGSV,3,3,12,29,23,053,43,30,83,225,51,31,53,066,49,32,33,236,47*74
MSG 0 42093.387 $PGRME,4.4,M,5.7,M,7.2,M*29
MSG 0 42093.447 $PGRMB,0.0,200,,,,K,,N,N*31
MSG 0 42093.508 $PGRMM,WGS 84*06
MSG 0 42093.818 $GPRMC,154254,A,4303.1620,N,07038.6779,W,000.6,136.1,030712,016.1,W*75
POS 0 42174.000 366062.124 4767979.549
QUA 0 42174.000 7 9.300 0.700 11.000 1.000 0.000 0.000 0.000
RAW 0 42174.000 4 430316.20000 -703867.79000 -26.00000 154254.00000
MSG 0 42093.968 $GPGGA,154254,4303.1620,N,07038.6779,W,1,11,0.7,6.4,M,-32.4,M,,*7C
MSG 0 42094.109 $GPGSA,A,3,,06,13,14,16,20,23,25,29,30,31,32,1.3,0.7,1.1*3E
MSG 0 42094.236 $GPGSV,3,1,12,03,06,184,33,06,15,170,45,13,02,315,44,14,13,138,45*7E
MSG 0 42094.382 $PGRME,4.4,M,5.7,M,7.2,M*29
MSG 0 42094.443 $PGRMB,0.0,200,,,,K,,N,N*31
MSG 0 42094.503 $PGRMM,WGS 84*06
MSG 0 42094.844 $GPRMC,154255,A,4303.1619,N,07038.6777,W,000.6,126.0,030712,016.1,W*70
POS 0 42175.000 366062.392 4767979.358
QUA 0 42175.000 7 9.300 0.700 11.000 1.000 0.000 0.000 0.000
RAW 0 42175.000 4 430316.19000 -703867.77000 -25.80000 154255.00000
MSG 0 42094.994 $GPGGA,154255,4303.1619,N,07038.6777,W,1,11,0.7,6.6,M,-32.4,M,,*7B
MSG 0 42095.135 $GPGSA,A,3,,06,13,14,16,20,23,25,29,30,31,32,1.3,0.7,1.1*3E
MSG 0 42095.262 $GPGSV,3,2,12,16,53,219,47,20,28,267,44,23,32,311,48,25,06,047,40*71
MSG 0 42095.408 $PGRME,4.4,M,5.7,M,7.2,M*29
MSG 0 42095.468 $PGRMB,0.0,200,,,,K,,N,N*31
MSG 0 42095.529 $PGRMM,WGS 84*06
MSG 0 42095.831 $GPRMC,154256,A,4303.1618,N,07038.6777,W,000.5,144.7,030712,016.1,W*72
POS 0 42176.000 366062.388 4767979.173
QUA 0 42176.000 7 9.300 0.700 11.000 1.000 0.000 0.000 0.000
RAW 0 42176.000 4 430316.18000 -703867.77000 -25.70000 154256.00000
MSG 0 42095.981 $GPGGA,154256,4303.1618,N,07038.6777,W,1,11,0.7,6.7,M,-32.4,M,,*78
MSG 0 42096.123 $GPGSA,A,3,,06,13,14,16,20,23,25,29,30,31,32,1.3,0.7,1.1*3E
MSG 0 42096.250 $GPGSV,3,3,12,29,23,053,43,30,83,225,50,31,53,066,49,32,33,236,47*75
MSG 0 42096.396 $PGRME,4.4,M,5.7,M,7.2,M*29
MSG 0 42096.456 $PGRMB,0.0,200,,,,K,,N,N*31
FIX 99 42096.552 83 366062.388 4767979.173
