FTP NEW 2
VER 11.0.6.21
INF "" "" "" "" 0.000 0.000 0.000
ELL WGS-84 6378137.000 298.257223563
PRO TME -69.000000 0.999600 0.000000 0.000000 0.000000 500000.0000 0.0000
DTM 0.00 0.00 0.00 0.00000 0.00000 0.00000 0.00000
GEO ??? 0.000
HVU 1.0000000000 1.0000000000
TND 13:42:43 07/03/2012 240
DEV 0 32869 "Garmin GPS" 49156 C:\HYPACK 2011\devices\GPS.dll 11.0.10.6
OFF 0 0.000 0.000 0.000 0.000 0.000 0.000 0.000
DDT 0 SYN 
DEV 1 0 "Disabled" 0 Odom CV3 MK3 Disabled Unknown
USR "NOAA Joint Hydrographic Center" "HYPACK Inc." 0x8 15681181
EOH 0001FFFFFFFFFFFFFFFFFFFFFFFFFFFFFFFFFFFFFFFFFFFFFFFFFFFFFFFFFFFFFFFFFFFFFFFFFFFFFFFFFFFFFFFFFFFFFFFFFFFFFFFFFFFFFFFFFFFFFFFFFFFFFFFFFFFFFFFFFFFFFFFFFFFFFFFFFFFFFFFFFFFFFFFFFFFFFFFFFFFF003021300906052B0E03021A0500041432A6200847A8A9CF66F97898B1120853C20A0D6F
MSG 0 49360.862 $GPGSA,A,3,,06,07,10,13,16,19,21,23,30,31,,1.4,0.9,1.1*30
MSG 0 49360.985 $GPGSV,3,2,11,13,48,297,50,16,68,035,45,19,28,185,48,21,11,061,00*77
MSG 0 49361.131 $PGRME,4.5,M,6.1,M,7.6,M*29
MSG 0 49361.191 $PGRMB,0.0,200,,,,K,,N,N*31
MSG 0 49361.252 $PGRMM,WGS 84*06
MSG 0 49361.573 $GPRMC,174402,A,4302.6106,N,07038.0693,W,000.6,157.1,030712,016.1,W*73
POS 0 49442.000 366868.328 4766942.835
QUA 0 49442.000 7 9.100 0.900 10.000 1.000 0.000 0.000 0.000
RAW 0 49442.000 4 430261.06000 -703806.93000 -22.80000 174402.00000
MSG 0 49361.723 $GPGGA,174402,4302.6106,N,07038.0693,W,1,10,0.9,9.6,M,-32.4,M,,*7F
MSG 0 49361.865 $GPGSA,A,3,,06,07,10,13,16,19,21,23,30,31,,1.4,0.9,1.1*30
MSG 0 49361.987 $GPGSV,3,3,11,23,57,239,52,30,40,061,46,31,12,113,44*45
MSG 0 49362.106 $PGRME,4.5,M,6.1,M,7.6,M*29
MSG 0 49362.167 $PGRMB,0.0,200,,,,K,,N,N*31
MSG 0 49362.227 $PGRMM,WGS 84*06
MSG 0 49362.580 $GPRMC,174403,A,4302.6104,N,07038.0693,W,000.5,174.5,030712,016.1,W*76
POS 0 49443.000 366868.321 4766942.465
QUA 0 49443.000 7 9.100 0.900 10.000 1.000 0.000 0.000 0.000
RAW 0 49443.000 4 430261.04000 -703806.93000 -23.00000 174403.00000
MSG 0 49362.730 $GPGGA,174403,4302.6104,N,07038.0693,W,1,10,0.9,9.4,M,-32.4,M,,*7E
FIX 99 49363.094 108 366868.321 4766942.465
MSG 0 49362.871 $GPGSA,A,3,,06,07,10,13,16,19,21,23,30,31,,1.4,0.9,1.1*30
MSG 0 49362.994 $GPGSV,3,1,11,03,62,167,00,06,65,126,49,07,21,303,47,10,06,306,39*7E
MSG 0 49363.140 $PGRME,4.5,M,6.0,M,7.5,M*2B
MSG 0 49363.200 $PGRMB,0.0,200,,,,K,,N,N*31
MSG 0 49363.260 $PGRMM,WGS 84*06
MSG 0 49363.572 $GPRMC,174404,A,4302.6103,N,07038.0693,W,000.6,176.4,030712,016.1,W*76
POS 0 49444.000 366868.317 4766942.280
QUA 0 49444.000 7 9.100 0.900 10.000 1.000 0.000 0.000 0.000
RAW 0 49444.000 4 430261.03000 -703806.93000 -23.00000 174404.00000
MSG 0 49363.722 $GPGGA,174404,4302.6103,N,07038.0693,W,1,10,0.9,9.4,M,-32.4,M,,*7E
MSG 0 49363.864 $GPGSA,A,3,,06,07,10,13,16,19,21,23,30,31,,1.4,0.9,1.1*30
MSG 0 49363.987 $GPGSV,3,2,11,13,48,297,50,16,68,035,46,19,28,185,48,21,11,061,33*74
MSG 0 49364.132 $PGRME,4.5,M,6.1,M,7.6,M*29
MSG 0 49364.193 $PGRMB,0.0,200,,,,K,,N,N*31
MSG 0 49364.253 $PGRMM,WGS 84*06
MSG 0 49364.567 $GPRMC,174405,A,4302.6100,N,07038.0691,W,000.7,159.7,030712,016.1,W*79
POS 0 49445.000 366868.578 4766941.719
QUA 0 49445.000 7 9.100 0.900 10.000 1.000 0.000 0.000 0.000
RAW 0 49445.000 4 430261.00000 -703806.91000 -22.90000 174405.00000
MSG 0 49364.717 $GPGGA,174405,4302.6100,N,07038.0691,W,1,10,0.9,9.5,M,-32.4,M,,*7F
MSG 0 49364.859 $GPGSA,A,3,,06,07,10,13,16,19,21,23,30,31,,1.4,0.9,1.1*30
MSG 0 49364.982 $GPGSV,3,3,11,23,57,239,52,30,40,061,45,31,12,113,43*41
MSG 0 49365.100 $PGRME,4.5,M,6.1,M,7.6,M*29
MSG 0 49365.161 $PGRMB,0.0,200,,,,K,,N,N*31
MSG 0 49365.221 $PGRMM,WGS 84*06
MSG 0 49365.562 $GPRMC,174406,A,4302.6099,N,07038.0690,W,000.7,152.1,030712,016.1,W*77
POS 0 49446.000 366868.710 4766941.532
QUA 0 49446.000 7 9.100 0.900 10.000 1.000 0.000 0.000 0.000
RAW 0 49446.000 4 430260.99000 -703806.90000 -23.10000 174406.00000
MSG 0 49365.712 $GPGGA,174406,4302.6099,N,07038.0690,W,1,10,0.9,9.3,M,-32.4,M,,*7A
MSG 0 49365.854 $GPGSA,A,3,,06,07,10,13,16,19,21,23,30,31,,1.4,0.9,1.1*30
MSG 0 49365.977 $GPGSV,3,1,11,03,62,167,00,06,65,126,49,07,21,303,46,10,06,306,41*70
MSG 0 49366.123 $PGRME,4.5,M,6.1,M,7.6,M*29
MSG 0 49366.183 $PGRMB,0.0,200,,,,K,,N,N*31
MSG 0 49366.243 $PGRMM,WGS 84*06
MSG 0 49366.560 $GPRMC,174407,A,4302.6097,N,07038.0690,W,000.7,167.1,030712,016.1,W*7E
POS 0 49447.000 366868.703 4766941.162
QUA 0 49447.000 7 9.100 0.900 10.000 1.000 0.000 0.000 0.000
RAW 0 49447.000 4 430260.97000 -703806.90000 -23.00000 174407.00000
MSG 0 49366.710 $GPGGA,174407,4302.6097,N,07038.0690,W,1,10,0.9,9.4,M,-32.4,M,,*72
MSG 0 49366.852 $GPGSA,A,3,,06,07,10,13,16,19,21,23,30,31,,1.4,0.9,1.1*30
MSG 0 49366.975 $GPGSV,3,2,11,13,48,297,50,16,68,035,46,19,28,185,48,21,11,061,35*72
MSG 0 49367.120 $PGRME,4.5,M,6.0,M,7.5,M*2B
MSG 0 49367.181 $PGRMB,0.0,200,,,,K,,N,N*31
MSG 0 49367.241 $PGRMM,WGS 84*06
MSG 0 49367.573 $GPRMC,174408,A,4302.6094,N,07038.0690,W,000.7,173.8,030712,016.1,W*7E
POS 0 49448.000 366868.692 4766940.606
QUA 0 49448.000 7 9.100 0.900 10.000 1.000 0.000 0.000 0.000
RAW 0 49448.000 4 430260.94000 -703806.90000 -22.70000 174408.00000
MSG 0 49367.723 $GPGGA,174408,4302.6094,N,07038.0690,W,1,10,0.9,9.7,M,-32.4,M,,*7D
MSG 0 49367.865 $GPGSA,A,3,,06,07,10,13,16,19,21,23,30,31,,1.4,0.9,1.1*30
MSG 0 49367.987 $GPGSV,3,3,11,23,57,239,51,30,40,061,46,31,12,113,41*43
MSG 0 49368.106 $PGRME,4.5,M,6.0,M,7.5,M*2B
MSG 0 49368.167 $PGRMB,0.0,200,,,,K,,N,N*31
MSG 0 49368.227 $PGRMM,WGS 84*06
MSG 0 49368.570 $GPRMC,174409,A,4302.6094,N,07038.0688,W,000.6,143.1,030712,016.1,W*7D
POS 0 49449.000 366868.963 4766940.601
QUA 0 49449.000 7 9.100 0.900 10.000 1.000 0.000 0.000 0.000
RAW 0 49449.000 4 430260.94000 -703806.88000 -22.70000 174409.00000
MSG 0 49368.720 $GPGGA,174409,4302.6094,N,07038.0688,W,1,10,0.9,9.7,M,-32.4,M,,*75
MSG 0 49368.861 $GPGSA,A,3,,06,07,10,13,16,19,21,23,30,31,,1.4,0.9,1.1*30
MSG 0 49368.984 $GPGSV,3,1,11,03,62,167,00,06,65,126,49,07,21,303,46,10,06,306,39*7F
MSG 0 49369.130 $PGRME,4.5,M,6.0,M,7.5,M*2B
MSG 0 49369.190 $PGRMB,0.0,200,,,,K,,N,N*31
MSG 0 49369.251 $PGRMM,WGS 84*06
MSG 0 49369.560 $GPRMC,174410,A,4302.6092,N,07038.0689,W,000.5,173.7,030712,016.1,W*74
POS 0 49450.000 366868.820 4766940.233
QUA 0 49450.000 7 9.100 0.900 10.000 1.000 0.000 0.000 0.000
RAW 0 49450.000 4 430260.92000 -703806.89000 -22.90000 174410.00000
MSG 0 49369.710 $GPGGA,174410,4302.6092,N,07038.0689,W,1,10,0.9,9.5,M,-32.4,M,,*78
MSG 0 49369.851 $GPGSA,A,3,,06,07,10,13,16,19,21,23,30,31,,1.4,0.9,1.1*30
MSG 0 49369.974 $GPGSV,3,2,11,13,48,297,50,16,68,035,46,19,28,185,47,21,11,061,34*7C
MSG 0 49370.120 $PGRME,4.5,M,6.0,M,7.5,M*2B
MSG 0 49370.180 $PGRMB,0.0,200,,,,K,,N,N*31
MSG 0 49370.241 $PGRMM,WGS 84*06
MSG 0 49370.574 $GPRMC,174411,A,4302.6090,N,07038.0688,W,000.7,170.1,030712,016.1,W*71
POS 0 49451.000 366868.949 4766939.861
QUA 0 49451.000 7 9.100 0.900 10.000 1.000 0.000 0.000 0.000
RAW 0 49451.000 4 430260.90000 -703806.88000 -22.80000 174411.00000
MSG 0 49370.724 $GPGGA,174411,4302.6090,N,07038.0688,W,1,10,0.9,9.6,M,-32.4,M,,*79
MSG 0 49370.866 $GPGSA,A,3,,06,07,10,13,16,19,21,23,30,31,,1.4,0.9,1.1*30
MSG 0 49370.988 $GPGSV,3,3,11,23,57,239,51,30,40,061,46,31,12,113,40*42
MSG 0 49371.107 $PGRME,4.5,M,6.1,M,7.6,M*29
MSG 0 49371.167 $PGRMB,0.0,200,,,,K,,N,N*31
MSG 0 49371.228 $PGRMM,WGS 84*06
MSG 0 49371.570 $GPRMC,174412,A,4302.6089,N,07038.0686,W,000.6,149.6,030712,016.1,W*78
POS 0 49452.000 366869.217 4766939.670
QUA 0 49452.000 7 9.100 0.900 10.000 1.000 0.000 0.000 0.000
RAW 0 49452.000 4 430260.89000 -703806.86000 -23.00000 174412.00000
MSG 0 49371.720 $GPGGA,174412,4302.6089,N,07038.0686,W,1,10,0.9,9.4,M,-32.4,M,,*7E
MSG 0 49371.862 $GPGSA,A,3,,06,07,10,13,16,19,21,23,30,31,,1.4,0.9,1.1*30
MSG 0 49371.984 $GPGSV,3,1,11,03,62,167,00,06,65,124,49,07,21,303,45,10,06,306,40*70
MSG 0 49372.130 $PGRME,4.5,M,6.0,M,7.5,M*2B
MSG 0 49372.191 $PGRMB,0.0,200,,,,K,,N,N*31
MSG 0 49372.251 $PGRMM,WGS 84*06
MSG 0 49372.563 $GPRMC,174413,A,4302.6088,N,07038.0684,W,000.6,142.9,030712,016.1,W*7E
POS 0 49453.000 366869.485 4766939.480
QUA 0 49453.000 7 9.100 0.900 10.000 1.000 0.000 0.000 0.000
RAW 0 49453.000 4 430260.88000 -703806.84000 -22.90000 174413.00000
MSG 0 49372.713 $GPGGA,174413,4302.6088,N,07038.0684,W,1,10,0.9,9.5,M,-32.4,M,,*7D
MSG 0 49372.855 $GPGSA,A,3,,06,07,10,13,16,19,21,23,30,31,,1.4,0.9,1.1*30
MSG 0 49372.978 $GPGSV,3,2,11,13,48,297,50,16,68,035,46,19,28,185,46,21,11,061,37*7E
MSG 0 49373.123 $PGRME,4.5,M,6.0,M,7.5,M*2B
MSG 0 49373.184 $PGRMB,0.0,200,,,,K,,N,N*31
MSG 0 49373.244 $PGRMM,WGS 84*06
MSG 0 49373.572 $GPRMC,174414,A,4302.6085,N,07038.0685,W,000.7,178.1,030712,016.1,W*75
POS 0 49454.000 366869.338 4766938.927
QUA 0 49454.000 7 9.100 0.900 10.000 1.000 0.000 0.000 0.000
RAW 0 49454.000 4 430260.85000 -703806.85000 -23.00000 174414.00000
MSG 0 49373.722 $GPGGA,174414,4302.6085,N,07038.0685,W,1,10,0.9,9.4,M,-32.4,M,,*77
MSG 0 49373.864 $GPGSA,A,3,,06,07,10,13,16,19,21,23,30,31,,1.4,0.9,1.1*30
MSG 0 49373.986 $GPGSV,3,3,11,23,57,239,51,30,40,061,45,31,12,113,40*41
MSG 0 49374.105 $PGRME,4.5,M,6.0,M,7.5,M*2B
MSG 0 49374.165 $PGRMB,0.0,200,,,,K,,N,N*31
MSG 0 49374.226 $PGRMM,WGS 84*06
MSG 0 49374.565 $GPRMC,174415,A,4302.6084,N,07038.0684,W,000.6,162.3,030712,016.1,W*7C
POS 0 49455.000 366869.470 4766938.740
QUA 0 49455.000 7 9.100 0.900 10.000 1.000 0.000 0.000 0.000
RAW 0 49455.000 4 430260.84000 -703806.84000 -22.80000 174415.00000
MSG 0 49374.715 $GPGGA,174415,4302.6084,N,07038.0684,W,1,10,0.9,9.6,M,-32.4,M,,*74
MSG 0 49374.857 $GPGSA,A,3,,06,07,10,13,16,19,21,23,30,31,,1.4,0.9,1.1*30
MSG 0 49374.980 $GPGSV,3,1,11,03,62,167,33,06,65,124,49,07,22,303,46,10,06,306,39*7E
MSG 0 49375.125 $PGRME,4.5,M,6.0,M,7.5,M*2B
MSG 0 49375.186 $PGRMB,0.0,200,,,,K,,N,N*31
MSG 0 49375.246 $PGRMM,WGS 84*06
MSG 0 49375.559 $GPRMC,174416,A,4302.6083,N,07038.0684,W,000.5,158.0,030712,016.1,W*71
POS 0 49456.000 366869.467 4766938.554
QUA 0 49456.000 7 9.100 0.900 10.000 1.000 0.000 0.000 0.000
RAW 0 49456.000 4 430260.83000 -703806.84000 -22.90000 174416.00000
MSG 0 49375.709 $GPGGA,174416,4302.6083,N,07038.0684,W,1,10,0.9,9.5,M,-32.4,M,,*73
MSG 0 49375.851 $GPGSA,A,3,,06,07,10,13,16,19,21,23,30,31,,1.4,0.9,1.1*30
MSG 0 49375.974 $GPGSV,3,2,11,13,48,297,50,16,68,035,46,19,28,185,46,21,11,061,36*7F
MSG 0 49376.119 $PGRME,4.5,M,6.1,M,7.6,M*29
MSG 0 49376.180 $PGRMB,0.0,200,,,,K,,N,N*31
MSG 0 49376.240 $PGRMM,WGS 84*06
MSG 0 49376.559 $GPRMC,174417,A,4302.6081,N,07038.0684,W,000.6,175.4,030712,016.1,W*7A
POS 0 49457.000 366869.459 4766938.184
QUA 0 49457.000 7 9.100 0.900 10.000 1.000 0.000 0.000 0.000
RAW 0 49457.000 4 430260.81000 -703806.84000 -23.10000 174417.00000
MSG 0 49376.709 $GPGGA,174417,4302.6081,N,07038.0684,W,1,10,0.9,9.3,M,-32.4,M,,*76
MSG 0 49376.851 $GPGSA,A,3,,06,07,10,13,16,19,21,23,30,31,,1.5,0.9,1.1*31
MSG 0 49376.974 $GPGSV,3,3,11,23,57,239,51,30,40,061,45,31,12,113,41*40
MSG 0 49377.092 $PGRME,4.5,M,6.1,M,7.6,M*29
MSG 0 49377.153 $PGRMB,0.0,200,,,,K,,N,N*31
MSG 0 49377.213 $PGRMM,WGS 84*06
MSG 0 49377.560 $GPRMC,174418,A,4302.6079,N,07038.0682,W,000.7,158.8,030712,016.1,W*76
POS 0 49458.000 366869.724 4766937.809
QUA 0 49458.000 7 9.100 0.900 10.000 1.000 0.000 0.000 0.000
RAW 0 49458.000 4 430260.79000 -703806.82000 -23.10000 174418.00000
MSG 0 49377.710 $GPGGA,174418,4302.6079,N,07038.0682,W,1,10,0.9,9.3,M,-32.4,M,,*78
MSG 0 49377.852 $GPGSA,A,3,,06,07,10,13,16,19,21,23,30,31,,1.5,0.9,1.1*31
MSG 0 49377.974 $GPGSV,3,1,11,03,62,167,33,06,65,124,49,07,22,303,46,10,06,306,40*70
MSG 0 49378.120 $PGRME,4.5,M,6.0,M,7.5,M*2B
MSG 0 49378.181 $PGRMB,0.0,200,,,,K,,N,N*31
MSG 0 49378.241 $PGRMM,WGS 84*06
MSG 0 49378.562 $GPRMC,174419,A,4302.6078,N,07038.0681,W,000.5,140.8,030712,016.1,W*7E
POS 0 49459.000 366869.856 4766937.621
QUA 0 49459.000 7 9.100 0.900 10.000 1.000 0.000 0.000 0.000
RAW 0 49459.000 4 430260.78000 -703806.81000 -23.00000 174419.00000
MSG 0 49378.712 $GPGGA,174419,4302.6078,N,07038.0681,W,1,10,0.9,9.4,M,-32.4,M,,*7C
MSG 0 49378.854 $GPGSA,A,3,,06,07,10,13,16,19,21,23,30,31,,1.4,0.9,1.1*30
MSG 0 49378.977 $GPGSV,3,2,11,13,48,297,50,16,68,035,46,19,28,185,46,21,11,061,38*71
MSG 0 49379.122 $PGRME,4.5,M,6.0,M,7.5,M*2B
MSG 0 49379.183 $PGRMB,0.0,200,,,,K,,N,N*31
MSG 0 49379.243 $PGRMM,WGS 84*06
MSG 0 49379.558 $GPRMC,174420,A,4302.6075,N,07038.0680,W,000.8,156.8,030712,016.1,W*72
POS 0 49460.000 366869.981 4766937.063
QUA 0 49460.000 7 9.100 0.900 10.000 1.000 0.000 0.000 0.000
RAW 0 49460.000 4 430260.75000 -703806.80000 -22.80000 174420.00000
MSG 0 49379.708 $GPGGA,174420,4302.6075,N,07038.0680,W,1,10,0.9,9.6,M,-32.4,M,,*78
MSG 0 49379.849 $GPGSA,A,3,,06,07,10,13,16,19,21,23,30,31,,1.4,0.9,1.1*30
MSG 0 49379.972 $GPGSV,3,3,11,23,57,239,51,30,40,061,44,31,12,113,41*41
MSG 0 49380.091 $PGRME,4.5,M,6.0,M,7.5,M*2B
MSG 0 49380.151 $PGRMB,0.0,200,,,,K,,N,N*31
MSG 0 49380.212 $PGRMM,WGS 84*06
MSG 0 49380.564 $GPRMC,174421,A,4302.6074,N,07038.0681,W,000.5,174.8,030712,016.1,W*7E
POS 0 49461.000 366869.842 4766936.881
QUA 0 49461.000 7 9.100 0.900 10.000 1.000 0.000 0.000 0.000
RAW 0 49461.000 4 430260.74000 -703806.81000 -22.80000 174421.00000
MSG 0 49380.714 $GPGGA,174421,4302.6074,N,07038.0681,W,1,10,0.9,9.6,M,-32.4,M,,*79
MSG 0 49380.855 $GPGSA,A,3,,06,07,10,13,16,19,21,23,30,31,,1.4,0.9,1.1*30
MSG 0 49380.978 $GPGSV,3,1,11,03,62,167,33,06,65,124,49,07,22,303,46,10,06,306,38*7F
MSG 0 49381.124 $PGRME,4.5,M,6.0,M,7.5,M*2B
MSG 0 49381.184 $PGRMB,0.0,200,,,,K,,N,N*31
MSG 0 49381.245 $PGRMM,WGS 84*06
MSG 0 49381.559 $GPRMC,174422,A,4302.6073,N,07038.0679,W,000.6,153.3,030712,016.1,W*70
POS 0 49462.000 366870.109 4766936.690
QUA 0 49462.000 7 9.100 0.900 10.000 1.000 0.000 0.000 0.000
RAW 0 49462.000 4 430260.73000 -703806.79000 -22.80000 174422.00000
MSG 0 49381.709 $GPGGA,174422,4302.6073,N,07038.0679,W,1,10,0.9,9.6,M,-32.4,M,,*7A
MSG 0 49381.851 $GPGSA,A,3,,06,07,10,13,16,19,21,23,30,31,,1.4,0.9,1.1*30
MSG 0 49381.974 $GPGSV,3,2,11,13,48,297,50,16,68,035,46,19,28,185,47,21,11,061,37*7F
MSG 0 49382.119 $PGRME,4.5,M,6.0,M,7.5,M*2B
MSG 0 49382.180 $PGRMB,0.0,200,,,,K,,N,N*31
MSG 0 49382.240 $PGRMM,WGS 84*06
MSG 0 49382.570 $GPRMC,174423,A,4302.6072,N,07038.0679,W,000.4,167.7,030712,016.1,W*71
POS 0 49463.000 366870.106 4766936.505
QUA 0 49463.000 7 9.100 0.900 10.000 1.000 0.000 0.000 0.000
RAW 0 49463.000 4 430260.72000 -703806.79000 -22.90000 174423.00000
MSG 0 49382.720 $GPGGA,174423,4302.6072,N,07038.0679,W,1,10,0.9,9.5,M,-32.4,M,,*79
MSG 0 49382.861 $GPGSA,A,3,,06,07,10,13,16,19,21,23,30,31,,1.4,0.9,1.1*30
MSG 0 49382.984 $GPGSV,3,3,11,23,57,239,51,30,40,061,44,31,12,113,42*42
MSG 0 49383.103 $PGRME,4.5,M,6.0,M,7.5,M*2B
MSG 0 49383.163 $PGRMB,0.0,200,,,,K,,N,N*31
MSG 0 49383.224 $PGRMM,WGS 84*06
MSG 0 49383.570 $GPRMC,174424,A,4302.6069,N,07038.0679,W,000.6,177.9,030712,016.1,W*71
POS 0 49464.000 366870.095 4766935.950
QUA 0 49464.000 7 9.100 0.900 10.000 1.000 0.000 0.000 0.000
RAW 0 49464.000 4 430260.69000 -703806.79000 -22.90000 174424.00000
MSG 0 49383.720 $GPGGA,174424,4302.6069,N,07038.0679,W,1,10,0.9,9.5,M,-32.4,M,,*74
MSG 0 49383.862 $GPGSA,A,3,,06,07,10,13,16,19,21,23,30,31,,1.4,0.9,1.1*30
MSG 0 49383.985 $GPGSV,3,1,11,03,62,167,33,06,65,124,49,07,22,303,45,10,06,306,40*73
MSG 0 49384.131 $PGRME,4.5,M,6.0,M,7.5,M*2B
MSG 0 49384.191 $PGRMB,0.0,200,,,,K,,N,N*31
MSG 0 49384.251 $PGRMM,WGS 84*06
MSG 0 49384.559 $GPRMC,174425,A,4302.6068,N,07038.0678,W,000.6,160.6,030712,016.1,W*79
POS 0 49465.000 366870.227 4766935.762
QUA 0 49465.000 7 9.100 0.900 10.000 1.000 0.000 0.000 0.000
RAW 0 49465.000 4 430260.68000 -703806.78000 -23.00000 174425.00000
MSG 0 49384.709 $GPGGA,174425,4302.6068,N,07038.0678,W,1,10,0.9,9.4,M,-32.4,M,,*74
MSG 0 49384.850 $GPGSA,A,3,,06,07,10,13,16,19,21,23,30,31,,1.4,0.9,1.1*30
MSG 0 49384.973 $GPGSV,3,2,11,13,48,297,50,16,68,035,46,19,28,185,48,21,11,061,37*70
MSG 0 49385.119 $PGRME,4.5,M,6.0,M,7.5,M*2B
MSG 0 49385.179 $PGRMB,0.0,200,,,,K,,N,N*31
MSG 0 49385.240 $PGRMM,WGS 84*06
MSG 0 49385.559 $GPRMC,174426,A,4302.6067,N,07038.0676,W,000.5,135.4,030712,016.1,W*7A
POS 0 49466.000 366870.495 4766935.572
QUA 0 49466.000 7 9.100 0.900 10.000 1.000 0.000 0.000 0.000
RAW 0 49466.000 4 430260.67000 -703806.76000 -23.00000 174426.00000
MSG 0 49385.709 $GPGGA,174426,4302.6067,N,07038.0676,W,1,10,0.9,9.4,M,-32.4,M,,*76
MSG 0 49385.850 $GPGSA,A,3,,06,07,10,13,16,19,21,23,30,31,,1.4,0.9,1.1*30
MSG 0 49385.973 $GPGSV,3,3,11,23,57,239,51,30,40,061,44,31,12,113,43*43
MSG 0 49386.092 $PGRME,4.5,M,6.0,M,7.5,M*2B
MSG 0 49386.152 $PGRMB,0.0,200,,,,K,,N,N*31
MSG 0 49386.213 $PGRMM,WGS 84*06
MSG 0 49386.566 $GPRMC,174427,A,4302.6066,N,07038.0675,W,000.6,155.2,030712,016.1,W*7A
POS 0 49467.000 366870.627 4766935.384
QUA 0 49467.000 7 9.100 0.900 10.000 1.000 0.000 0.000 0.000
RAW 0 49467.000 4 430260.66000 -703806.75000 -22.80000 174427.00000
MSG 0 49386.716 $GPGGA,174427,4302.6066,N,07038.0675,W,1,10,0.9,9.6,M,-32.4,M,,*77
MSG 0 49386.857 $GPGSA,A,3,,06,07,10,13,16,19,21,23,30,31,,1.4,0.9,1.1*30
MSG 0 49386.980 $GPGSV,3,1,11,03,62,167,33,06,65,124,49,07,22,303,46,10,06,305,41*72
MSG 0 49387.126 $PGRME,4.5,M,6.0,M,7.5,M*2B
MSG 0 49387.186 $PGRMB,0.0,200,,,,K,,N,N*31
MSG 0 49387.247 $PGRMM,WGS 84*06
MSG 0 49387.564 $GPRMC,174428,A,4302.6064,N,07038.0676,W,000.6,182.0,030712,016.1,W*7C
POS 0 49468.000 366870.484 4766935.017
QUA 0 49468.000 7 9.100 0.900 10.000 1.000 0.000 0.000 0.000
RAW 0 49468.000 4 430260.64000 -703806.76000 -22.90000 174428.00000
MSG 0 49387.714 $GPGGA,174428,4302.6064,N,07038.0676,W,1,10,0.9,9.5,M,-32.4,M,,*7A
MSG 0 49387.856 $GPGSA,A,3,,06,07,10,13,16,19,21,23,30,31,,1.4,0.9,1.1*30
MSG 0 49387.978 $GPGSV,3,2,11,13,48,297,50,16,68,035,46,19,28,185,48,21,11,061,37*70
MSG 0 49388.124 $PGRME,4.5,M,6.0,M,7.5,M*2B
MSG 0 49388.185 $PGRMB,0.0,200,,,,K,,N,N*31
MSG 0 49388.245 $PGRMM,WGS 84*06
MSG 0 49388.559 $GPRMC,174429,A,4302.6063,N,07038.0675,W,000.4,149.1,030712,016.1,W*7D
POS 0 49469.000 366870.616 4766934.829
QUA 0 49469.000 7 9.100 0.900 10.000 1.000 0.000 0.000 0.000
RAW 0 49469.000 4 430260.63000 -703806.75000 -22.80000 174429.00000
MSG 0 49388.709 $GPGGA,174429,4302.6063,N,07038.0675,W,1,10,0.9,9.6,M,-32.4,M,,*7C
MSG 0 49388.850 $GPGSA,A,3,,06,07,10,13,16,19,21,23,30,31,,1.4,0.9,1.1*30
MSG 0 49388.973 $GPGSV,3,3,11,23,57,239,51,30,40,061,45,31,12,113,43*42
MSG 0 49389.092 $PGRME,4.5,M,6.0,M,7.5,M*2B
MSG 0 49389.152 $PGRMB,0.0,200,,,,K,,N,N*31
MSG 0 49389.213 $PGRMM,WGS 84*06
MSG 0 49389.571 $GPRMC,174430,A,4302.6062,N,07038.0673,W,000.6,145.0,030712,016.1,W*7D
POS 0 49470.000 366870.884 4766934.639
QUA 0 49470.000 7 9.100 0.900 10.000 1.000 0.000 0.000 0.000
RAW 0 49470.000 4 430260.62000 -703806.73000 -22.90000 174430.00000
MSG 0 49389.721 $GPGGA,174430,4302.6062,N,07038.0673,W,1,10,0.9,9.5,M,-32.4,M,,*70
MSG 0 49389.863 $GPGSA,A,3,,06,07,10,13,16,19,21,23,30,31,,1.4,0.9,1.1*30
MSG 0 49389.986 $GPGSV,3,1,11,03,62,167,33,06,65,124,49,07,22,303,46,10,06,305,42*71
MSG 0 49390.131 $PGRME,4.5,M,6.1,M,7.6,M*29
MSG 0 49390.192 $PGRMB,0.0,200,,,,K,,N,N*31
MSG 0 49390.252 $PGRMM,WGS 84*06
MSG 0 49390.570 $GPRMC,174431,A,4302.6060,N,07038.0675,W,000.7,186.4,030712,016.1,W*72
POS 0 49471.000 366870.606 4766934.274
QUA 0 49471.000 7 9.100 0.900 10.000 1.000 0.000 0.000 0.000
RAW 0 49471.000 4 430260.60000 -703806.75000 -23.20000 174431.00000
MSG 0 49390.720 $GPGGA,174431,4302.6060,N,07038.0675,W,1,10,0.9,9.2,M,-32.4,M,,*72
MSG 0 49390.861 $GPGSA,A,3,,06,07,10,13,16,19,21,23,30,31,,1.4,0.9,1.1*30
MSG 0 49390.984 $GPGSV,3,2,11,13,48,297,51,16,68,035,46,19,28,185,48,21,11,061,38*7E
MSG 0 49391.130 $PGRME,4.5,M,6.1,M,7.5,M*2A
MSG 0 49391.190 $PGRMB,0.0,200,,,,K,,N,N*31
MSG 0 49391.250 $PGRMM,WGS 84*06
MSG 0 49391.570 $GPRMC,174432,A,4302.6059,N,07038.0672,W,000.5,141.6,030712,016.1,W*77
POS 0 49472.000 366871.009 4766934.081
QUA 0 49472.000 7 9.100 0.900 10.000 1.000 0.000 0.000 0.000
RAW 0 49472.000 4 430260.59000 -703806.72000 -23.10000 174432.00000
MSG 0 49391.720 $GPGGA,174432,4302.6059,N,07038.0672,W,1,10,0.9,9.3,M,-32.4,M,,*7D
MSG 0 49391.861 $GPGSA,A,3,,06,07,10,13,16,19,21,23,30,31,,1.4,0.9,1.1*30
MSG 0 49391.984 $GPGSV,3,3,11,23,57,239,51,30,40,061,46,31,12,113,43*41
MSG 0 49392.103 $PGRME,4.5,M,6.1,M,7.5,M*2A
MSG 0 49392.163 $PGRMB,0.0,200,,,,K,,N,N*31
MSG 0 49392.224 $PGRMM,WGS 84*06
MSG 0 49392.570 $GPRMC,174433,A,4302.6058,N,07038.0670,W,000.6,133.3,030712,016.1,W*76
POS 0 49473.000 366871.277 4766933.890
QUA 0 49473.000 7 9.100 0.900 10.000 1.000 0.000 0.000 0.000
RAW 0 49473.000 4 430260.58000 -703806.70000 -22.90000 174433.00000
MSG 0 49392.720 $GPGGA,174433,4302.6058,N,07038.0670,W,1,10,0.9,9.5,M,-32.4,M,,*79
MSG 0 49392.861 $GPGSA,A,3,,06,07,10,13,16,19,21,23,30,31,,1.4,0.9,1.1*30
MSG 0 49392.984 $GPGSV,3,1,11,03,62,167,00,06,65,124,49,07,22,303,47,10,06,305,41*73
MSG 0 49393.130 $PGRME,4.5,M,6.1,M,7.5,M*2A
MSG 0 49393.190 $PGRMB,0.0,200,,,,K,,N,N*31
MSG 0 49393.250 $PGRMM,WGS 84*06
MSG 0 49393.558 $GPRMC,174434,A,4302.6056,N,07038.0671,W,000.7,179.2,030712,016.1,W*70
POS 0 49474.000 366871.134 4766933.523
QUA 0 49474.000 7 9.100 0.900 10.000 1.000 0.000 0.000 0.000
RAW 0 49474.000 4 430260.56000 -703806.71000 -23.10000 174434.00000
MSG 0 49393.708 $GPGGA,174434,4302.6056,N,07038.0671,W,1,10,0.9,9.3,M,-32.4,M,,*77
MSG 0 49393.850 $GPGSA,A,3,,06,07,10,13,16,19,21,23,30,31,,1.4,0.9,1.1*30
MSG 0 49393.973 $GPGSV,3,2,11,13,48,297,51,16,68,035,46,19,28,185,48,21,11,061,40*71
MSG 0 49394.119 $PGRME,4.5,M,6.1,M,7.5,M*2A
MSG 0 49394.179 $PGRMT,GPS 17-HVS Ver. 2.80,P,P,R,R,P,,37,R*0F
MSG 0 49394.279 $PGRMB,0.0,200,,,,K,,N,N*31
MSG 0 49394.339 $PGRMM,WGS 84*06
MSG 0 49394.560 $GPRMC,174435,A,4302.6055,N,07038.0670,W,000.4,154.9,030712,016.1,W*74
POS 0 49475.000 366871.266 4766933.335
QUA 0 49475.000 7 9.100 0.900 10.000 1.000 0.000 0.000 0.000
RAW 0 49475.000 4 430260.55000 -703806.70000 -23.00000 174435.00000
MSG 0 49394.710 $GPGGA,174435,4302.6055,N,07038.0670,W,1,10,0.9,9.4,M,-32.4,M,,*73
MSG 0 49394.852 $GPGSA,A,3,,06,07,10,13,16,19,21,23,30,31,,1.4,0.9,1.1*30
MSG 0 49394.974 $GPGSV,3,3,11,23,57,239,51,30,40,061,47,31,12,113,42*41
MSG 0 49395.093 $PGRME,4.5,M,6.1,M,7.5,M*2A
MSG 0 49395.154 $PGRMB,0.0,200,,,,K,,N,N*31
MSG 0 49395.214 $PGRMM,WGS 84*06
MSG 0 49395.559 $GPRMC,174436,A,4302.6053,N,07038.0669,W,000.5,163.6,030712,016.1,W*73
POS 0 49476.000 366871.395 4766932.962
QUA 0 49476.000 7 9.100 0.900 10.000 1.000 0.000 0.000 0.000
RAW 0 49476.000 4 430260.53000 -703806.69000 -22.90000 174436.00000
MSG 0 49395.709 $GPGGA,174436,4302.6053,N,07038.0669,W,1,10,0.9,9.5,M,-32.4,M,,*7F
MSG 0 49395.850 $GPGSA,A,3,,06,07,10,13,16,19,21,23,30,31,,1.4,0.9,1.1*30
MSG 0 49395.973 $GPGSV,3,1,11,03,62,167,00,06,65,124,48,07,22,303,47,10,06,305,41*72
MSG 0 49396.119 $PGRME,4.5,M,6.1,M,7.5,M*2A
MSG 0 49396.179 $PGRMB,0.0,200,,,,K,,N,N*31
MSG 0 49396.240 $PGRMM,WGS 84*06
MSG 0 49396.559 $GPRMC,174437,A,4302.6053,N,07038.0670,W,000.3,183.3,030712,016.1,W*77
POS 0 49477.000 366871.259 4766932.965
QUA 0 49477.000 7 9.100 0.900 10.000 1.000 0.000 0.000 0.000
RAW 0 49477.000 4 430260.53000 -703806.70000 -22.90000 174437.00000
MSG 0 49396.708 $GPGGA,174437,4302.6053,N,07038.0670,W,1,10,0.9,9.5,M,-32.4,M,,*76
MSG 0 49396.850 $GPGSA,A,3,,06,07,10,13,16,19,21,23,30,31,,1.4,0.9,1.1*30
MSG 0 49396.973 $GPGSV,3,2,11,13,48,296,51,16,68,035,46,19,28,185,48,21,11,061,40*70
MSG 0 49397.119 $PGRME,4.5,M,6.1,M,7.5,M*2A
MSG 0 49397.179 $PGRMB,0.0,200,,,,K,,N,N*31
MSG 0 49397.239 $PGRMM,WGS 84*06
MSG 0 49397.559 $GPRMC,174438,A,4302.6051,N,07038.0669,W,000.5,169.0,030712,016.1,W*73
POS 0 49478.000 366871.388 4766932.592
QUA 0 49478.000 7 9.100 0.900 10.000 1.000 0.000 0.000 0.000
RAW 0 49478.000 4 430260.51000 -703806.69000 -23.20000 174438.00000
MSG 0 49397.709 $GPGGA,174438,4302.6051,N,07038.0669,W,1,10,0.9,9.2,M,-32.4,M,,*74
MSG 0 49397.851 $GPGSA,A,3,,06,07,10,13,16,19,21,23,30,31,,1.4,0.9,1.1*30
MSG 0 49397.974 $GPGSV,3,3,11,23,57,239,50,30,40,061,47,31,12,113,42*40
MSG 0 49398.092 $PGRME,4.5,M,6.1,M,7.5,M*2A
MSG 0 49398.153 $PGRMB,0.0,200,,,,K,,N,N*31
MSG 0 49398.213 $PGRMM,WGS 84*06
MSG 0 49398.569 $GPRMC,174439,A,4302.6050,N,07038.0668,W,000.4,157.9,030712,016.1,W*77
POS 0 49479.000 366871.520 4766932.404
QUA 0 49479.000 7 9.100 0.900 10.000 1.000 0.000 0.000 0.000
RAW 0 49479.000 4 430260.50000 -703806.68000 -23.40000 174439.00000
MSG 0 49398.719 $GPGGA,174439,4302.6050,N,07038.0668,W,1,10,0.9,9.0,M,-32.4,M,,*77
MSG 0 49398.861 $GPGSA,A,3,,06,07,10,13,16,19,21,23,30,31,,1.4,0.9,1.1*30
MSG 0 49398.984 $GPGSV,3,1,11,03,62,167,32,06,65,124,48,07,22,303,46,10,06,305,40*73
MSG 0 49399.129 $PGRME,4.5,M,6.1,M,7.5,M*2A
MSG 0 49399.190 $PGRMB,0.0,200,,,,K,,N,N*31
MSG 0 49399.250 $PGRMM,WGS 84*06
MSG 0 49399.567 $GPRMC,174440,A,4302.6049,N,07038.0665,W,000.7,129.9,030712,016.1,W*76
POS 0 49480.000 366871.923 4766932.211
QUA 0 49480.000 7 9.100 0.900 10.000 1.000 0.000 0.000 0.000
RAW 0 49480.000 4 430260.49000 -703806.65000 -23.20000 174440.00000
MSG 0 49399.717 $GPGGA,174440,4302.6049,N,07038.0665,W,1,10,0.9,9.2,M,-32.4,M,,*7E
MSG 0 49399.858 $GPGSA,A,3,,06,07,10,13,16,19,21,23,30,31,,1.4,0.9,1.1*30
MSG 0 49399.981 $GPGSV,3,2,11,13,48,296,51,16,68,035,46,19,28,185,47,21,11,061,41*7E
MSG 0 49400.127 $PGRME,4.5,M,6.1,M,7.5,M*2A
MSG 0 49400.187 $PGRMB,0.0,200,,,,K,,N,N*31
MSG 0 49400.248 $PGRMM,WGS 84*06
MSG 0 49400.557 $GPRMC,174441,A,4302.6047,N,07038.0665,W,000.6,159.9,030712,016.1,W*7F
POS 0 49481.000 366871.916 4766931.841
QUA 0 49481.000 7 9.100 0.900 10.000 1.000 0.000 0.000 0.000
RAW 0 49481.000 4 430260.47000 -703806.65000 -23.20000 174441.00000
MSG 0 49400.707 $GPGGA,174441,4302.6047,N,07038.0665,W,1,10,0.9,9.2,M,-32.4,M,,*71
MSG 0 49400.848 $GPGSA,A,3,,06,07,10,13,16,19,21,23,30,31,,1.4,0.9,1.1*30
MSG 0 49400.971 $GPGSV,3,3,11,23,57,239,50,30,40,061,46,31,12,113,42*41
MSG 0 49401.090 $PGRME,4.5,M,6.1,M,7.5,M*2A
MSG 0 49401.150 $PGRMB,0.0,200,,,,K,,N,N*31
MSG 0 49401.211 $PGRMM,WGS 84*06
MSG 0 49401.559 $GPRMC,174442,A,4302.6045,N,07038.0666,W,000.5,184.5,030712,016.1,W*72
POS 0 49482.000 366871.773 4766931.474
QUA 0 49482.000 7 9.100 0.900 10.000 1.000 0.000 0.000 0.000
RAW 0 49482.000 4 430260.45000 -703806.66000 -23.10000 174442.00000
MSG 0 49401.709 $GPGGA,174442,4302.6045,N,07038.0666,W,1,10,0.9,9.3,M,-32.4,M,,*72
MSG 0 49401.850 $GPGSA,A,3,,06,07,10,13,16,19,21,23,30,31,,1.4,0.9,1.1*30
MSG 0 49401.973 $GPGSV,3,1,11,03,62,167,32,06,65,124,48,07,22,303,46,10,06,305,39*7D
MSG 0 49402.119 $PGRME,4.5,M,6.1,M,7.5,M*2A
MSG 0 49402.179 $PGRMB,0.0,200,,,,K,,N,N*31
MSG 0 49402.240 $PGRMM,WGS 84*06
MSG 0 49402.560 $GPRMC,174443,A,4302.6045,N,07038.0663,W,000.5,136.1,030712,016.1,W*7B
POS 0 49483.000 366872.181 4766931.466
QUA 0 49483.000 7 9.100 0.900 10.000 1.000 0.000 0.000 0.000
RAW 0 49483.000 4 430260.45000 -703806.63000 -22.90000 174443.00000
MSG 0 49402.710 $GPGGA,174443,4302.6045,N,07038.0663,W,1,10,0.9,9.5,M,-32.4,M,,*70
MSG 0 49402.851 $GPGSA,A,3,,06,07,10,13,16,19,21,23,30,31,,1.4,0.9,1.1*30
MSG 0 49402.974 $GPGSV,3,2,11,13,48,296,51,16,68,035,45,19,28,185,47,21,11,061,41*7D
MSG 0 49403.120 $PGRME,4.5,M,6.1,M,7.5,M*2A
MSG 0 49403.180 $PGRMB,0.0,200,,,,K,,N,N*31
MSG 0 49403.241 $PGRMM,WGS 84*06
MSG 0 49403.563 $GPRMC,174444,A,4302.6043,N,07038.0665,W,000.4,183.0,030712,016.1,W*72
POS 0 49484.000 366871.902 4766931.101
QUA 0 49484.000 7 9.100 0.900 10.000 1.000 0.000 0.000 0.000
RAW 0 49484.000 4 430260.43000 -703806.65000 -23.10000 174444.00000
MSG 0 49403.713 $GPGGA,174444,4302.6043,N,07038.0665,W,1,10,0.9,9.3,M,-32.4,M,,*71
MSG 0 49403.855 $GPGSA,A,3,,06,07,10,13,16,19,21,23,30,31,,1.4,0.9,1.1*30
MSG 0 49403.978 $GPGSV,3,3,11,23,57,239,50,30,40,061,47,31,12,113,44*46
MSG 0 49404.096 $PGRME,4.5,M,6.1,M,7.5,M*2A
MSG 0 49404.157 $PGRMB,0.0,200,,,,K,,N,N*31
MSG 0 49404.217 $PGRMM,WGS 84*06
MSG 0 49404.571 $GPRMC,174445,A,4302.6041,N,07038.0665,W,000.5,184.1,030712,016.1,W*76
POS 0 49485.000 366871.895 4766930.731
QUA 0 49485.000 7 9.100 0.900 10.000 1.000 0.000 0.000 0.000
RAW 0 49485.000 4 430260.41000 -703806.65000 -23.20000 174445.00000
MSG 0 49404.721 $GPGGA,174445,4302.6041,N,07038.0665,W,1,10,0.9,9.2,M,-32.4,M,,*73
MSG 0 49404.863 $GPGSA,A,3,,06,07,10,13,16,19,21,23,30,31,,1.4,0.9,1.1*30
MSG 0 49404.985 $GPGSV,3,1,11,03,62,167,32,06,65,124,48,07,22,303,45,10,06,305,38*7F
MSG 0 49405.131 $PGRME,4.5,M,6.1,M,7.5,M*2A
MSG 0 49405.192 $PGRMB,0.0,200,,,,K,,N,N*31
MSG 0 49405.252 $PGRMM,WGS 84*06
MSG 0 49405.566 $GPRMC,174446,A,4302.6041,N,07038.0662,W,000.5,116.9,030712,016.1,W*71
POS 0 49486.000 366872.302 4766930.723
QUA 0 49486.000 7 9.100 0.900 10.000 1.000 0.000 0.000 0.000
RAW 0 49486.000 4 430260.41000 -703806.62000 -22.90000 174446.00000
MSG 0 49405.716 $GPGGA,174446,4302.6041,N,07038.0662,W,1,10,0.9,9.5,M,-32.4,M,,*70
MSG 0 49405.857 $GPGSA,A,3,,06,07,10,13,16,19,21,23,30,31,,1.4,0.9,1.1*30
MSG 0 49405.980 $GPGSV,3,2,11,13,48,296,51,16,68,035,45,19,28,185,48,21,11,061,42*71
MSG 0 49406.126 $PGRME,4.5,M,6.1,M,7.5,M*2A
MSG 0 49406.186 $PGRMB,0.0,200,,,,K,,N,N*31
MSG 0 49406.247 $PGRMM,WGS 84*06
MSG 0 49406.559 $GPRMC,174447,A,4302.6039,N,07038.0662,W,000.5,168.1,030712,016.1,W*7E
POS 0 49487.000 366872.295 4766930.352
QUA 0 49487.000 7 9.100 0.900 10.000 1.000 0.000 0.000 0.000
RAW 0 49487.000 4 430260.39000 -703806.62000 -23.10000 174447.00000
MSG 0 49406.709 $GPGGA,174447,4302.6039,N,07038.0662,W,1,10,0.9,9.3,M,-32.4,M,,*78
MSG 0 49406.851 $GPGSA,A,3,,06,07,10,13,16,19,21,23,30,31,,1.4,0.9,1.1*30
MSG 0 49406.973 $GPGSV,3,3,11,23,57,239,50,30,40,061,47,31,12,113,44*46
MSG 0 49407.092 $PGRME,4.5,M,6.1,M,7.5,M*2A
MSG 0 49407.152 $PGRMB,0.0,200,,,,K,,N,N*31
MSG 0 49407.213 $PGRMM,WGS 84*06
MSG 0 49407.558 $GPRMC,174448,A,4302.6038,N,07038.0662,W,000.4,163.4,030712,016.1,W*7F
POS 0 49488.000 366872.291 4766930.167
QUA 0 49488.000 7 9.100 0.900 10.000 1.000 0.000 0.000 0.000
RAW 0 49488.000 4 430260.38000 -703806.62000 -23.00000 174448.00000
MSG 0 49407.708 $GPGGA,174448,4302.6038,N,07038.0662,W,1,10,0.9,9.4,M,-32.4,M,,*71
MSG 0 49407.850 $GPGSA,A,3,,06,07,10,13,16,19,21,23,30,31,,1.4,0.9,1.1*30
MSG 0 49407.973 $GPGSV,3,1,11,03,62,167,33,06,65,124,48,07,22,303,45,10,06,305,39*7F
MSG 0 49408.118 $PGRME,4.5,M,6.1,M,7.5,M*2A
MSG 0 49408.179 $PGRMB,0.0,200,,,,K,,N,N*31
MSG 0 49408.239 $PGRMM,WGS 84*06
MSG 0 49408.557 $GPRMC,174449,A,4302.6037,N,07038.0660,W,000.6,148.4,030712,016.1,W*78
POS 0 49489.000 366872.559 4766929.977
QUA 0 49489.000 7 9.100 0.900 10.000 1.000 0.000 0.000 0.000
RAW 0 49489.000 4 430260.37000 -703806.60000 -23.00000 174449.00000
MSG 0 49408.707 $GPGGA,174449,4302.6037,N,07038.0660,W,1,10,0.9,9.4,M,-32.4,M,,*7D
MSG 0 49408.848 $GPGSA,A,3,,06,07,10,13,16,19,21,23,30,31,,1.4,0.9,1.1*30
MSG 0 49408.971 $GPGSV,3,2,11,13,48,296,51,16,67,036,45,19,28,185,48,21,11,061,42*7D
MSG 0 49409.117 $PGRME,4.5,M,6.1,M,7.5,M*2A
MSG 0 49409.177 $PGRMB,0.0,200,,,,K,,N,N*31
MSG 0 49409.237 $PGRMM,WGS 84*06
MSG 0 49409.559 $GPRMC,174450,A,4302.6035,N,07038.0661,W,000.5,180.1,030712,016.1,W*71
POS 0 49490.000 366872.416 4766929.609
QUA 0 49490.000 7 9.100 0.900 10.000 1.000 0.000 0.000 0.000
RAW 0 49490.000 4 430260.35000 -703806.61000 -23.10000 174450.00000
MSG 0 49409.709 $GPGGA,174450,4302.6035,N,07038.0661,W,1,10,0.9,9.3,M,-32.4,M,,*71
MSG 0 49409.850 $GPGSA,A,3,,06,07,10,13,16,19,21,23,30,31,,1.4,0.9,1.1*30
MSG 0 49409.973 $GPGSV,3,3,11,23,57,239,49,30,40,061,47,31,12,113,43*49
MSG 0 49410.092 $PGRME,4.5,M,6.1,M,7.5,M*2A
MSG 0 49410.152 $PGRMB,0.0,200,,,,K,,N,N*31
MSG 0 49410.213 $PGRMM,WGS 84*06
MSG 0 49410.559 $GPRMC,174451,A,4302.6034,N,07038.0659,W,000.5,132.8,030712,016.1,W*7A
POS 0 49491.000 366872.684 4766929.419
QUA 0 49491.000 7 9.100 0.900 10.000 1.000 0.000 0.000 0.000
RAW 0 49491.000 4 430260.34000 -703806.59000 -22.90000 174451.00000
MSG 0 49410.709 $GPGGA,174451,4302.6034,N,07038.0659,W,1,10,0.9,9.5,M,-32.4,M,,*7C
MSG 0 49410.851 $GPGSA,A,3,,06,07,10,13,16,19,21,23,30,31,,1.4,0.9,1.1*30
MSG 0 49410.974 $GPGSV,3,1,11,03,62,167,33,06,65,124,48,07,22,303,45,10,06,305,39*7F
MSG 0 49411.119 $PGRME,4.5,M,6.1,M,7.5,M*2A
MSG 0 49411.180 $PGRMB,0.0,200,,,,K,,N,N*31
MSG 0 49411.240 $PGRMM,WGS 84*06
MSG 0 49411.559 $GPRMC,174452,A,4302.6032,N,07038.0660,W,000.5,177.8,030712,016.1,W*74
POS 0 49492.000 366872.541 4766929.052
QUA 0 49492.000 7 9.100 0.900 10.000 1.000 0.000 0.000 0.000
RAW 0 49492.000 4 430260.32000 -703806.60000 -23.00000 174452.00000
MSG 0 49411.709 $GPGGA,174452,4302.6032,N,07038.0660,W,1,10,0.9,9.4,M,-32.4,M,,*72
MSG 0 49411.850 $GPGSA,A,3,,06,07,10,13,16,19,21,23,30,31,,1.4,0.9,1.1*30
MSG 0 49411.973 $GPGSV,3,2,11,13,48,296,51,16,67,036,45,19,28,185,49,21,11,061,41*7F
MSG 0 49412.119 $PGRME,4.5,M,6.1,M,7.5,M*2A
MSG 0 49412.179 $PGRMB,0.0,200,,,,K,,N,N*31
MSG 0 49412.240 $PGRMM,WGS 84*06
MSG 0 49412.558 $GPRMC,174453,A,4302.6031,N,07038.0659,W,000.4,165.5,030712,016.1,W*73
POS 0 49493.000 366872.673 4766928.864
QUA 0 49493.000 7 9.100 0.900 10.000 1.000 0.000 0.000 0.000
RAW 0 49493.000 4 430260.31000 -703806.59000 -22.80000 174453.00000
MSG 0 49412.708 $GPGGA,174453,4302.6031,N,07038.0659,W,1,10,0.9,9.6,M,-32.4,M,,*78
MSG 0 49412.850 $GPGSA,A,3,,06,07,10,13,16,19,21,23,30,31,,1.4,0.9,1.1*30
MSG 0 49412.972 $GPGSV,3,3,11,23,57,239,49,30,40,061,47,31,12,113,43*49
MSG 0 49413.091 $PGRME,4.5,M,6.1,M,7.5,M*2A
MSG 0 49413.152 $PGRMB,0.0,200,,,,K,,N,N*31
MSG 0 49413.212 $PGRMM,WGS 84*06
MSG 0 49413.559 $GPRMC,174454,A,4302.6031,N,07038.0658,W,000.3,142.7,030712,016.1,W*75
POS 0 49494.000 366872.809 4766928.861
QUA 0 49494.000 7 9.100 0.900 10.000 1.000 0.000 0.000 0.000
RAW 0 49494.000 4 430260.31000 -703806.58000 -22.90000 174454.00000
MSG 0 49413.709 $GPGGA,174454,4302.6031,N,07038.0658,W,1,10,0.9,9.5,M,-32.4,M,,*7D
MSG 0 49413.850 $GPGSA,A,3,,06,07,10,13,16,19,21,23,30,31,,1.4,0.9,1.1*30
MSG 0 49413.973 $GPGSV,3,1,11,03,62,167,33,06,65,124,48,07,22,303,44,10,06,305,39*7E
MSG 0 49414.119 $PGRME,4.5,M,6.1,M,7.5,M*2A
MSG 0 49414.179 $PGRMB,0.0,200,,,,K,,N,N*31
MSG 0 49414.239 $PGRMM,WGS 84*06
MSG 0 49414.558 $GPRMC,174455,A,4302.6029,N,07038.0658,W,000.5,177.9,030712,016.1,W*73
POS 0 49495.000 366872.802 4766928.491
QUA 0 49495.000 7 9.100 0.900 10.000 1.000 0.000 0.000 0.000
RAW 0 49495.000 4 430260.29000 -703806.58000 -23.00000 174455.00000
MSG 0 49414.708 $GPGGA,174455,4302.6029,N,07038.0658,W,1,10,0.9,9.4,M,-32.4,M,,*74
MSG 0 49414.850 $GPGSA,A,3,,06,07,10,13,16,19,21,23,30,31,,1.4,0.9,1.1*30
MSG 0 49414.973 $GPGSV,3,2,11,13,48,296,50,16,67,036,46,19,28,185,49,21,11,061,40*7C
MSG 0 49415.118 $PGRME,4.5,M,6.1,M,7.5,M*2A
FIX 99 49415.215 109 366872.802 4766928.491
