FTP NEW 2
VER 11.0.6.21
INF "" "" "" "" 0.000 0.000 0.000
ELL WGS-84 6378137.000 298.257223563
PRO TME -69.000000 0.999600 0.000000 0.000000 0.000000 500000.0000 0.0000
DTM 0.00 0.00 0.00 0.00000 0.00000 0.00000 0.00000
GEO ??? 0.000
HVU 1.0000000000 1.0000000000
TND 10:30:12 07/03/2012 240
DEV 0 32869 "Garmin GPS" 49156 C:\HYPACK 2011\devices\GPS.dll 11.0.10.6
OFF 0 0.000 0.000 0.000 0.000 0.000 0.000 0.000
DDT 0 SYN 
DEV 1 0 "Disabled" 0 Odom CV3 MK3 Disabled Unknown
USR "NOAA Joint Hydrographic Center" "HYPACK Inc." 0x8 15681181
EOH 38085C81AAF412839614A79B164CABC556C4B693D7226AB63D54766D0F0A8F9A3F78CBBF1E33F4776598CCAD9FB243D1B6ECC20119FE6C8527DC321242E19436FB4581F77EF8F8B24A9BB892E0C3635B5289F9743D584722CB64CB2ADE4CB2E46284280DAD2F98C1856C46797C19D4942B4A8B2B53AD4C64B587C0C3652E82A7
MSG 0 37810.856 $GPRMC,143131,A,4303.0218,N,07038.7697,W,000.2,191.7,030712,016.1,W*72
POS 0 37891.000 365932.428 4767722.500
QUA 0 37891.000 7 9.100 0.900 9.000 1.000 0.000 0.000 0.000
RAW 0 37891.000 4 430302.18000 -703876.97000 -20.80000 143131.00000
MSG 0 37811.006 $GPGGA,143131,4303.0218,N,07038.7697,W,1,09,0.9,11.6,M,-32.4,M,,*47
MSG 0 37811.150 $GPGSA,A,3,,14,16,20,22,,25,29,30,31,32,,1.8,0.9,1.5*3A
MSG 0 37811.268 $GPGSV,3,2,11,22,05,172,40,23,05,307,37,25,33,048,48,29,22,086,45*7A
MSG 0 37811.414 $PGRME,4.4,M,7.5,M,8.7,M*23
MSG 0 37811.474 $PGRMB,0.0,200,,,,K,,N,N*31
MSG 0 37811.535 $PGRMM,WGS 84*06
MSG 0 37811.859 $GPRMC,143132,A,4303.0218,N,07038.7695,W,000.2,191.7,030712,016.1,W*73
POS 0 37892.000 365932.700 4767722.494
QUA 0 37892.000 7 9.100 0.900 9.000 1.000 0.000 0.000 0.000
RAW 0 37892.000 4 430302.18000 -703876.95000 -20.70000 143132.00000
MSG 0 37812.009 $GPGGA,143132,4303.0218,N,07038.7695,W,1,09,0.9,11.7,M,-32.4,M,,*47
MSG 0 37812.153 $GPGSA,A,3,,14,16,20,22,,25,29,30,31,32,,1.8,0.9,1.5*3A
MSG 0 37812.272 $GPGSV,3,3,11,30,48,205,47,31,74,005,50,32,47,277,48*4F
MSG 0 37812.390 $PGRME,4.4,M,7.5,M,8.7,M*23
MSG 0 37812.451 $PGRMB,0.0,200,,,,K,,N,N*31
MSG 0 37812.511 $PGRMM,WGS 84*06
FIX 99 37812.956 62 365932.700 4767722.494
MSG 0 37812.843 $GPRMC,143133,A,4303.0216,N,07038.7694,W,000.4,127.8,030712,016.1,W*79
POS 0 37893.000 365932.828 4767722.121
QUA 0 37893.000 7 9.100 0.900 9.000 1.000 0.000 0.000 0.000
RAW 0 37893.000 4 430302.16000 -703876.94000 -21.10000 143133.00000
MSG 0 37812.993 $GPGGA,143133,4303.0216,N,07038.7694,W,1,09,0.9,11.3,M,-32.4,M,,*4D
MSG 0 37813.137 $GPGSA,A,3,,14,16,20,22,,25,29,30,31,32,,1.8,0.9,1.5*3A
MSG 0 37813.256 $GPGSV,3,1,11,11,00,251,34,14,43,118,48,16,19,205,45,20,28,303,44*7D
MSG 0 37813.401 $PGRME,4.4,M,7.5,M,8.7,M*23
MSG 0 37813.462 $PGRMB,0.0,200,,,,K,,N,N*31
MSG 0 37813.522 $PGRMM,WGS 84*06
MSG 0 37813.844 $GPRMC,143134,A,4303.0216,N,07038.7696,W,000.2,218.7,030712,016.1,W*7A
POS 0 37894.000 365932.557 4767722.127
QUA 0 37894.000 7 9.100 0.900 9.000 1.000 0.000 0.000 0.000
RAW 0 37894.000 4 430302.16000 -703876.96000 -21.30000 143134.00000
MSG 0 37813.994 $GPGGA,143134,4303.0216,N,07038.7696,W,1,09,0.9,11.1,M,-32.4,M,,*4A
MSG 0 37814.138 $GPGSA,A,3,,14,16,20,22,,25,29,30,31,32,,1.8,0.9,1.5*3A
MSG 0 37814.257 $GPGSV,3,2,11,22,05,172,40,23,05,307,37,25,33,048,47,29,22,086,46*76
MSG 0 37814.403 $PGRME,4.4,M,7.5,M,8.7,M*23
MSG 0 37814.463 $PGRMT,GPS 17-HVS Ver. 2.80,P,P,R,R,P,,39,R*01
MSG 0 37814.563 $PGRMB,0.0,200,,,,K,,N,N*31
MSG 0 37814.623 $PGRMM,WGS 84*06
MSG 0 37814.855 $GPRMC,143135,A,4303.0216,N,07038.7693,W,000.3,091.4,030712,016.1,W*7F
POS 0 37895.000 365932.964 4767722.119
QUA 0 37895.000 7 9.100 0.900 9.000 1.000 0.000 0.000 0.000
RAW 0 37895.000 4 430302.16000 -703876.93000 -21.10000 143135.00000
MSG 0 37815.005 $GPGGA,143135,4303.0216,N,07038.7693,W,1,09,0.9,11.3,M,-32.4,M,,*4C
MSG 0 37815.149 $GPGSA,A,3,,14,16,20,22,,25,29,30,31,32,,1.8,0.9,1.5*3A
MSG 0 37815.267 $GPGSV,3,3,11,30,48,205,47,31,74,005,50,32,47,277,48*4F
MSG 0 37815.386 $PGRME,4.4,M,7.5,M,8.7,M*23
MSG 0 37815.446 $PGRMB,0.0,200,,,,K,,N,N*31
MSG 0 37815.507 $PGRMM,WGS 84*06
MSG 0 37815.843 $GPRMC,143136,A,4303.0214,N,07038.7690,W,000.7,129.1,030712,016.1,W*7E
FIX 99 37816.128 63 365932.964 4767722.119
