FTP NEW 2
VER 11.0.6.21
INF "" "" "" "" 0.000 0.000 0.000
ELL WGS-84 6378137.000 298.257223563
PRO TME -69.000000 0.999600 0.000000 0.000000 0.000000 500000.0000 0.0000
DTM 0.00 0.00 0.00 0.00000 0.00000 0.00000 0.00000
GEO ??? 0.000
HVU 1.0000000000 1.0000000000
TND 12:54:59 07/03/2012 240
DEV 0 32869 "Garmin GPS" 49156 C:\HYPACK 2011\devices\GPS.dll 11.0.10.6
OFF 0 0.000 0.000 0.000 0.000 0.000 0.000 0.000
DDT 0 SYN 
DEV 1 0 "Disabled" 0 Odom CV3 MK3 Disabled Unknown
USR "NOAA Joint Hydrographic Center" "HYPACK Inc." 0x8 15681181
EOH 0001FFFFFFFFFFFFFFFFFFFFFFFFFFFFFFFFFFFFFFFFFFFFFFFFFFFFFFFFFFFFFFFFFFFFFFFFFFFFFFFFFFFFFFFFFFFFFFFFFFFFFFFFFFFFFFFFFFFFFFFFFFFFFFFFFFFFFFFFFFFFFFFFFFFFFFFFFFFFFFFFFFFFFFFFFFFFFFFFFFFF003021300906052B0E03021A050004146E58154E2DF7C2A291E66DD56AF381E6A7A8EEDE
MSG 0 46497.083 $GPGSV,3,3,12,29,04,032,42,30,61,047,48,31,29,098,45,32,07,214,44*71
MSG 0 46497.228 $PGRME,4.7,M,5.3,M,7.1,M*2D
MSG 0 46497.289 $PGRMB,0.0,200,,,,K,,N,N*31
MSG 0 46497.349 $PGRMM,WGS 84*06
MSG 0 46497.679 $GPRMC,165618,A,4305.5868,N,07038.8525,W,000.7,126.0,030712,016.1,W*7F
POS 0 46578.000 365913.289 4772472.215
QUA 0 46578.000 7 9.200 0.800 11.000 1.000 0.000 0.000 0.000
RAW 0 46578.000 4 430558.68000 -703885.25000 -23.40000 165618.00000
MSG 0 46497.829 $GPGGA,165618,4305.5868,N,07038.8525,W,1,11,0.8,9.0,M,-32.4,M,,*73
MSG 0 46497.970 $GPGSA,A,3,,06,10,13,16,20,21,23,29,30,31,32,1.2,0.8,0.9*39
MSG 0 46498.097 $GPGSV,3,1,12,03,38,177,33,06,48,155,47,10,06,324,38,13,31,314,48*7A
MSG 0 46498.243 $PGRME,4.7,M,5.2,M,7.0,M*2D
MSG 0 46498.303 $PGRMB,0.0,200,,,,K,,N,N*31
MSG 0 46498.364 $PGRMM,WGS 84*06
MSG 0 46498.682 $GPRMC,165619,A,4305.5866,N,07038.8524,W,000.8,147.5,030712,016.1,W*7C
POS 0 46579.000 365913.417 4772471.843
QUA 0 46579.000 7 9.200 0.800 11.000 1.000 0.000 0.000 0.000
RAW 0 46579.000 4 430558.66000 -703885.24000 -23.70000 165619.00000
MSG 0 46498.832 $GPGGA,165619,4305.5866,N,07038.8524,W,1,11,0.8,8.7,M,-32.4,M,,*7B
MSG 0 46498.974 $GPGSA,A,3,,06,10,13,16,20,21,23,29,30,31,32,1.2,0.8,0.9*39
FIX 99 46499.315 94 365913.417 4772471.843
MSG 0 46499.101 $GPGSV,3,2,12,16,83,307,47,20,10,239,40,21,04,079,37,23,59,284,49*7C
MSG 0 46499.246 $PGRME,4.7,M,5.2,M,7.0,M*2D
MSG 0 46499.307 $PGRMB,0.0,200,,,,K,,N,N*31
MSG 0 46499.367 $PGRMM,WGS 84*06
MSG 0 46499.694 $GPRMC,165620,A,4305.5865,N,07038.8520,W,000.8,128.4,030712,016.1,W*79
POS 0 46580.000 365913.956 4772471.647
QUA 0 46580.000 7 9.200 0.800 11.000 1.000 0.000 0.000 0.000
RAW 0 46580.000 4 430558.65000 -703885.20000 -23.30000 165620.00000
MSG 0 46499.844 $GPGGA,165620,4305.5865,N,07038.8520,W,1,11,0.8,9.1,M,-32.4,M,,*71
MSG 0 46499.986 $GPGSA,A,3,,06,10,13,16,20,21,23,29,30,31,32,1.2,0.8,0.9*39
MSG 0 46500.113 $GPGSV,3,3,12,29,04,032,42,30,61,047,48,31,29,098,45,32,07,214,45*70
MSG 0 46500.259 $PGRME,4.7,M,5.2,M,7.0,M*2D
MSG 0 46500.319 $PGRMB,0.0,200,,,,K,,N,N*31
MSG 0 46500.379 $PGRMM,WGS 84*06
MSG 0 46500.669 $GPRMC,165621,A,4305.5864,N,07038.8520,W,000.6,137.5,030712,016.1,W*78
POS 0 46581.000 365913.953 4772471.462
QUA 0 46581.000 7 9.200 0.800 11.000 1.000 0.000 0.000 0.000
RAW 0 46581.000 4 430558.64000 -703885.20000 -23.00000 165621.00000
MSG 0 46500.819 $GPGGA,165621,4305.5864,N,07038.8520,W,1,11,0.8,9.4,M,-32.4,M,,*74
MSG 0 46500.960 $GPGSA,A,3,,06,10,13,16,20,21,23,29,30,31,32,1.2,0.8,0.9*39
MSG 0 46501.087 $GPGSV,3,1,12,03,38,177,33,06,48,155,47,10,06,324,38,13,31,314,48*7A
MSG 0 46501.233 $PGRME,4.7,M,5.2,M,7.0,M*2D
MSG 0 46501.294 $PGRMB,0.0,200,,,,K,,N,N*31
MSG 0 46501.354 $PGRMM,WGS 84*06
MSG 0 46501.672 $GPRMC,165622,A,4305.5862,N,07038.8519,W,000.6,148.2,030712,016.1,W*78
POS 0 46582.000 365914.081 4772471.089
QUA 0 46582.000 7 9.200 0.800 11.000 1.000 0.000 0.000 0.000
RAW 0 46582.000 4 430558.62000 -703885.19000 -23.00000 165622.00000
MSG 0 46501.822 $GPGGA,165622,4305.5862,N,07038.8519,W,1,11,0.8,9.4,M,-32.4,M,,*7B
MSG 0 46501.963 $GPGSA,A,3,,06,10,13,16,20,21,23,29,30,31,32,1.2,0.8,0.9*39
MSG 0 46502.090 $GPGSV,3,2,12,16,83,307,47,20,10,239,40,21,04,079,36,23,59,284,49*7D
MSG 0 46502.236 $PGRME,4.7,M,5.2,M,7.0,M*2D
MSG 0 46502.296 $PGRMB,0.0,200,,,,K,,N,N*31
MSG 0 46502.357 $PGRMM,WGS 84*06
MSG 0 46502.666 $GPRMC,165623,A,4305.5861,N,07038.8517,W,000.6,142.8,030712,016.1,W*74
POS 0 46583.000 365914.349 4772470.899
QUA 0 46583.000 7 9.200 0.800 11.000 1.000 0.000 0.000 0.000
RAW 0 46583.000 4 430558.61000 -703885.17000 -23.30000 165623.00000
MSG 0 46502.816 $GPGGA,165623,4305.5861,N,07038.8517,W,1,11,0.8,9.1,M,-32.4,M,,*72
MSG 0 46502.957 $GPGSA,A,3,,06,10,13,16,20,21,23,29,30,31,32,1.2,0.8,0.9*39
MSG 0 46503.084 $GPGSV,3,3,12,29,04,032,41,30,61,047,48,31,29,098,44,32,07,214,45*72
MSG 0 46503.230 $PGRME,4.7,M,5.3,M,7.1,M*2D
MSG 0 46503.290 $PGRMB,0.0,200,,,,K,,N,N*31
MSG 0 46503.351 $PGRMM,WGS 84*06
MSG 0 46503.665 $GPRMC,165624,A,4305.5858,N,07038.8515,W,000.8,141.8,030712,016.1,W*76
POS 0 46584.000 365914.609 4772470.338
QUA 0 46584.000 7 9.200 0.800 11.000 1.000 0.000 0.000 0.000
RAW 0 46584.000 4 430558.58000 -703885.15000 -23.60000 165624.00000
MSG 0 46503.815 $GPGGA,165624,4305.5858,N,07038.8515,W,1,11,0.8,8.8,M,-32.4,M,,*75
MSG 0 46503.957 $GPGSA,A,3,,06,10,13,16,20,21,23,29,30,31,32,1.2,0.8,0.9*39
MSG 0 46504.084 $GPGSV,3,1,12,03,38,177,33,06,48,155,46,10,06,324,39,13,31,314,48*7A
MSG 0 46504.229 $PGRME,4.7,M,5.2,M,7.0,M*2D
MSG 0 46504.290 $PGRMB,0.0,200,,,,K,,N,N*31
MSG 0 46504.350 $PGRMM,WGS 84*06
MSG 0 46504.666 $GPRMC,165625,A,4305.5857,N,07038.8512,W,000.9,132.9,030712,016.1,W*7B
POS 0 46585.000 365915.012 4772470.145
QUA 0 46585.000 7 9.200 0.800 11.000 1.000 0.000 0.000 0.000
RAW 0 46585.000 4 430558.57000 -703885.12000 -23.30000 165625.00000
MSG 0 46504.816 $GPGGA,165625,4305.5857,N,07038.8512,W,1,11,0.8,9.1,M,-32.4,M,,*74
MSG 0 46504.957 $GPGSA,A,3,,06,10,13,16,20,21,23,29,30,31,32,1.2,0.8,0.9*39
MSG 0 46505.084 $GPGSV,3,2,12,16,83,307,47,20,10,239,40,21,04,079,38,23,59,284,49*73
MSG 0 46505.230 $PGRME,4.7,M,5.2,M,7.0,M*2D
MSG 0 46505.290 $PGRMB,0.0,200,,,,K,,N,N*31
MSG 0 46505.351 $PGRMM,WGS 84*06
MSG 0 46505.669 $GPRMC,165626,A,4305.5854,N,07038.8510,W,000.9,146.7,030712,016.1,W*74
POS 0 46586.000 365915.273 4772469.584
QUA 0 46586.000 7 9.200 0.800 11.000 1.000 0.000 0.000 0.000
RAW 0 46586.000 4 430558.54000 -703885.10000 -23.00000 165626.00000
MSG 0 46505.819 $GPGGA,165626,4305.5854,N,07038.8510,W,1,11,0.8,9.4,M,-32.4,M,,*73
MSG 0 46505.961 $GPGSA,A,3,,06,10,13,16,20,21,23,29,30,31,32,1.2,0.8,0.9*39
MSG 0 46506.088 $GPGSV,3,3,12,29,04,032,41,30,61,047,48,31,29,098,44,32,07,214,44*73
MSG 0 46506.234 $PGRME,4.7,M,5.2,M,7.0,M*2D
MSG 0 46506.294 $PGRMB,0.0,200,,,,K,,N,N*31
MSG 0 46506.354 $PGRMM,WGS 84*06
MSG 0 46506.685 $GPRMC,165627,A,4305.5853,N,07038.8509,W,000.7,142.8,030712,016.1,W*7F
POS 0 46587.000 365915.405 4772469.396
QUA 0 46587.000 7 9.200 0.800 11.000 1.000 0.000 0.000 0.000
RAW 0 46587.000 4 430558.53000 -703885.09000 -22.80000 165627.00000
MSG 0 46506.835 $GPGGA,165627,4305.5853,N,07038.8509,W,1,11,0.8,9.6,M,-32.4,M,,*7F
MSG 0 46506.977 $GPGSA,A,3,,06,10,13,16,20,21,23,29,30,31,32,1.3,0.8,0.9*38
MSG 0 46507.104 $GPGSV,3,1,12,03,38,177,34,06,48,155,46,10,06,324,39,13,31,314,48*7D
MSG 0 46507.250 $PGRME,4.7,M,5.2,M,7.0,M*2D
MSG 0 46507.310 $PGRMB,0.0,200,,,,K,,N,N*31
MSG 0 46507.370 $PGRMM,WGS 84*06
MSG 0 46507.678 $GPRMC,165628,A,4305.5852,N,07038.8507,W,000.7,137.5,030712,016.1,W*70
POS 0 46588.000 365915.672 4772469.206
QUA 0 46588.000 7 9.200 0.800 11.000 1.000 0.000 0.000 0.000
RAW 0 46588.000 4 430558.52000 -703885.07000 -23.00000 165628.00000
MSG 0 46507.828 $GPGGA,165628,4305.5852,N,07038.8507,W,1,11,0.8,9.4,M,-32.4,M,,*7D
MSG 0 46507.970 $GPGSA,A,3,,06,10,13,16,20,21,23,29,30,31,32,1.3,0.8,0.9*38
MSG 0 46508.097 $GPGSV,3,2,12,16,83,307,47,20,10,239,40,21,04,079,36,23,59,284,49*7D
MSG 0 46508.242 $PGRME,4.7,M,5.3,M,7.1,M*2D
MSG 0 46508.303 $PGRMB,0.0,200,,,,K,,N,N*31
MSG 0 46508.363 $PGRMM,WGS 84*06
MSG 0 46508.697 $GPRMC,165629,A,4305.5850,N,07038.8507,W,000.7,153.0,030712,016.1,W*74
POS 0 46589.000 365915.665 4772468.836
QUA 0 46589.000 7 9.200 0.800 11.000 1.000 0.000 0.000 0.000
RAW 0 46589.000 4 430558.50000 -703885.07000 -23.10000 165629.00000
MSG 0 46508.847 $GPGGA,165629,4305.5850,N,07038.8507,W,1,11,0.8,9.3,M,-32.4,M,,*79
MSG 0 46508.988 $GPGSA,A,3,,06,10,13,16,20,21,23,29,30,31,32,1.3,0.8,0.9*38
MSG 0 46509.115 $GPGSV,3,3,12,29,04,032,40,30,61,047,47,31,29,098,44,32,07,214,45*7C
MSG 0 46509.261 $PGRME,4.7,M,5.3,M,7.1,M*2D
MSG 0 46509.321 $PGRMB,0.0,200,,,,K,,N,N*31
MSG 0 46509.382 $PGRMM,WGS 84*06
MSG 0 46509.679 $GPRMC,165630,A,4305.5848,N,07038.8505,W,000.8,149.3,030712,016.1,W*70
POS 0 46590.000 365915.929 4772468.460
QUA 0 46590.000 7 9.200 0.800 11.000 1.000 0.000 0.000 0.000
RAW 0 46590.000 4 430558.48000 -703885.05000 -23.00000 165630.00000
MSG 0 46509.829 $GPGGA,165630,4305.5848,N,07038.8505,W,1,11,0.8,9.4,M,-32.4,M,,*7D
MSG 0 46509.970 $GPGSA,A,3,,06,10,13,16,20,21,23,29,30,31,32,1.3,0.8,0.9*38
MSG 0 46510.097 $GPGSV,3,1,12,03,38,177,33,06,48,155,47,10,06,324,37,13,31,314,48*75
MSG 0 46510.243 $PGRME,4.7,M,5.3,M,7.1,M*2D
MSG 0 46510.304 $PGRMB,0.0,200,,,,K,,N,N*31
MSG 0 46510.364 $PGRMM,WGS 84*06
MSG 0 46510.666 $GPRMC,165631,A,4305.5846,N,07038.8503,W,000.8,144.9,030712,016.1,W*7E
POS 0 46591.000 365916.193 4772468.085
QUA 0 46591.000 7 9.200 0.800 11.000 1.000 0.000 0.000 0.000
RAW 0 46591.000 4 430558.46000 -703885.03000 -23.00000 165631.00000
MSG 0 46510.816 $GPGGA,165631,4305.5846,N,07038.8503,W,1,11,0.8,9.4,M,-32.4,M,,*74
MSG 0 46510.958 $GPGSA,A,3,,06,10,13,16,20,21,23,29,30,31,32,1.3,0.8,0.9*38
MSG 0 46511.085 $GPGSV,3,2,12,16,83,307,47,20,10,239,39,21,04,079,33,23,59,284,49*76
MSG 0 46511.230 $PGRME,4.7,M,5.3,M,7.1,M*2D
MSG 0 46511.291 $PGRMB,0.0,200,,,,K,,N,N*31
MSG 0 46511.351 $PGRMM,WGS 84*06
MSG 0 46511.669 $GPRMC,165632,A,4305.5845,N,07038.8502,W,000.7,146.0,030712,016.1,W*7B
POS 0 46592.000 365916.325 4772467.897
QUA 0 46592.000 7 9.200 0.800 11.000 1.000 0.000 0.000 0.000
RAW 0 46592.000 4 430558.45000 -703885.02000 -23.20000 165632.00000
MSG 0 46511.819 $GPGGA,165632,4305.5845,N,07038.8502,W,1,11,0.8,9.2,M,-32.4,M,,*73
MSG 0 46511.961 $GPGSA,A,3,,06,10,13,16,20,21,23,29,30,31,32,1.3,0.8,0.9*38
MSG 0 46512.088 $GPGSV,3,3,12,29,04,032,41,30,61,047,48,31,29,098,45,32,07,214,45*73
MSG 0 46512.234 $PGRME,4.7,M,5.3,M,7.1,M*2D
MSG 0 46512.294 $PGRMB,0.0,200,,,,K,,N,N*31
MSG 0 46512.354 $PGRMM,WGS 84*06
MSG 0 46512.666 $GPRMC,165633,A,4305.5843,N,07038.8500,W,000.8,144.8,030712,016.1,W*7B
POS 0 46593.000 365916.589 4772467.522
QUA 0 46593.000 7 9.200 0.800 11.000 1.000 0.000 0.000 0.000
RAW 0 46593.000 4 430558.43000 -703885.00000 -23.10000 165633.00000
MSG 0 46512.816 $GPGGA,165633,4305.5843,N,07038.8500,W,1,11,0.8,9.3,M,-32.4,M,,*77
MSG 0 46512.957 $GPGSA,A,3,,06,10,13,16,20,21,23,29,30,31,32,1.3,0.8,0.9*38
MSG 0 46513.084 $GPGSV,3,1,12,03,38,177,34,06,48,155,47,10,06,324,36,13,31,314,48*73
MSG 0 46513.230 $PGRME,4.7,M,5.3,M,7.1,M*2D
MSG 0 46513.291 $PGRMB,0.0,200,,,,K,,N,N*31
MSG 0 46513.351 $PGRMM,WGS 84*06
MSG 0 46513.666 $GPRMC,165634,A,4305.5841,N,07038.8499,W,000.8,158.8,030712,016.1,W*72
POS 0 46594.000 365916.718 4772467.149
QUA 0 46594.000 7 9.200 0.800 11.000 1.000 0.000 0.000 0.000
RAW 0 46594.000 4 430558.41000 -703884.99000 -23.00000 165634.00000
MSG 0 46513.816 $GPGGA,165634,4305.5841,N,07038.8499,W,1,11,0.8,9.4,M,-32.4,M,,*74
MSG 0 46513.958 $GPGSA,A,3,,06,10,13,16,20,21,23,29,30,31,32,1.3,0.8,0.9*38
MSG 0 46514.085 $GPGSV,3,2,12,16,83,307,47,20,10,239,39,21,04,079,33,23,59,284,49*76
MSG 0 46514.230 $PGRME,4.8,M,5.4,M,7.2,M*26
MSG 0 46514.291 $PGRMT,GPS 17-HVS Ver. 2.80,P,P,R,R,P,,40,R*0F
MSG 0 46514.391 $PGRMB,0.0,200,,,,K,,N,N*31
MSG 0 46514.451 $PGRMM,WGS 84*06
MSG 0 46514.689 $GPRMC,165635,A,4305.5839,N,07038.8497,W,000.8,141.4,030712,016.1,W*76
POS 0 46595.000 365916.982 4772466.773
QUA 0 46595.000 7 9.200 0.800 11.000 1.000 0.000 0.000 0.000
RAW 0 46595.000 4 430558.39000 -703884.97000 -22.90000 165635.00000
MSG 0 46514.839 $GPGGA,165635,4305.5839,N,07038.8497,W,1,11,0.8,9.5,M,-32.4,M,,*75
MSG 0 46514.980 $GPGSA,A,3,,06,10,13,16,20,21,23,29,30,31,32,1.3,0.8,0.9*38
MSG 0 46515.107 $GPGSV,3,3,12,29,04,032,42,30,61,047,48,31,29,098,46,32,07,214,45*73
MSG 0 46515.253 $PGRME,4.7,M,5.2,M,7.0,M*2D
MSG 0 46515.313 $PGRMB,0.0,200,,,,K,,N,N*31
MSG 0 46515.374 $PGRMM,WGS 84*06
MSG 0 46515.702 $GPRMC,165636,A,4305.5837,N,07038.8496,W,000.8,153.1,030712,016.1,W*7C
POS 0 46596.000 365917.110 4772466.400
QUA 0 46596.000 7 9.200 0.800 11.000 1.000 0.000 0.000 0.000
RAW 0 46596.000 4 430558.37000 -703884.96000 -23.10000 165636.00000
MSG 0 46515.852 $GPGGA,165636,4305.5837,N,07038.8496,W,1,11,0.8,9.3,M,-32.4,M,,*7F
MSG 0 46515.994 $GPGSA,A,3,,06,10,13,16,20,21,23,29,30,31,32,1.3,0.8,0.9*38
MSG 0 46516.121 $GPGSV,3,1,12,03,38,177,33,06,48,155,47,10,06,324,36,13,32,314,48*77
MSG 0 46516.266 $PGRME,4.7,M,5.2,M,7.0,M*2D
MSG 0 46516.327 $PGRMB,0.0,200,,,,K,,N,N*31
MSG 0 46516.387 $PGRMM,WGS 84*06
MSG 0 46516.680 $GPRMC,165637,A,4305.5835,N,07038.8493,W,001.0,143.2,030712,016.1,W*71
POS 0 46597.000 365917.510 4772466.022
QUA 0 46597.000 7 9.200 0.800 11.000 1.000 0.000 0.000 0.000
RAW 0 46597.000 4 430558.35000 -703884.93000 -23.30000 165637.00000
MSG 0 46516.830 $GPGGA,165637,4305.5835,N,07038.8493,W,1,11,0.8,9.1,M,-32.4,M,,*7B
MSG 0 46516.971 $GPGSA,A,3,,06,10,13,16,20,21,23,29,30,31,32,1.3,0.8,0.9*38
MSG 0 46517.098 $GPGSV,3,2,12,16,83,307,47,20,10,239,40,21,04,079,00,23,59,284,49*78
MSG 0 46517.244 $PGRME,4.7,M,5.2,M,7.0,M*2D
MSG 0 46517.305 $PGRMB,0.0,200,,,,K,,N,N*31
MSG 0 46517.365 $PGRMM,WGS 84*06
MSG 0 46517.680 $GPRMC,165638,A,4305.5833,N,07038.8491,W,000.9,144.6,030712,016.1,W*71
POS 0 46598.000 365917.774 4772465.647
QUA 0 46598.000 7 9.200 0.800 11.000 1.000 0.000 0.000 0.000
RAW 0 46598.000 4 430558.33000 -703884.91000 -23.30000 165638.00000
MSG 0 46517.830 $GPGGA,165638,4305.5833,N,07038.8491,W,1,11,0.8,9.1,M,-32.4,M,,*70
MSG 0 46517.971 $GPGSA,A,3,,06,10,13,16,20,21,23,29,30,31,32,1.3,0.8,0.9*38
MSG 0 46518.098 $GPGSV,3,3,12,29,04,032,43,30,61,047,48,31,29,098,46,32,07,214,44*73
MSG 0 46518.244 $PGRME,4.7,M,5.2,M,7.0,M*2D
MSG 0 46518.305 $PGRMB,0.0,200,,,,K,,N,N*31
MSG 0 46518.365 $PGRMM,WGS 84*06
MSG 0 46518.670 $GPRMC,165639,A,4305.5832,N,07038.8489,W,000.9,138.4,030712,016.1,W*71
POS 0 46599.000 365918.041 4772465.456
QUA 0 46599.000 7 9.200 0.800 11.000 1.000 0.000 0.000 0.000
RAW 0 46599.000 4 430558.32000 -703884.89000 -23.00000 165639.00000
MSG 0 46518.820 $GPGGA,165639,4305.5832,N,07038.8489,W,1,11,0.8,9.4,M,-32.4,M,,*7C
MSG 0 46518.961 $GPGSA,A,3,,06,10,13,16,20,21,23,29,30,31,32,1.3,0.8,0.9*38
MSG 0 46519.088 $GPGSV,3,1,12,03,38,177,33,06,48,155,48,10,06,324,35,13,32,314,47*74
MSG 0 46519.234 $PGRME,4.7,M,5.3,M,7.1,M*2D
MSG 0 46519.294 $PGRMB,0.0,200,,,,K,,N,N*31
MSG 0 46519.355 $PGRMM,WGS 84*06
MSG 0 46519.666 $GPRMC,165640,A,4305.5829,N,07038.8487,W,000.9,147.7,030712,016.1,W*70
POS 0 46600.000 365918.302 4772464.896
QUA 0 46600.000 7 9.200 0.800 11.000 1.000 0.000 0.000 0.000
RAW 0 46600.000 4 430558.29000 -703884.87000 -23.10000 165640.00000
MSG 0 46519.816 $GPGGA,165640,4305.5829,N,07038.8487,W,1,11,0.8,9.3,M,-32.4,M,,*71
MSG 0 46519.958 $GPGSA,A,3,,06,10,13,16,20,21,23,29,30,31,32,1.3,0.8,0.9*38
MSG 0 46520.085 $GPGSV,3,2,12,16,83,307,47,20,10,239,40,21,04,079,34,23,59,284,49*7F
MSG 0 46520.230 $PGRME,4.7,M,5.3,M,7.1,M*2D
MSG 0 46520.291 $PGRMB,0.0,200,,,,K,,N,N*31
MSG 0 46520.351 $PGRMM,WGS 84*06
MSG 0 46520.695 $GPRMC,165641,A,4305.5827,N,07038.8486,W,000.8,150.9,030712,016.1,W*77
POS 0 46601.000 365918.430 4772464.523
QUA 0 46601.000 7 9.200 0.800 11.000 1.000 0.000 0.000 0.000
RAW 0 46601.000 4 430558.27000 -703884.86000 -22.90000 165641.00000
MSG 0 46520.845 $GPGGA,165641,4305.5827,N,07038.8486,W,1,11,0.8,9.5,M,-32.4,M,,*79
MSG 0 46520.987 $GPGSA,A,3,,06,10,13,16,20,21,23,29,30,31,32,1.3,0.8,0.9*38
MSG 0 46521.114 $GPGSV,3,3,12,29,04,032,43,30,61,047,48,31,29,098,46,32,07,214,44*73
MSG 0 46521.259 $PGRME,4.7,M,5.2,M,7.0,M*2D
MSG 0 46521.320 $PGRMB,0.0,200,,,,K,,N,N*31
MSG 0 46521.380 $PGRMM,WGS 84*06
MSG 0 46521.675 $GPRMC,165642,A,4305.5827,N,07038.8484,W,000.6,144.0,030712,016.1,W*74
POS 0 46602.000 365918.701 4772464.518
QUA 0 46602.000 7 9.200 0.800 11.000 1.000 0.000 0.000 0.000
RAW 0 46602.000 4 430558.27000 -703884.84000 -22.70000 165642.00000
MSG 0 46521.825 $GPGGA,165642,4305.5827,N,07038.8484,W,1,11,0.8,9.7,M,-32.4,M,,*7A
MSG 0 46521.967 $GPGSA,A,3,,06,10,13,16,20,21,23,29,30,31,32,1.3,0.8,0.9*38
MSG 0 46522.094 $GPGSV,3,1,12,03,38,177,33,06,48,155,48,10,06,324,35,13,32,314,47*74
MSG 0 46522.239 $PGRME,4.7,M,5.3,M,7.1,M*2D
MSG 0 46522.300 $PGRMB,0.0,200,,,,K,,N,N*31
MSG 0 46522.360 $PGRMM,WGS 84*06
MSG 0 46522.679 $GPRMC,165643,A,4305.5824,N,07038.8483,W,000.9,154.9,030712,016.1,W*76
POS 0 46603.000 365918.826 4772463.960
QUA 0 46603.000 7 9.200 0.800 11.000 1.000 0.000 0.000 0.000
RAW 0 46603.000 4 430558.24000 -703884.83000 -23.00000 165643.00000
MSG 0 46522.829 $GPGGA,165643,4305.5824,N,07038.8483,W,1,11,0.8,9.4,M,-32.4,M,,*7C
MSG 0 46522.970 $GPGSA,A,3,,06,10,13,16,20,21,23,29,30,31,32,1.3,0.8,0.9*38
MSG 0 46523.097 $GPGSV,3,2,12,16,83,307,47,20,10,239,40,21,04,079,00,23,59,284,49*78
MSG 0 46523.243 $PGRME,4.7,M,5.3,M,7.1,M*2D
MSG 0 46523.303 $PGRMB,0.0,200,,,,K,,N,N*31
MSG 0 46523.364 $PGRMM,WGS 84*06
MSG 0 46523.664 $GPRMC,165644,A,4305.5822,N,07038.8481,W,000.8,151.0,030712,016.1,W*78
POS 0 46604.000 365919.090 4772463.584
QUA 0 46604.000 7 9.200 0.800 11.000 1.000 0.000 0.000 0.000
RAW 0 46604.000 4 430558.22000 -703884.81000 -23.10000 165644.00000
MSG 0 46523.814 $GPGGA,165644,4305.5822,N,07038.8481,W,1,11,0.8,9.3,M,-32.4,M,,*78
MSG 0 46523.955 $GPGSA,A,3,,06,10,13,16,20,21,23,29,30,31,32,1.3,0.8,0.9*38
MSG 0 46524.082 $GPGSV,3,3,12,29,04,032,41,30,61,047,48,31,29,098,47,32,07,214,44*70
MSG 0 46524.228 $PGRME,4.7,M,5.3,M,7.1,M*2D
MSG 0 46524.288 $PGRMB,0.0,200,,,,K,,N,N*31
MSG 0 46524.349 $PGRMM,WGS 84*06
MSG 0 46524.666 $GPRMC,165645,A,4305.5821,N,07038.8478,W,000.9,139.3,030712,016.1,W*70
POS 0 46605.000 365919.493 4772463.391
QUA 0 46605.000 7 9.100 0.900 11.000 1.000 0.000 0.000 0.000
RAW 0 46605.000 4 430558.21000 -703884.78000 -23.10000 165645.00000
MSG 0 46524.816 $GPGGA,165645,4305.5821,N,07038.8478,W,1,11,0.9,9.3,M,-32.4,M,,*7D
MSG 0 46524.957 $GPGSA,A,3,,06,10,13,16,20,21,23,29,30,31,32,1.3,0.9,1.0*31
MSG 0 46525.084 $GPGSV,3,1,12,03,38,177,33,06,48,155,49,10,06,324,39,13,32,314,48*76
MSG 0 46525.230 $PGRME,4.7,M,5.2,M,7.0,M*2D
MSG 0 46525.290 $PGRMB,0.0,200,,,,K,,N,N*31
MSG 0 46525.351 $PGRMM,WGS 84*06
MSG 0 46525.670 $GPRMC,165646,A,4305.5819,N,07038.8476,W,000.9,141.1,030712,016.1,W*7B
POS 0 46606.000 365919.757 4772463.015
QUA 0 46606.000 7 9.200 0.800 11.000 1.000 0.000 0.000 0.000
RAW 0 46606.000 4 430558.19000 -703884.76000 -23.00000 165646.00000
MSG 0 46525.820 $GPGGA,165646,4305.5819,N,07038.8476,W,1,11,0.8,9.4,M,-32.4,M,,*7D
MSG 0 46525.962 $GPGSA,A,3,,06,10,13,16,20,21,23,29,30,31,32,1.2,0.8,0.9*39
MSG 0 46526.089 $GPGSV,3,2,12,16,83,314,47,20,10,239,40,21,04,079,33,23,59,284,50*72
MSG 0 46526.234 $PGRME,4.7,M,5.2,M,7.0,M*2D
MSG 0 46526.295 $PGRMB,0.0,200,,,,K,,N,N*31
MSG 0 46526.355 $PGRMM,WGS 84*06
MSG 0 46526.663 $GPRMC,165647,A,4305.5816,N,07038.8475,W,000.9,149.0,030712,016.1,W*7F
POS 0 46607.000 365919.882 4772462.458
QUA 0 46607.000 7 9.200 0.800 11.000 1.000 0.000 0.000 0.000
RAW 0 46607.000 4 430558.16000 -703884.75000 -22.90000 165647.00000
MSG 0 46526.813 $GPGGA,165647,4305.5816,N,07038.8475,W,1,11,0.8,9.5,M,-32.4,M,,*71
MSG 0 46526.955 $GPGSA,A,3,,06,10,13,16,20,21,23,29,30,31,32,1.2,0.8,0.9*39
MSG 0 46527.082 $GPGSV,3,3,12,29,04,032,39,30,61,047,48,31,29,098,47,32,07,214,45*7E
MSG 0 46527.228 $PGRME,4.7,M,5.2,M,7.0,M*2D
MSG 0 46527.288 $PGRMB,0.0,200,,,,K,,N,N*31
MSG 0 46527.348 $PGRMM,WGS 84*06
MSG 0 46527.664 $GPRMC,165648,A,4305.5815,N,07038.8473,W,000.7,145.6,030712,016.1,W*71
POS 0 46608.000 365920.150 4772462.267
QUA 0 46608.000 7 9.200 0.800 11.000 1.000 0.000 0.000 0.000
RAW 0 46608.000 4 430558.15000 -703884.73000 -22.70000 165648.00000
MSG 0 46527.814 $GPGGA,165648,4305.5815,N,07038.8473,W,1,11,0.8,9.7,M,-32.4,M,,*79
MSG 0 46527.955 $GPGSA,A,3,,06,10,13,16,20,21,23,29,30,31,32,1.2,0.8,0.9*39
MSG 0 46528.082 $GPGSV,3,1,12,03,38,177,33,06,48,155,49,10,06,324,37,13,32,314,48*78
MSG 0 46528.228 $PGRME,4.7,M,5.2,M,7.0,M*2D
MSG 0 46528.288 $PGRMB,0.0,200,,,,K,,N,N*31
MSG 0 46528.349 $PGRMM,WGS 84*06
MSG 0 46528.707 $GPRMC,165649,A,4305.5814,N,07038.8472,W,000.6,140.9,030712,016.1,W*7B
POS 0 46609.000 365920.282 4772462.079
QUA 0 46609.000 7 9.200 0.800 11.000 1.000 0.000 0.000 0.000
RAW 0 46609.000 4 430558.14000 -703884.72000 -22.80000 165649.00000
MSG 0 46528.857 $GPGGA,165649,4305.5814,N,07038.8472,W,1,11,0.8,9.6,M,-32.4,M,,*79
MSG 0 46528.999 $GPGSA,A,3,,06,10,13,16,20,21,23,29,30,31,32,1.3,0.8,1.0*30
MSG 0 46529.126 $GPGSV,3,2,12,16,83,314,47,20,10,239,41,21,04,079,34,23,59,284,50*74
MSG 0 46529.272 $PGRME,4.7,M,5.2,M,7.0,M*2D
MSG 0 46529.332 $PGRMB,0.0,200,,,,K,,N,N*31
MSG 0 46529.392 $PGRMM,WGS 84*06
MSG 0 46529.692 $GPRMC,165650,A,4305.5812,N,07038.8471,W,000.7,157.9,030712,016.1,W*71
POS 0 46610.000 365920.410 4772461.707
QUA 0 46610.000 7 9.200 0.800 11.000 1.000 0.000 0.000 0.000
RAW 0 46610.000 4 430558.12000 -703884.71000 -23.10000 165650.00000
MSG 0 46529.841 $GPGGA,165650,4305.5812,N,07038.8471,W,1,11,0.8,9.3,M,-32.4,M,,*71
MSG 0 46529.983 $GPGSA,A,3,,06,10,13,16,20,21,23,29,30,31,32,1.3,0.8,1.0*30
MSG 0 46530.110 $GPGSV,3,3,12,29,04,032,00,30,61,047,48,31,29,098,48,32,07,214,44*7A
MSG 0 46530.256 $PGRME,4.7,M,5.2,M,7.0,M*2D
MSG 0 46530.316 $PGRMB,0.0,200,,,,K,,N,N*31
MSG 0 46530.377 $PGRMM,WGS 84*06
MSG 0 46530.675 $GPRMC,165651,A,4305.5810,N,07038.8467,W,000.9,137.2,030712,016.1,W*76
POS 0 46611.000 365920.945 4772461.326
QUA 0 46611.000 7 9.200 0.800 11.000 1.000 0.000 0.000 0.000
RAW 0 46611.000 4 430558.10000 -703884.67000 -23.10000 165651.00000
MSG 0 46530.825 $GPGGA,165651,4305.5810,N,07038.8467,W,1,11,0.8,9.3,M,-32.4,M,,*75
MSG 0 46530.966 $GPGSA,A,3,,06,10,13,16,20,21,23,29,30,31,32,1.2,0.8,0.9*39
MSG 0 46531.093 $GPGSV,3,1,12,03,38,177,33,06,48,155,47,10,06,324,40,13,32,314,49*77
MSG 0 46531.239 $PGRME,4.7,M,5.2,M,7.0,M*2D
MSG 0 46531.300 $PGRMB,0.0,200,,,,K,,N,N*31
MSG 0 46531.360 $PGRMM,WGS 84*06
MSG 0 46531.668 $GPRMC,165652,A,4305.5809,N,07038.8465,W,000.8,132.4,030712,016.1,W*7D
POS 0 46612.000 365921.213 4772461.135
QUA 0 46612.000 7 9.200 0.800 11.000 1.000 0.000 0.000 0.000
RAW 0 46612.000 4 430558.09000 -703884.65000 -23.10000 165652.00000
MSG 0 46531.818 $GPGGA,165652,4305.5809,N,07038.8465,W,1,11,0.8,9.3,M,-32.4,M,,*7C
MSG 0 46531.960 $GPGSA,A,3,,06,10,13,16,20,21,23,29,30,31,32,1.2,0.8,0.9*39
MSG 0 46532.087 $GPGSV,3,2,12,16,83,314,47,20,10,239,41,21,04,079,34,23,59,284,51*75
MSG 0 46532.233 $PGRME,4.7,M,5.2,M,7.0,M*2D
MSG 0 46532.293 $PGRMB,0.0,200,,,,K,,N,N*31
MSG 0 46532.353 $PGRMM,WGS 84*06
MSG 0 46532.669 $GPRMC,165653,A,4305.5806,N,07038.8463,W,001.0,141.2,030712,016.1,W*7E
POS 0 46613.000 365921.474 4772460.575
QUA 0 46613.000 7 9.200 0.800 11.000 1.000 0.000 0.000 0.000
RAW 0 46613.000 4 430558.06000 -703884.63000 -22.90000 165653.00000
MSG 0 46532.819 $GPGGA,165653,4305.5806,N,07038.8463,W,1,11,0.8,9.5,M,-32.4,M,,*72
MSG 0 46532.960 $GPGSA,A,3,,06,10,13,16,20,21,23,29,30,31,32,1.3,0.8,1.0*30
MSG 0 46533.087 $GPGSV,3,3,12,29,04,032,40,30,61,047,49,31,29,098,48,32,07,214,44*7F
MSG 0 46533.233 $PGRME,4.7,M,5.3,M,7.1,M*2D
MSG 0 46533.294 $PGRMB,0.0,200,,,,K,,N,N*31
MSG 0 46533.354 $PGRMM,WGS 84*06
MSG 0 46533.664 $GPRMC,165654,A,4305.5805,N,07038.8462,W,000.7,149.9,030712,016.1,W*7E
POS 0 46614.000 365921.606 4772460.387
QUA 0 46614.000 7 9.100 0.900 11.000 1.000 0.000 0.000 0.000
RAW 0 46614.000 4 430558.05000 -703884.62000 -22.60000 165654.00000
MSG 0 46533.814 $GPGGA,165654,4305.5805,N,07038.8462,W,1,11,0.9,9.8,M,-32.4,M,,*7B
MSG 0 46533.956 $GPGSA,A,3,,06,10,13,16,20,21,23,29,30,31,32,1.3,0.9,1.0*31
MSG 0 46534.083 $GPGSV,3,1,12,03,38,177,33,06,48,155,47,10,06,324,39,13,32,314,48*78
MSG 0 46534.229 $PGRME,4.7,M,5.3,M,7.1,M*2D
MSG 0 46534.289 $PGRMB,0.0,200,,,,K,,N,N*31
MSG 0 46534.349 $PGRMM,WGS 84*06
MSG 0 46534.677 $GPRMC,165655,A,4305.5804,N,07038.8460,W,000.6,140.6,030712,016.1,W*7B
POS 0 46615.000 365921.873 4772460.197
QUA 0 46615.000 7 9.100 0.900 11.000 1.000 0.000 0.000 0.000
RAW 0 46615.000 4 430558.04000 -703884.60000 -22.70000 165655.00000
MSG 0 46534.827 $GPGGA,165655,4305.5804,N,07038.8460,W,1,11,0.9,9.7,M,-32.4,M,,*76
MSG 0 46534.969 $GPGSA,A,3,,06,10,13,16,20,21,23,29,30,31,32,1.3,0.9,1.0*31
MSG 0 46535.096 $GPGSV,3,2,12,16,83,314,47,20,10,239,42,21,04,079,35,23,59,284,50*76
MSG 0 46535.241 $PGRME,4.8,M,5.3,M,7.1,M*22
MSG 0 46535.302 $PGRMB,0.0,200,,,,K,,N,N*31
MSG 0 46535.362 $PGRMM,WGS 84*06
MSG 0 46535.663 $GPRMC,165656,A,4305.5801,N,07038.8460,W,000.7,156.1,030712,016.1,W*7C
POS 0 46616.000 365921.862 4772459.641
QUA 0 46616.000 7 9.200 0.800 11.000 1.000 0.000 0.000 0.000
RAW 0 46616.000 4 430558.01000 -703884.60000 -23.20000 165656.00000
MSG 0 46535.813 $GPGGA,165656,4305.5801,N,07038.8460,W,1,11,0.8,9.2,M,-32.4,M,,*74
MSG 0 46535.955 $GPGSA,A,3,,06,10,13,16,20,21,23,29,30,31,32,1.3,0.8,0.9*38
MSG 0 46536.082 $GPGSV,3,3,12,29,04,032,40,30,61,047,49,31,29,098,49,32,07,214,42*78
MSG 0 46536.227 $PGRME,4.8,M,5.3,M,7.1,M*22
MSG 0 46536.288 $PGRMB,0.0,200,,,,K,,N,N*31
MSG 0 46536.348 $PGRMM,WGS 84*06
MSG 0 46536.699 $GPRMC,165657,A,4305.5800,N,07038.8458,W,000.8,142.8,030712,016.1,W*74
POS 0 46617.000 365922.130 4772459.451
QUA 0 46617.000 7 9.200 0.800 11.000 1.000 0.000 0.000 0.000
RAW 0 46617.000 4 430558.00000 -703884.58000 -23.20000 165657.00000
MSG 0 46536.849 $GPGGA,165657,4305.5800,N,07038.8458,W,1,11,0.8,9.2,M,-32.4,M,,*7F
MSG 0 46536.991 $GPGSA,A,3,,06,10,13,16,20,21,23,29,30,31,32,1.3,0.8,0.9*38
MSG 0 46537.118 $GPGSV,3,1,12,03,38,177,33,06,48,155,48,10,06,324,38,13,32,314,48*76
MSG 0 46537.264 $PGRME,4.7,M,5.2,M,7.0,M*2D
MSG 0 46537.324 $PGRMB,0.0,200,,,,K,,N,N*31
MSG 0 46537.384 $PGRMM,WGS 84*06
MSG 0 46537.678 $GPRMC,165658,A,4305.5799,N,07038.8455,W,000.7,122.4,030712,016.1,W*7C
POS 0 46618.000 365922.533 4772459.258
QUA 0 46618.000 7 9.200 0.800 11.000 1.000 0.000 0.000 0.000
RAW 0 46618.000 4 430557.99000 -703884.55000 -23.00000 165658.00000
MSG 0 46537.828 $GPGGA,165658,4305.5799,N,07038.8455,W,1,11,0.8,9.4,M,-32.4,M,,*74
MSG 0 46537.970 $GPGSA,A,3,,06,10,13,16,20,21,23,29,30,31,32,1.3,0.8,0.9*38
MSG 0 46538.097 $GPGSV,3,2,12,16,83,314,47,20,10,239,41,21,04,079,35,23,59,284,50*75
MSG 0 46538.243 $PGRME,4.7,M,5.2,M,7.0,M*2D
MSG 0 46538.303 $PGRMB,0.0,200,,,,K,,N,N*31
MSG 0 46538.363 $PGRMM,WGS 84*06
MSG 0 46538.679 $GPRMC,165659,A,4305.5796,N,07038.8454,W,000.8,149.4,030712,016.1,W*71
POS 0 46619.000 365922.658 4772458.700
QUA 0 46619.000 7 9.200 0.800 11.000 1.000 0.000 0.000 0.000
RAW 0 46619.000 4 430557.96000 -703884.54000 -23.10000 165659.00000
MSG 0 46538.829 $GPGGA,165659,4305.5796,N,07038.8454,W,1,11,0.8,9.3,M,-32.4,M,,*7C
MSG 0 46538.971 $GPGSA,A,3,,06,10,13,16,20,21,23,29,30,31,32,1.3,0.8,0.9*38
MSG 0 46539.098 $GPGSV,3,3,12,29,04,032,41,30,61,047,48,31,29,098,49,32,07,214,43*79
MSG 0 46539.243 $PGRME,4.7,M,5.2,M,7.0,M*2D
MSG 0 46539.304 $PGRMB,0.0,200,,,,K,,N,N*31
MSG 0 46539.364 $PGRMM,WGS 84*06
MSG 0 46539.695 $GPRMC,165700,A,4305.5795,N,07038.8452,W,000.8,139.9,030712,016.1,W*73
POS 0 46620.000 365922.926 4772458.509
QUA 0 46620.000 7 9.100 0.900 11.000 1.000 0.000 0.000 0.000
RAW 0 46620.000 4 430557.95000 -703884.52000 -23.00000 165700.00000
MSG 0 46539.845 $GPGGA,165700,4305.5795,N,07038.8452,W,1,11,0.9,9.4,M,-32.4,M,,*72
MSG 0 46539.986 $GPGSA,A,3,,06,10,13,16,20,21,23,29,30,31,32,1.3,0.9,0.9*39
MSG 0 46540.113 $GPGSV,3,1,12,03,38,177,33,06,48,155,47,10,06,324,36,13,32,314,47*78
MSG 0 46540.259 $PGRME,4.7,M,5.2,M,7.0,M*2D
MSG 0 46540.320 $PGRMB,0.0,200,,,,K,,N,N*31
MSG 0 46540.380 $PGRMM,WGS 84*06
MSG 0 46540.690 $GPRMC,165701,A,4305.5794,N,07038.8451,W,000.6,137.7,030712,016.1,W*7E
POS 0 46621.000 365923.058 4772458.322
QUA 0 46621.000 7 9.200 0.800 11.000 1.000 0.000 0.000 0.000
RAW 0 46621.000 4 430557.94000 -703884.51000 -23.10000 165701.00000
MSG 0 46540.840 $GPGGA,165701,4305.5794,N,07038.8451,W,1,11,0.8,9.3,M,-32.4,M,,*77
MSG 0 46540.982 $GPGSA,A,3,,06,10,13,16,20,21,23,29,30,31,32,1.3,0.8,0.9*38
MSG 0 46541.109 $GPGSV,3,2,12,16,83,314,48,20,09,239,40,21,04,079,35,23,59,284,50*73
MSG 0 46541.255 $PGRME,4.7,M,5.2,M,7.0,M*2D
MSG 0 46541.315 $PGRMB,0.0,200,,,,K,,N,N*31
MSG 0 46541.375 $PGRMM,WGS 84*06
MSG 0 46541.678 $GPRMC,165702,A,4305.5792,N,07038.8448,W,000.9,146.9,030712,016.1,W*74
POS 0 46622.000 365923.457 4772457.943
QUA 0 46622.000 7 9.200 0.800 11.000 1.000 0.000 0.000 0.000
RAW 0 46622.000 4 430557.92000 -703884.48000 -23.10000 165702.00000
MSG 0 46541.828 $GPGGA,165702,4305.5792,N,07038.8448,W,1,11,0.8,9.3,M,-32.4,M,,*7A
MSG 0 46541.969 $GPGSA,A,3,,06,10,13,16,20,21,23,29,30,31,32,1.3,0.8,0.9*38
MSG 0 46542.096 $GPGSV,3,3,12,29,04,032,42,30,61,047,48,31,29,098,48,32,07,214,42*7A
MSG 0 46542.242 $PGRME,4.7,M,5.2,M,7.0,M*2D
MSG 0 46542.303 $PGRMB,0.0,200,,,,K,,N,N*31
MSG 0 46542.363 $PGRMM,WGS 84*06
MSG 0 46542.680 $GPRMC,165703,A,4305.5790,N,07038.8447,W,000.8,149.0,030712,016.1,W*7F
POS 0 46623.000 365923.586 4772457.571
QUA 0 46623.000 7 9.200 0.800 11.000 1.000 0.000 0.000 0.000
RAW 0 46623.000 4 430557.90000 -703884.47000 -23.00000 165703.00000
MSG 0 46542.830 $GPGGA,165703,4305.5790,N,07038.8447,W,1,11,0.8,9.4,M,-32.4,M,,*71
MSG 0 46542.971 $GPGSA,A,3,,06,10,13,16,20,21,23,29,30,31,32,1.3,0.8,0.9*38
MSG 0 46543.098 $GPGSV,3,1,12,03,38,177,33,06,48,155,47,10,06,324,35,13,32,314,46*7A
MSG 0 46543.244 $PGRME,4.7,M,5.2,M,7.0,M*2D
MSG 0 46543.304 $PGRMB,0.0,200,,,,K,,N,N*31
MSG 0 46543.365 $PGRMM,WGS 84*06
MSG 0 46543.678 $GPRMC,165704,A,4305.5790,N,07038.8445,W,000.6,131.4,030712,016.1,W*7F
POS 0 46624.000 365923.857 4772457.565
QUA 0 46624.000 7 9.200 0.800 11.000 1.000 0.000 0.000 0.000
RAW 0 46624.000 4 430557.90000 -703884.45000 -22.80000 165704.00000
MSG 0 46543.828 $GPGGA,165704,4305.5790,N,07038.8445,W,1,11,0.8,9.6,M,-32.4,M,,*76
MSG 0 46543.970 $GPGSA,A,3,,06,10,13,16,20,21,23,29,30,31,32,1.3,0.8,0.9*38
MSG 0 46544.097 $GPGSV,3,2,12,16,83,314,47,20,09,239,40,21,05,078,36,23,59,284,49*77
MSG 0 46544.242 $PGRME,4.7,M,5.2,M,7.0,M*2D
MSG 0 46544.303 $PGRMB,0.0,200,,,,K,,N,N*31
MSG 0 46544.363 $PGRMM,WGS 84*06
MSG 0 46544.678 $GPRMC,165705,A,4305.5788,N,07038.8444,W,000.6,136.8,030712,016.1,W*7D
POS 0 46625.000 365923.985 4772457.192
QUA 0 46625.000 7 9.200 0.800 11.000 1.000 0.000 0.000 0.000
RAW 0 46625.000 4 430557.88000 -703884.44000 -23.10000 165705.00000
MSG 0 46544.828 $GPGGA,165705,4305.5788,N,07038.8444,W,1,11,0.8,9.3,M,-32.4,M,,*7A
MSG 0 46544.970 $GPGSA,A,3,,06,10,13,16,20,21,23,29,30,31,32,1.3,0.8,0.9*38
MSG 0 46545.097 $GPGSV,3,3,12,29,04,032,41,30,61,047,48,31,29,098,47,32,07,214,42*76
MSG 0 46545.243 $PGRME,4.7,M,5.2,M,7.0,M*2D
MSG 0 46545.303 $PGRMB,0.0,200,,,,K,,N,N*31
MSG 0 46545.363 $PGRMM,WGS 84*06
MSG 0 46545.678 $GPRMC,165706,A,4305.5786,N,07038.8443,W,000.7,146.6,030712,016.1,W*7F
POS 0 46626.000 365924.114 4772456.820
QUA 0 46626.000 7 9.100 0.900 11.000 1.000 0.000 0.000 0.000
RAW 0 46626.000 4 430557.86000 -703884.43000 -23.30000 165706.00000
MSG 0 46545.828 $GPGGA,165706,4305.5786,N,07038.8443,W,1,11,0.9,9.1,M,-32.4,M,,*73
MSG 0 46545.969 $GPGSA,A,3,,06,10,13,16,20,21,23,29,30,31,32,1.3,0.9,0.9*39
MSG 0 46546.096 $GPGSV,3,1,12,03,38,177,33,06,48,155,48,10,06,324,35,13,32,314,45*76
MSG 0 46546.242 $PGRME,4.7,M,5.2,M,7.0,M*2D
MSG 0 46546.302 $PGRMB,0.0,200,,,,K,,N,N*31
MSG 0 46546.363 $PGRMM,WGS 84*06
MSG 0 46546.690 $GPRMC,165707,A,4305.5785,N,07038.8440,W,000.7,130.0,030712,016.1,W*79
POS 0 46627.000 365924.517 4772456.627
QUA 0 46627.000 7 9.100 0.900 11.000 1.000 0.000 0.000 0.000
RAW 0 46627.000 4 430557.85000 -703884.40000 -23.20000 165707.00000
MSG 0 46546.840 $GPGGA,165707,4305.5785,N,07038.8440,W,1,11,0.9,9.2,M,-32.4,M,,*71
MSG 0 46546.982 $GPGSA,A,3,,06,10,13,16,20,21,23,29,30,31,32,1.3,0.9,0.9*39
MSG 0 46547.109 $GPGSV,3,2,12,16,83,314,47,20,09,239,41,21,05,078,35,23,59,284,50*7D
MSG 0 46547.255 $PGRME,4.7,M,5.2,M,7.0,M*2D
MSG 0 46547.315 $PGRMB,0.0,200,,,,K,,N,N*31
MSG 0 46547.375 $PGRMM,WGS 84*06
MSG 0 46547.678 $GPRMC,165708,A,4305.5784,N,07038.8439,W,000.7,142.9,030712,016.1,W*75
POS 0 46628.000 365924.649 4772456.439
QUA 0 46628.000 7 9.100 0.900 11.000 1.000 0.000 0.000 0.000
RAW 0 46628.000 4 430557.84000 -703884.39000 -23.20000 165708.00000
MSG 0 46547.828 $GPGGA,165708,4305.5784,N,07038.8439,W,1,11,0.9,9.2,M,-32.4,M,,*71
MSG 0 46547.970 $GPGSA,A,3,,06,10,13,16,20,21,23,29,30,31,32,1.3,0.9,0.9*39
MSG 0 46548.097 $GPGSV,3,3,12,29,04,032,42,30,61,047,48,31,29,098,47,32,07,214,40*77
MSG 0 46548.243 $PGRME,4.7,M,5.2,M,7.0,M*2D
MSG 0 46548.303 $PGRMB,0.0,200,,,,K,,N,N*31
MSG 0 46548.364 $PGRMM,WGS 84*06
MSG 0 46548.698 $GPRMC,165709,A,4305.5782,N,07038.8436,W,000.9,140.2,030712,016.1,W*7A
POS 0 46629.000 365925.049 4772456.061
QUA 0 46629.000 7 9.100 0.900 11.000 1.000 0.000 0.000 0.000
RAW 0 46629.000 4 430557.82000 -703884.36000 -23.10000 165709.00000
MSG 0 46548.848 $GPGGA,165709,4305.5782,N,07038.8436,W,1,11,0.9,9.3,M,-32.4,M,,*78
MSG 0 46548.989 $GPGSA,A,3,,06,10,13,16,20,21,23,29,30,31,32,1.3,0.9,0.9*39
MSG 0 46549.116 $GPGSV,3,1,12,03,38,177,32,06,48,155,48,10,06,324,00,13,32,314,45*71
MSG 0 46549.262 $PGRME,4.7,M,5.2,M,7.0,M*2D
MSG 0 46549.322 $PGRMB,0.0,200,,,,K,,N,N*31
MSG 0 46549.383 $PGRMM,WGS 84*06
MSG 0 46549.695 $GPRMC,165710,A,4305.5781,N,07038.8436,W,000.6,141.1,030712,016.1,W*7C
POS 0 46630.000 365925.045 4772455.876
QUA 0 46630.000 7 9.100 0.900 11.000 1.000 0.000 0.000 0.000
RAW 0 46630.000 4 430557.81000 -703884.36000 -23.00000 165710.00000
MSG 0 46549.845 $GPGGA,165710,4305.5781,N,07038.8436,W,1,11,0.9,9.4,M,-32.4,M,,*74
MSG 0 46549.987 $GPGSA,A,3,,06,10,13,16,20,21,23,29,30,31,32,1.3,0.9,0.9*39
MSG 0 46550.114 $GPGSV,3,2,12,16,83,314,47,20,09,239,42,21,05,078,35,23,59,284,50*7E
MSG 0 46550.259 $PGRME,4.7,M,5.2,M,7.0,M*2D
MSG 0 46550.320 $PGRMB,0.0,200,,,,K,,N,N*31
MSG 0 46550.380 $PGRMM,WGS 84*06
MSG 0 46550.678 $GPRMC,165711,A,4305.5779,N,07038.8435,W,000.7,148.5,030712,016.1,W*75
POS 0 46631.000 365925.173 4772455.503
QUA 0 46631.000 7 9.100 0.900 11.000 1.000 0.000 0.000 0.000
RAW 0 46631.000 4 430557.79000 -703884.35000 -23.10000 165711.00000
MSG 0 46550.828 $GPGGA,165711,4305.5779,N,07038.8435,W,1,11,0.9,9.3,M,-32.4,M,,*76
MSG 0 46550.969 $GPGSA,A,3,,06,10,13,16,20,21,23,29,30,31,32,1.3,0.9,0.9*39
MSG 0 46551.096 $GPGSV,3,3,12,29,04,032,44,30,61,047,48,31,29,098,47,32,07,214,41*70
MSG 0 46551.242 $PGRME,4.7,M,5.2,M,7.0,M*2D
MSG 0 46551.302 $PGRMB,0.0,200,,,,K,,N,N*31
MSG 0 46551.363 $PGRMM,WGS 84*06
MSG 0 46551.698 $GPRMC,165712,A,4305.5778,N,07038.8433,W,000.6,141.4,030712,016.1,W*78
POS 0 46632.000 365925.441 4772455.312
QUA 0 46632.000 7 9.100 0.900 11.000 1.000 0.000 0.000 0.000
RAW 0 46632.000 4 430557.78000 -703884.33000 -23.20000 165712.00000
MSG 0 46551.848 $GPGGA,165712,4305.5778,N,07038.8433,W,1,11,0.9,9.2,M,-32.4,M,,*73
MSG 0 46551.990 $GPGSA,A,3,,06,10,13,16,20,21,23,29,30,31,32,1.3,0.9,0.9*39
MSG 0 46552.117 $GPGSV,3,1,12,03,38,177,32,06,48,155,48,10,06,324,00,13,32,314,46*72
MSG 0 46552.263 $PGRME,4.7,M,5.2,M,7.0,M*2D
MSG 0 46552.323 $PGRMB,0.0,200,,,,K,,N,N*31
MSG 0 46552.383 $PGRMM,WGS 84*06
MSG 0 46552.699 $GPRMC,165713,A,4305.5777,N,07038.8432,W,000.5,149.2,030712,016.1,W*7A
POS 0 46633.000 365925.573 4772455.124
QUA 0 46633.000 7 9.100 0.900 11.000 1.000 0.000 0.000 0.000
RAW 0 46633.000 4 430557.77000 -703884.32000 -23.30000 165713.00000
MSG 0 46552.849 $GPGGA,165713,4305.5777,N,07038.8432,W,1,11,0.9,9.1,M,-32.4,M,,*7F
MSG 0 46552.991 $GPGSA,A,3,,06,10,13,16,20,21,23,29,30,31,32,1.3,0.9,0.9*39
MSG 0 46553.118 $GPGSV,3,2,12,16,83,314,47,20,09,239,42,21,05,078,35,23,59,282,50*78
MSG 0 46553.264 $PGRME,4.7,M,5.2,M,7.0,M*2D
MSG 0 46553.324 $PGRMB,0.0,200,,,,K,,N,N*31
MSG 0 46553.384 $PGRMM,WGS 84*06
MSG 0 46553.678 $GPRMC,165714,A,4305.5776,N,07038.8430,W,000.7,140.5,030712,016.1,W*72
POS 0 46634.000 365925.841 4772454.934
QUA 0 46634.000 7 9.100 0.900 11.000 1.000 0.000 0.000 0.000
RAW 0 46634.000 4 430557.76000 -703884.30000 -23.40000 165714.00000
MSG 0 46553.828 $GPGGA,165714,4305.5776,N,07038.8430,W,1,11,0.9,9.0,M,-32.4,M,,*7A
MSG 0 46553.970 $GPGSA,A,3,,06,10,13,16,20,21,23,29,30,31,32,1.3,0.9,0.9*39
MSG 0 46554.097 $GPGSV,3,3,12,29,04,032,44,30,61,047,49,31,29,098,47,32,07,214,40*70
MSG 0 46554.243 $PGRME,4.7,M,5.2,M,7.0,M*2D
MSG 0 46554.303 $PGRMB,0.0,200,,,,K,,N,N*31
MSG 0 46554.363 $PGRMM,WGS 84*06
MSG 0 46554.697 $GPRMC,165715,A,4305.5775,N,07038.8428,W,000.6,136.9,030712,016.1,W*75
POS 0 46635.000 365926.108 4772454.744
QUA 0 46635.000 7 9.100 0.900 11.000 1.000 0.000 0.000 0.000
RAW 0 46635.000 4 430557.75000 -703884.28000 -23.30000 165715.00000
MSG 0 46554.847 $GPGGA,165715,4305.5775,N,07038.8428,W,1,11,0.9,9.1,M,-32.4,M,,*70
MSG 0 46554.988 $GPGSA,A,3,,06,10,13,16,20,21,23,29,30,31,32,1.3,0.9,0.9*39
MSG 0 46555.115 $GPGSV,3,1,12,03,38,177,32,06,48,155,48,10,06,324,00,13,32,314,47*73
MSG 0 46555.261 $PGRME,4.7,M,5.2,M,7.0,M*2D
MSG 0 46555.321 $PGRMB,0.0,200,,,,K,,N,N*31
MSG 0 46555.382 $PGRMM,WGS 84*06
MSG 0 46555.679 $GPRMC,165716,A,4305.5774,N,07038.8427,W,000.5,132.2,030712,016.1,W*74
POS 0 46636.000 365926.240 4772454.556
QUA 0 46636.000 7 9.100 0.900 10.000 1.000 0.000 0.000 0.000
RAW 0 46636.000 4 430557.74000 -703884.27000 -23.20000 165716.00000
MSG 0 46555.829 $GPGGA,165716,4305.5774,N,07038.8427,W,1,10,0.9,9.2,M,-32.4,M,,*7F
MSG 0 46555.971 $GPGSA,A,3,,06,,13,16,20,21,23,29,30,31,32,1.3,0.9,0.9*38
MSG 0 46556.093 $GPGSV,3,2,12,16,83,314,47,20,09,239,41,21,05,078,36,23,59,282,49*70
MSG 0 46556.239 $PGRME,4.7,M,5.2,M,7.0,M*2D
MSG 0 46556.300 $PGRMB,0.0,200,,,,K,,N,N*31
MSG 0 46556.360 $PGRMM,WGS 84*06
MSG 0 46556.697 $GPRMC,165717,A,4305.5773,N,07038.8425,W,000.7,134.1,030712,016.1,W*77
POS 0 46637.000 365926.508 4772454.365
QUA 0 46637.000 7 9.100 0.900 10.000 1.000 0.000 0.000 0.000
RAW 0 46637.000 4 430557.73000 -703884.25000 -23.50000 165717.00000
MSG 0 46556.847 $GPGGA,165717,4305.5773,N,07038.8425,W,1,10,0.9,8.9,M,-32.4,M,,*71
MSG 0 46556.989 $GPGSA,A,3,,06,,13,16,20,21,23,29,30,31,32,1.3,0.9,0.9*38
MSG 0 46557.112 $GPGSV,3,3,12,29,04,032,43,30,61,047,49,31,29,098,48,32,07,214,42*7A
MSG 0 46557.257 $PGRME,4.7,M,5.2,M,7.0,M*2D
MSG 0 46557.318 $PGRMB,0.0,200,,,,K,,N,N*31
MSG 0 46557.378 $PGRMM,WGS 84*06
MSG 0 46557.696 $GPRMC,165718,A,4305.5770,N,07038.8424,W,000.8,153.4,030712,016.1,W*71
POS 0 46638.000 365926.633 4772453.808
QUA 0 46638.000 7 9.100 0.900 10.000 1.000 0.000 0.000 0.000
RAW 0 46638.000 4 430557.70000 -703884.24000 -23.60000 165718.00000
MSG 0 46557.846 $GPGGA,165718,4305.5770,N,07038.8424,W,1,10,0.9,8.8,M,-32.4,M,,*7D
MSG 0 46557.988 $GPGSA,A,3,,06,,13,16,20,21,23,29,30,31,32,1.3,0.9,0.9*38
MSG 0 46558.111 $GPGSV,3,1,12,03,38,177,32,06,48,155,49,10,06,324,00,13,32,314,46*73
MSG 0 46558.257 $PGRME,4.7,M,5.3,M,7.1,M*2D
MSG 0 46558.317 $PGRMB,0.0,200,,,,K,,N,N*31
MSG 0 46558.377 $PGRMM,WGS 84*06
MSG 0 46558.677 $GPRMC,165719,A,4305.5770,N,07038.8422,W,000.6,122.3,030712,016.1,W*79
POS 0 46639.000 365926.904 4772453.802
QUA 0 46639.000 7 9.100 0.900 10.000 1.000 0.000 0.000 0.000
RAW 0 46639.000 4 430557.70000 -703884.22000 -23.20000 165719.00000
MSG 0 46558.827 $GPGGA,165719,4305.5770,N,07038.8422,W,1,10,0.9,9.2,M,-32.4,M,,*71
MSG 0 46558.969 $GPGSA,A,3,,06,,13,16,20,21,23,29,30,31,32,1.3,0.9,0.9*38
MSG 0 46559.092 $GPGSV,3,2,12,16,83,314,47,20,09,239,40,21,05,078,35,23,59,282,49*72
MSG 0 46559.237 $PGRME,4.7,M,5.3,M,7.1,M*2D
MSG 0 46559.298 $PGRMB,0.0,200,,,,K,,N,N*31
MSG 0 46559.358 $PGRMM,WGS 84*06
MSG 0 46559.678 $GPRMC,165720,A,4305.5768,N,07038.8422,W,000.7,154.8,030712,016.1,W*71
POS 0 46640.000 365926.897 4772453.432
QUA 0 46640.000 7 9.100 0.900 11.000 1.000 0.000 0.000 0.000
RAW 0 46640.000 4 430557.68000 -703884.22000 -23.20000 165720.00000
MSG 0 46559.828 $GPGGA,165720,4305.5768,N,07038.8422,W,1,11,0.9,9.2,M,-32.4,M,,*73
MSG 0 46559.970 $GPGSA,A,3,,06,10,13,16,20,21,23,29,30,31,32,1.3,0.9,0.9*39
MSG 0 46560.097 $GPGSV,3,3,12,29,04,032,45,30,61,047,50,31,29,098,49,32,07,214,43*74
MSG 0 46560.243 $PGRME,4.8,M,5.3,M,7.1,M*22
MSG 0 46560.303 $PGRMB,0.0,200,,,,K,,N,N*31
MSG 0 46560.363 $PGRMM,WGS 84*06
MSG 0 46560.678 $GPRMC,165721,A,4305.5766,N,07038.8420,W,000.7,146.0,030712,016.1,W*77
POS 0 46641.000 365927.161 4772453.057
QUA 0 46641.000 7 9.100 0.900 11.000 1.000 0.000 0.000 0.000
RAW 0 46641.000 4 430557.66000 -703884.20000 -23.20000 165721.00000
MSG 0 46560.828 $GPGGA,165721,4305.5766,N,07038.8420,W,1,11,0.9,9.2,M,-32.4,M,,*7E
MSG 0 46560.969 $GPGSA,A,3,,06,10,13,16,20,21,23,29,30,31,32,1.3,0.9,0.9*39
MSG 0 46561.096 $GPGSV,3,1,12,03,38,177,32,06,48,155,49,10,06,324,36,13,32,314,46*76
MSG 0 46561.242 $PGRME,4.8,M,5.4,M,7.2,M*26
MSG 0 46561.302 $PGRMB,0.0,200,,,,K,,N,N*31
MSG 0 46561.363 $PGRMM,WGS 84*06
MSG 0 46561.696 $GPRMC,165722,A,4305.5766,N,07038.8419,W,000.5,142.8,030712,016.1,W*70
POS 0 46642.000 365927.296 4772453.054
QUA 0 46642.000 7 9.100 0.900 11.000 1.000 0.000 0.000 0.000
RAW 0 46642.000 4 430557.66000 -703884.19000 -23.30000 165722.00000
MSG 0 46561.846 $GPGGA,165722,4305.5766,N,07038.8419,W,1,11,0.9,9.1,M,-32.4,M,,*74
MSG 0 46561.987 $GPGSA,A,3,,06,10,13,16,20,21,23,29,30,31,32,1.3,0.9,1.0*31
MSG 0 46562.114 $GPGSV,3,2,12,16,83,314,47,20,09,239,39,21,05,078,34,23,59,282,48*7C
MSG 0 46562.260 $PGRME,4.8,M,5.4,M,7.2,M*26
MSG 0 46562.321 $PGRMB,0.0,200,,,,K,,N,N*31
MSG 0 46562.381 $PGRMM,WGS 84*06
MSG 0 46562.678 $GPRMC,165723,A,4305.5766,N,07038.8419,W,000.3,149.9,030712,016.1,W*7D
POS 0 46643.000 365927.296 4772453.054
QUA 0 46643.000 7 9.100 0.900 11.000 1.000 0.000 0.000 0.000
RAW 0 46643.000 4 430557.66000 -703884.19000 -23.30000 165723.00000
MSG 0 46562.828 $GPGGA,165723,4305.5766,N,07038.8419,W,1,11,0.9,9.1,M,-32.4,M,,*75
MSG 0 46562.970 $GPGSA,A,3,,06,10,13,16,20,21,23,29,30,31,32,1.3,0.9,0.9*39
MSG 0 46563.097 $GPGSV,3,3,12,29,04,032,43,30,61,047,50,31,29,098,48,32,07,214,43*73
MSG 0 46563.242 $PGRME,4.7,M,5.2,M,7.0,M*2D
MSG 0 46563.303 $PGRMB,0.0,200,,,,K,,N,N*31
MSG 0 46563.363 $PGRMM,WGS 84*06
MSG 0 46563.699 $GPRMC,165724,A,4305.5763,N,07038.8416,W,000.7,136.6,030712,016.1,W*73
POS 0 46644.000 365927.693 4772452.491
QUA 0 46644.000 7 9.100 0.900 11.000 1.000 0.000 0.000 0.000
RAW 0 46644.000 4 430557.63000 -703884.16000 -23.50000 165724.00000
MSG 0 46563.849 $GPGGA,165724,4305.5763,N,07038.8416,W,1,11,0.9,8.9,M,-32.4,M,,*71
MSG 0 46563.990 $GPGSA,A,3,,06,10,13,16,20,21,23,29,30,31,32,1.3,0.9,0.9*39
MSG 0 46564.117 $GPGSV,3,1,12,03,38,177,32,06,48,155,49,10,06,324,35,13,32,314,46*75
MSG 0 46564.263 $PGRME,4.7,M,5.2,M,7.0,M*2D
MSG 0 46564.323 $PGRMB,0.0,200,,,,K,,N,N*31
MSG 0 46564.384 $PGRMM,WGS 84*06
MSG 0 46564.678 $GPRMC,165725,A,4305.5761,N,07038.8415,W,000.7,156.2,030712,016.1,W*71
POS 0 46645.000 365927.821 4772452.118
QUA 0 46645.000 7 9.100 0.900 11.000 1.000 0.000 0.000 0.000
RAW 0 46645.000 4 430557.61000 -703884.15000 -23.50000 165725.00000
MSG 0 46564.828 $GPGGA,165725,4305.5761,N,07038.8415,W,1,11,0.9,8.9,M,-32.4,M,,*71
MSG 0 46564.969 $GPGSA,A,3,,06,10,13,16,20,21,23,29,30,31,32,1.3,0.9,0.9*39
MSG 0 46565.096 $GPGSV,3,2,12,16,83,314,47,20,09,239,40,21,05,078,30,23,59,282,49*77
MSG 0 46565.242 $PGRME,4.7,M,5.3,M,7.1,M*2D
MSG 0 46565.303 $PGRMB,0.0,200,,,,K,,N,N*31
MSG 0 46565.363 $PGRMM,WGS 84*06
MSG 0 46565.677 $GPRMC,165726,A,4305.5762,N,07038.8413,W,000.4,122.9,030712,016.1,W*7C
POS 0 46646.000 365928.096 4772452.298
QUA 0 46646.000 7 9.100 0.900 11.000 1.000 0.000 0.000 0.000
RAW 0 46646.000 4 430557.62000 -703884.13000 -23.10000 165726.00000
MSG 0 46565.827 $GPGGA,165726,4305.5762,N,07038.8413,W,1,11,0.9,9.3,M,-32.4,M,,*7C
MSG 0 46565.969 $GPGSA,A,3,,06,10,13,16,20,21,23,29,30,31,32,1.3,0.9,0.9*39
MSG 0 46566.096 $GPGSV,3,3,12,29,04,032,43,30,61,047,50,31,29,098,47,32,07,214,44*7B
MSG 0 46566.241 $PGRME,4.7,M,5.2,M,7.0,M*2D
MSG 0 46566.302 $PGRMB,0.0,200,,,,K,,N,N*31
MSG 0 46566.362 $PGRMM,WGS 84*06
MSG 0 46566.690 $GPRMC,165727,A,4305.5759,N,07038.8413,W,000.7,151.3,030712,016.1,W*78
POS 0 46647.000 365928.085 4772451.742
QUA 0 46647.000 7 9.100 0.900 11.000 1.000 0.000 0.000 0.000
RAW 0 46647.000 4 430557.59000 -703884.13000 -23.10000 165727.00000
MSG 0 46566.840 $GPGGA,165727,4305.5759,N,07038.8413,W,1,11,0.9,9.3,M,-32.4,M,,*75
MSG 0 46566.982 $GPGSA,A,3,,06,10,13,16,20,21,23,29,30,31,32,1.3,0.9,0.9*39
MSG 0 46567.109 $GPGSV,3,1,12,03,38,177,32,06,48,155,50,10,06,324,35,13,32,314,45*7E
MSG 0 46567.254 $PGRME,4.7,M,5.2,M,7.0,M*2D
MSG 0 46567.315 $PGRMB,0.0,200,,,,K,,N,N*31
MSG 0 46567.375 $PGRMM,WGS 84*06
MSG 0 46567.677 $GPRMC,165728,A,4305.5758,N,07038.8410,W,000.8,145.4,030712,016.1,W*78
POS 0 46648.000 365928.488 4772451.549
QUA 0 46648.000 7 9.100 0.900 11.000 1.000 0.000 0.000 0.000
RAW 0 46648.000 4 430557.58000 -703884.10000 -23.20000 165728.00000
MSG 0 46567.827 $GPGGA,165728,4305.5758,N,07038.8410,W,1,11,0.9,9.2,M,-32.4,M,,*79
MSG 0 46567.969 $GPGSA,A,3,,06,10,13,16,20,21,23,29,30,31,32,1.3,0.9,0.9*39
MSG 0 46568.096 $GPGSV,3,2,12,16,83,314,47,20,09,239,39,21,05,078,33,23,59,282,49*7A
MSG 0 46568.241 $PGRME,4.7,M,5.2,M,7.0,M*2D
MSG 0 46568.302 $PGRMB,0.0,200,,,,K,,N,N*31
MSG 0 46568.362 $PGRMM,WGS 84*06
MSG 0 46568.687 $GPRMC,165729,A,4305.5757,N,07038.8409,W,000.6,137.6,030712,016.1,W*77
POS 0 46649.000 365928.620 4772451.361
QUA 0 46649.000 7 9.100 0.900 11.000 1.000 0.000 0.000 0.000
RAW 0 46649.000 4 430557.57000 -703884.09000 -23.30000 165729.00000
MSG 0 46568.837 $GPGGA,165729,4305.5757,N,07038.8409,W,1,11,0.9,9.1,M,-32.4,M,,*7C
MSG 0 46568.978 $GPGSA,A,3,,06,10,13,16,20,21,23,29,30,31,32,1.3,0.9,0.9*39
MSG 0 46569.105 $GPGSV,3,3,12,29,04,032,42,30,61,047,51,31,29,098,46,32,07,214,43*7D
FIX 99 46569.307 95 365928.620 4772451.361
