FTP NEW 2
VER 11.0.6.21
INF "" "" "" "" 0.000 0.000 0.000
ELL WGS-84 6378137.000 298.257223563
PRO TME -69.000000 0.999600 0.000000 0.000000 0.000000 500000.0000 0.0000
DTM 0.00 0.00 0.00 0.00000 0.00000 0.00000 0.00000
GEO ??? 0.000
HVU 1.0000000000 1.0000000000
TND 10:46:52 07/03/2012 240
DEV 0 32869 "Garmin GPS" 49156 C:\HYPACK 2011\devices\GPS.dll 11.0.10.6
OFF 0 0.000 0.000 0.000 0.000 0.000 0.000 0.000
DDT 0 SYN 
DEV 1 0 "Disabled" 0 Odom CV3 MK3 Disabled Unknown
USR "NOAA Joint Hydrographic Center" "HYPACK Inc." 0x8 15681181
EOH 2AD2DF8898F8822B459ED180FA0257ECF85A3EDE6EB1BE7583B5E2CDC4CD9CE113FBCD15DE440268C8626229565FA584DAD252B1231CC4AA867ED604CAA5A6C3BEC7A8895C6441C7765C6F1A867F9E2A1A7909168C8E9BEE4405C2F6C5CD20303EB95A37336A4ABF18DB96C6ACB7DD64CFA55106CC74C3C7AFCF5B4FCD03FF60
MSG 0 38809.815 $GPRMC,144810,A,4303.0293,N,07037.7937,W,000.4,065.9,030712,016.1,W*74
POS 0 38890.000 367257.521 4767710.519
QUA 0 38890.000 7 9.000 1.000 8.000 1.000 0.000 0.000 0.000
RAW 0 38890.000 4 430302.93000 -703779.37000 -20.10000 144810.00000
MSG 0 38809.965 $GPGGA,144810,4303.0293,N,07037.7937,W,1,08,1.0,12.3,M,-32.4,M,,*4C
MSG 0 38810.109 $GPGSA,A,3,,14,16,20,,,25,29,30,31,32,,2.1,1.0,1.8*35
MSG 0 38810.223 $GPGSV,3,2,11,22,00,171,00,23,11,309,37,25,27,046,46,29,24,078,48*7C
MSG 0 38810.369 $PGRME,4.6,M,8.6,M,9.7,M*2C
MSG 0 38810.429 $PGRMB,0.0,200,,,,K,,N,N*31
MSG 0 38810.490 $PGRMM,WGS 84*06
MSG 0 38810.816 $GPRMC,144811,A,4303.0293,N,07037.7934,W,000.5,088.7,030712,016.1,W*7A
POS 0 38891.000 367257.929 4767710.511
QUA 0 38891.000 7 9.000 1.000 8.000 1.000 0.000 0.000 0.000
RAW 0 38891.000 4 430302.93000 -703779.34000 -20.10000 144811.00000
MSG 0 38810.966 $GPGGA,144811,4303.0293,N,07037.7934,W,1,08,1.0,12.3,M,-32.4,M,,*4E
MSG 0 38811.109 $GPGSA,A,3,,14,16,20,,,25,29,30,31,32,,2.1,1.0,1.8*35
MSG 0 38811.224 $GPGSV,3,3,11,30,56,207,49,31,70,026,50,32,46,265,47*44
MSG 0 38811.342 $PGRME,4.6,M,8.6,M,9.7,M*2C
MSG 0 38811.403 $PGRMB,0.0,200,,,,K,,N,N*31
MSG 0 38811.463 $PGRMM,WGS 84*06
FIX 99 38812.039 66 367257.929 4767710.511
MSG 0 38811.832 $GPRMC,144812,A,4303.0292,N,07037.7935,W,000.2,088.7,030712,016.1,W*7E
POS 0 38892.000 367257.789 4767710.328
QUA 0 38892.000 7 9.000 1.000 8.000 1.000 0.000 0.000 0.000
RAW 0 38892.000 4 430302.92000 -703779.35000 -20.10000 144812.00000
MSG 0 38811.982 $GPGGA,144812,4303.0292,N,07037.7935,W,1,08,1.0,12.3,M,-32.4,M,,*4D
MSG 0 38812.126 $GPGSA,A,3,,14,16,20,,,25,29,30,31,32,,2.1,1.0,1.8*35
MSG 0 38812.240 $GPGSV,3,1,11,11,00,247,33,14,36,124,49,16,27,207,45,20,30,296,46*78
MSG 0 38812.386 $PGRME,4.6,M,8.6,M,9.7,M*2C
MSG 0 38812.447 $PGRMB,0.0,200,,,,K,,N,N*31
MSG 0 38812.507 $PGRMM,WGS 84*06
MSG 0 38812.816 $GPRMC,144813,A,4303.0294,N,07037.7934,W,000.3,048.8,030712,016.1,W*7A
POS 0 38893.000 367257.932 4767710.696
QUA 0 38893.000 7 9.000 1.000 8.000 1.000 0.000 0.000 0.000
RAW 0 38893.000 4 430302.94000 -703779.34000 -20.00000 144813.00000
MSG 0 38812.966 $GPGGA,144813,4303.0294,N,07037.7934,W,1,08,1.0,12.4,M,-32.4,M,,*4C
MSG 0 38813.110 $GPGSA,A,3,,14,16,20,,,25,29,30,31,32,,2.1,1.0,1.8*35
MSG 0 38813.224 $GPGSV,3,2,11,22,00,171,00,23,11,309,37,25,27,046,45,29,24,078,47*70
MSG 0 38813.370 $PGRME,4.6,M,8.6,M,9.7,M*2C
MSG 0 38813.430 $PGRMB,0.0,200,,,,K,,N,N*31
MSG 0 38813.491 $PGRMM,WGS 84*06
MSG 0 38813.816 $GPRMC,144814,A,4303.0293,N,07037.7929,W,000.7,084.2,030712,016.1,W*78
POS 0 38894.000 367258.607 4767710.498
QUA 0 38894.000 7 9.000 1.000 8.000 1.000 0.000 0.000 0.000
RAW 0 38894.000 4 430302.93000 -703779.29000 -20.10000 144814.00000
MSG 0 38813.966 $GPGGA,144814,4303.0293,N,07037.7929,W,1,08,1.0,12.3,M,-32.4,M,,*47
MSG 0 38814.110 $GPGSA,A,3,,14,16,20,,,25,29,30,31,32,,2.1,1.0,1.8*35
MSG 0 38814.224 $GPGSV,3,3,11,30,56,207,49,31,70,026,50,32,46,265,47*44
MSG 0 38814.343 $PGRME,4.6,M,8.6,M,9.7,M*2C
MSG 0 38814.403 $PGRMB,0.0,200,,,,K,,N,N*31
MSG 0 38814.464 $PGRMM,WGS 84*06
MSG 0 38814.815 $GPRMC,144815,A,4303.0295,N,07037.7929,W,000.5,056.5,030712,016.1,W*75
POS 0 38895.000 367258.614 4767710.868
QUA 0 38895.000 7 9.000 1.000 8.000 1.000 0.000 0.000 0.000
RAW 0 38895.000 4 430302.95000 -703779.29000 -20.10000 144815.00000
MSG 0 38814.965 $GPGGA,144815,4303.0295,N,07037.7929,W,1,08,1.0,12.3,M,-32.4,M,,*40
MSG 0 38815.108 $GPGSA,A,3,,14,16,20,,,25,29,30,31,32,,2.1,1.0,1.8*35
MSG 0 38815.223 $GPGSV,3,1,11,11,00,247,34,14,36,124,49,16,27,207,45,20,30,296,46*7F
MSG 0 38815.369 $PGRME,4.6,M,8.6,M,9.7,M*2C
MSG 0 38815.429 $PGRMB,0.0,200,,,,K,,N,N*31
MSG 0 38815.489 $PGRMM,WGS 84*06
MSG 0 38815.810 $GPRMC,144816,A,4303.0295,N,07037.7931,W,000.2,056.5,030712,016.1,W*78
POS 0 38896.000 367258.343 4767710.873
QUA 0 38896.000 7 9.000 1.000 8.000 1.000 0.000 0.000 0.000
RAW 0 38896.000 4 430302.95000 -703779.31000 -20.10000 144816.00000
MSG 0 38815.960 $GPGGA,144816,4303.0295,N,07037.7931,W,1,08,1.0,12.3,M,-32.4,M,,*4A
MSG 0 38816.104 $GPGSA,A,3,,14,16,20,,,25,29,30,31,32,,2.1,1.0,1.8*35
MSG 0 38816.218 $GPGSV,3,2,11,22,00,171,00,23,11,309,37,25,27,046,46,29,24,078,47*73
MSG 0 38816.364 $PGRME,4.6,M,8.6,M,9.7,M*2C
MSG 0 38816.425 $PGRMB,0.0,200,,,,K,,N,N*31
MSG 0 38816.485 $PGRMM,WGS 84*06
MSG 0 38816.814 $GPRMC,144817,A,4303.0296,N,07037.7925,W,000.7,071.2,030712,016.1,W*78
POS 0 38897.000 367259.161 4767711.042
QUA 0 38897.000 7 9.000 1.000 8.000 1.000 0.000 0.000 0.000
RAW 0 38897.000 4 430302.96000 -703779.25000 -20.00000 144817.00000
MSG 0 38816.964 $GPGGA,144817,4303.0296,N,07037.7925,W,1,08,1.0,12.4,M,-32.4,M,,*4A
MSG 0 38817.108 $GPGSA,A,3,,14,16,20,,,25,29,30,31,32,,2.1,1.0,1.8*35
MSG 0 38817.222 $GPGSV,3,3,11,30,56,207,49,31,70,026,50,32,46,265,47*44
MSG 0 38817.341 $PGRME,4.6,M,8.6,M,9.7,M*2C
MSG 0 38817.401 $PGRMB,0.0,200,,,,K,,N,N*31
MSG 0 38817.462 $PGRMM,WGS 84*06
MSG 0 38817.813 $GPRMC,144818,A,4303.0296,N,07037.7924,W,000.5,078.0,030712,016.1,W*7F
POS 0 38898.000 367259.297 4767711.040
QUA 0 38898.000 7 9.000 1.000 8.000 1.000 0.000 0.000 0.000
RAW 0 38898.000 4 430302.96000 -703779.24000 -20.20000 144818.00000
MSG 0 38817.963 $GPGGA,144818,4303.0296,N,07037.7924,W,1,08,1.0,12.2,M,-32.4,M,,*42
MSG 0 38818.107 $GPGSA,A,3,,14,16,20,,,25,29,30,31,32,,2.1,1.0,1.8*35
MSG 0 38818.221 $GPGSV,3,1,11,11,00,247,34,14,36,124,49,16,27,207,45,20,30,296,46*7F
MSG 0 38818.367 $PGRME,4.6,M,8.6,M,9.7,M*2C
MSG 0 38818.428 $PGRMB,0.0,200,,,,K,,N,N*31
MSG 0 38818.488 $PGRMM,WGS 84*06
MSG 0 38818.816 $GPRMC,144819,A,4303.0297,N,07037.7926,W,000.2,078.0,030712,016.1,W*7A
POS 0 38899.000 367259.029 4767711.230
QUA 0 38899.000 7 9.000 1.000 8.000 1.000 0.000 0.000 0.000
RAW 0 38899.000 4 430302.97000 -703779.26000 -20.30000 144819.00000
MSG 0 38818.966 $GPGGA,144819,4303.0297,N,07037.7926,W,1,08,1.0,12.1,M,-32.4,M,,*43
MSG 0 38819.110 $GPGSA,A,3,,14,16,20,,,25,29,30,31,32,,2.1,1.0,1.8*35
MSG 0 38819.225 $GPGSV,3,2,11,22,00,171,00,23,11,309,37,25,27,046,46,29,24,078,47*73
MSG 0 38819.370 $PGRME,4.6,M,8.6,M,9.7,M*2C
MSG 0 38819.431 $PGRMB,0.0,200,,,,K,,N,N*31
MSG 0 38819.491 $PGRMM,WGS 84*06
MSG 0 38819.815 $GPRMC,144820,A,4303.0297,N,07037.7922,W,000.6,085.5,030712,016.1,W*77
POS 0 38900.000 367259.572 4767711.220
QUA 0 38900.000 7 9.000 1.000 8.000 1.000 0.000 0.000 0.000
RAW 0 38900.000 4 430302.97000 -703779.22000 -20.40000 144820.00000
MSG 0 38819.965 $GPGGA,144820,4303.0297,N,07037.7922,W,1,08,1.0,12.0,M,-32.4,M,,*4C
MSG 0 38820.109 $GPGSA,A,3,,14,16,20,,,25,29,30,31,32,,2.1,1.0,1.8*35
MSG 0 38820.223 $GPGSV,3,3,11,30,56,207,49,31,70,026,50,32,46,265,46*45
MSG 0 38820.342 $PGRME,4.6,M,8.6,M,9.7,M*2C
MSG 0 38820.402 $PGRMB,0.0,200,,,,K,,N,N*31
MSG 0 38820.463 $PGRMM,WGS 84*06
MSG 0 38820.813 $GPRMC,144821,A,4303.0297,N,07037.7919,W,000.7,088.4,030712,016.1,W*73
POS 0 38901.000 367259.979 4767711.212
QUA 0 38901.000 7 9.000 1.000 8.000 1.000 0.000 0.000 0.000
RAW 0 38901.000 4 430302.97000 -703779.19000 -20.40000 144821.00000
MSG 0 38820.963 $GPGGA,144821,4303.0297,N,07037.7919,W,1,08,1.0,12.0,M,-32.4,M,,*45
MSG 0 38821.107 $GPGSA,A,3,,14,16,20,,,25,29,30,31,32,,2.1,1.0,1.8*35
MSG 0 38821.221 $GPGSV,3,1,11,11,00,247,34,14,36,124,50,16,27,207,45,20,30,296,46*77
MSG 0 38821.367 $PGRME,4.6,M,8.6,M,9.7,M*2C
MSG 0 38821.427 $PGRMB,0.0,200,,,,K,,N,N*31
MSG 0 38821.488 $PGRMM,WGS 84*06
MSG 0 38821.816 $GPRMC,144822,A,4303.0297,N,07037.7921,W,000.1,088.4,030712,016.1,W*7D
POS 0 38902.000 367259.708 4767711.217
QUA 0 38902.000 7 9.000 1.000 8.000 1.000 0.000 0.000 0.000
RAW 0 38902.000 4 430302.97000 -703779.21000 -20.20000 144822.00000
MSG 0 38821.966 $GPGGA,144822,4303.0297,N,07037.7921,W,1,08,1.0,12.2,M,-32.4,M,,*4F
MSG 0 38822.109 $GPGSA,A,3,,14,16,20,,,25,29,30,31,32,,2.1,1.0,1.8*35
MSG 0 38822.224 $GPGSV,3,2,11,22,00,171,00,23,11,309,37,25,27,046,46,29,24,078,46*72
MSG 0 38822.370 $PGRME,4.6,M,8.6,M,9.7,M*2C
MSG 0 38822.430 $PGRMB,0.0,200,,,,K,,N,N*31
MSG 0 38822.490 $PGRMM,WGS 84*06
MSG 0 38822.815 $GPRMC,144823,A,4303.0298,N,07037.7918,W,000.5,071.7,030712,016.1,W*78
POS 0 38903.000 367260.118 4767711.394
QUA 0 38903.000 7 9.000 1.000 8.000 1.000 0.000 0.000 0.000
RAW 0 38903.000 4 430302.98000 -703779.18000 -20.10000 144823.00000
MSG 0 38822.965 $GPGGA,144823,4303.0298,N,07037.7918,W,1,08,1.0,12.3,M,-32.4,M,,*4A
MSG 0 38823.109 $GPGSA,A,3,,14,16,20,,,25,29,30,31,32,,2.1,1.0,1.8*35
MSG 0 38823.223 $GPGSV,3,3,11,30,56,207,49,31,70,026,50,32,46,265,46*45
MSG 0 38823.342 $PGRME,4.6,M,8.6,M,9.7,M*2C
MSG 0 38823.403 $PGRMB,0.0,200,,,,K,,N,N*31
MSG 0 38823.463 $PGRMM,WGS 84*06
MSG 0 38823.815 $GPRMC,144824,A,4303.0299,N,07037.7915,W,000.6,062.4,030712,016.1,W*71
POS 0 38904.000 367260.529 4767711.571
QUA 0 38904.000 7 9.000 1.000 8.000 1.000 0.000 0.000 0.000
RAW 0 38904.000 4 430302.99000 -703779.15000 -20.10000 144824.00000
MSG 0 38823.965 $GPGGA,144824,4303.0299,N,07037.7915,W,1,08,1.0,12.3,M,-32.4,M,,*41
MSG 0 38824.109 $GPGSA,A,3,,14,16,20,,,25,29,30,31,32,,2.1,1.0,1.8*35
MSG 0 38824.223 $GPGSV,3,1,11,11,00,247,34,14,36,124,49,16,27,207,45,20,30,296,46*7F
MSG 0 38824.369 $PGRME,4.6,M,8.6,M,9.7,M*2C
MSG 0 38824.430 $PGRMB,0.0,200,,,,K,,N,N*31
MSG 0 38824.490 $PGRMM,WGS 84*06
MSG 0 38824.816 $GPRMC,144825,A,4303.0299,N,07037.7916,W,000.2,062.4,030712,016.1,W*77
POS 0 38905.000 367260.393 4767711.574
QUA 0 38905.000 7 9.000 1.000 8.000 1.000 0.000 0.000 0.000
RAW 0 38905.000 4 430302.99000 -703779.16000 -20.10000 144825.00000
MSG 0 38824.966 $GPGGA,144825,4303.0299,N,07037.7916,W,1,08,1.0,12.3,M,-32.4,M,,*43
MSG 0 38825.110 $GPGSA,A,3,,14,16,20,,,25,29,30,31,32,,2.1,1.0,1.8*35
MSG 0 38825.225 $GPGSV,3,2,11,22,00,171,00,23,11,309,37,25,27,046,45,29,24,078,46*71
MSG 0 38825.370 $PGRME,4.6,M,8.6,M,9.7,M*2C
MSG 0 38825.431 $PGRMB,0.0,200,,,,K,,N,N*31
MSG 0 38825.491 $PGRMM,WGS 84*06
MSG 0 38825.829 $GPRMC,144826,A,4303.0299,N,07037.7915,W,000.2,048.3,030712,016.1,W*78
POS 0 38906.000 367260.529 4767711.571
QUA 0 38906.000 7 9.000 1.000 8.000 1.000 0.000 0.000 0.000
RAW 0 38906.000 4 430302.99000 -703779.15000 -20.40000 144826.00000
MSG 0 38825.979 $GPGGA,144826,4303.0299,N,07037.7915,W,1,08,1.0,12.0,M,-32.4,M,,*40
MSG 0 38826.123 $GPGSA,A,3,,14,16,20,,,25,29,30,31,32,,2.1,1.0,1.8*35
MSG 0 38826.237 $GPGSV,3,3,11,30,56,207,48,31,70,026,50,32,46,265,47*45
MSG 0 38826.356 $PGRME,4.6,M,8.6,M,9.7,M*2C
MSG 0 38826.417 $PGRMB,0.0,200,,,,K,,N,N*31
MSG 0 38826.477 $PGRMM,WGS 84*06
MSG 0 38826.834 $GPRMC,144827,A,4303.0299,N,07037.7910,W,000.8,086.0,030712,016.1,W*77
POS 0 38907.000 367261.208 4767711.558
QUA 0 38907.000 7 9.000 1.000 8.000 1.000 0.000 0.000 0.000
RAW 0 38907.000 4 430302.99000 -703779.10000 -20.40000 144827.00000
MSG 0 38826.984 $GPGGA,144827,4303.0299,N,07037.7910,W,1,08,1.0,12.0,M,-32.4,M,,*44
MSG 0 38827.127 $GPGSA,A,3,,14,16,20,,,25,29,30,31,32,,2.1,1.0,1.8*35
MSG 0 38827.242 $GPGSV,3,1,11,11,00,247,34,14,36,124,49,16,27,207,45,20,30,296,46*7F
MSG 0 38827.387 $PGRME,4.6,M,8.6,M,9.7,M*2C
MSG 0 38827.448 $PGRMB,0.0,200,,,,K,,N,N*31
MSG 0 38827.508 $PGRMM,WGS 84*06
MSG 0 38827.834 $GPRMC,144828,A,4303.0299,N,07037.7911,W,000.3,088.0,030712,016.1,W*7C
POS 0 38908.000 367261.072 4767711.561
QUA 0 38908.000 7 9.000 1.000 8.000 1.000 0.000 0.000 0.000
RAW 0 38908.000 4 430302.99000 -703779.11000 -20.10000 144828.00000
MSG 0 38827.984 $GPGGA,144828,4303.0299,N,07037.7911,W,1,08,1.0,12.3,M,-32.4,M,,*49
MSG 0 38828.127 $GPGSA,A,3,,14,16,20,,,25,29,30,31,32,,2.1,1.0,1.8*35
MSG 0 38828.242 $GPGSV,3,2,11,22,00,171,00,23,11,309,37,25,27,046,45,29,24,078,47*70
MSG 0 38828.387 $PGRME,4.6,M,8.6,M,9.7,M*2C
MSG 0 38828.448 $PGRMB,0.0,200,,,,K,,N,N*31
MSG 0 38828.508 $PGRMM,WGS 84*06
MSG 0 38828.817 $GPRMC,144829,A,4303.0301,N,07037.7912,W,000.4,005.3,030712,016.1,W*7F
POS 0 38909.000 367260.944 4767711.934
QUA 0 38909.000 7 9.000 1.000 8.000 1.000 0.000 0.000 0.000
RAW 0 38909.000 4 430303.01000 -703779.12000 -20.10000 144829.00000
MSG 0 38828.967 $GPGGA,144829,4303.0301,N,07037.7912,W,1,08,1.0,12.3,M,-32.4,M,,*4B
MSG 0 38829.110 $GPGSA,A,3,,14,16,20,,,25,29,30,31,32,,2.1,1.0,1.8*35
MSG 0 38829.225 $GPGSV,3,3,11,30,56,207,49,31,70,026,50,32,46,265,47*44
MSG 0 38829.344 $PGRME,4.6,M,8.6,M,9.7,M*2C
MSG 0 38829.404 $PGRMB,0.0,200,,,,K,,N,N*31
MSG 0 38829.464 $PGRMM,WGS 84*06
MSG 0 38829.825 $GPRMC,144830,A,4303.0300,N,07037.7906,W,000.8,091.4,030712,016.1,W*75
POS 0 38910.000 367261.754 4767711.733
QUA 0 38910.000 7 9.000 1.000 8.000 1.000 0.000 0.000 0.000
RAW 0 38910.000 4 430303.00000 -703779.06000 -20.50000 144830.00000
MSG 0 38829.975 $GPGGA,144830,4303.0300,N,07037.7906,W,1,08,1.0,11.9,M,-32.4,M,,*4E
MSG 0 38830.119 $GPGSA,A,3,,14,16,20,,,25,29,30,31,32,,2.1,1.0,1.8*35
MSG 0 38830.233 $GPGSV,3,1,11,11,00,247,33,14,35,125,49,16,27,207,45,20,30,296,46*7A
MSG 0 38830.379 $PGRME,4.6,M,8.6,M,9.7,M*2C
MSG 0 38830.439 $PGRMB,0.0,200,,,,K,,N,N*31
MSG 0 38830.500 $PGRMM,WGS 84*06
MSG 0 38830.830 $GPRMC,144831,A,4303.0301,N,07037.7904,W,000.6,081.3,030712,016.1,W*7F
POS 0 38911.000 367262.030 4767711.913
QUA 0 38911.000 7 9.000 1.000 8.000 1.000 0.000 0.000 0.000
RAW 0 38911.000 4 430303.01000 -703779.04000 -20.50000 144831.00000
MSG 0 38830.979 $GPGGA,144831,4303.0301,N,07037.7904,W,1,08,1.0,11.9,M,-32.4,M,,*4C
MSG 0 38831.123 $GPGSA,A,3,,14,16,20,,,25,29,30,31,32,,2.1,1.0,1.8*35
MSG 0 38831.238 $GPGSV,3,2,11,22,00,171,00,23,11,309,37,25,27,046,45,29,24,078,47*70
MSG 0 38831.383 $PGRME,4.6,M,8.6,M,9.7,M*2C
MSG 0 38831.444 $PGRMB,0.0,200,,,,K,,N,N*31
MSG 0 38831.504 $PGRMM,WGS 84*06
MSG 0 38831.810 $GPRMC,144832,A,4303.0300,N,07037.7906,W,000.0,081.3,030712,016.1,W*79
POS 0 38912.000 367261.754 4767711.733
QUA 0 38912.000 7 9.000 1.000 8.000 1.000 0.000 0.000 0.000
RAW 0 38912.000 4 430303.00000 -703779.06000 -20.20000 144832.00000
MSG 0 38831.960 $GPGGA,144832,4303.0300,N,07037.7906,W,1,08,1.0,12.2,M,-32.4,M,,*44
MSG 0 38832.103 $GPGSA,A,3,,14,16,20,,,25,29,30,31,32,,2.1,1.0,1.8*35
MSG 0 38832.218 $GPGSV,3,3,11,30,56,207,49,31,70,026,50,32,46,265,47*44
MSG 0 38832.337 $PGRME,4.6,M,8.6,M,9.7,M*2C
MSG 0 38832.397 $PGRMB,0.0,200,,,,K,,N,N*31
MSG 0 38832.457 $PGRMM,WGS 84*06
MSG 0 38832.841 $GPRMC,144833,A,4303.0300,N,07037.7904,W,000.6,085.7,030712,016.1,W*7C
POS 0 38913.000 367262.026 4767711.727
QUA 0 38913.000 7 9.000 1.000 8.000 1.000 0.000 0.000 0.000
RAW 0 38913.000 4 430303.00000 -703779.04000 -20.10000 144833.00000
MSG 0 38832.991 $GPGGA,144833,4303.0300,N,07037.7904,W,1,08,1.0,12.3,M,-32.4,M,,*46
MSG 0 38833.134 $GPGSA,A,3,,14,16,20,,,25,29,30,31,32,,2.1,1.0,1.8*35
MSG 0 38833.249 $GPGSV,3,1,11,11,00,247,34,14,35,125,49,16,27,207,46,20,30,296,46*7E
MSG 0 38833.394 $PGRME,4.6,M,8.6,M,9.7,M*2C
MSG 0 38833.455 $PGRMB,0.0,200,,,,K,,N,N*31
MSG 0 38833.515 $PGRMM,WGS 84*06
MSG 0 38833.815 $GPRMC,144834,A,4303.0301,N,07037.7898,W,000.8,080.9,030712,016.1,W*7B
POS 0 38914.000 367262.844 4767711.897
QUA 0 38914.000 7 9.000 1.000 8.000 1.000 0.000 0.000 0.000
RAW 0 38914.000 4 430303.01000 -703778.98000 -19.90000 144834.00000
MSG 0 38833.965 $GPGGA,144834,4303.0301,N,07037.7898,W,1,08,1.0,12.5,M,-32.4,M,,*42
MSG 0 38834.109 $GPGSA,A,3,,14,16,20,,,25,29,30,31,32,,2.1,1.0,1.8*35
MSG 0 38834.224 $GPGSV,3,2,11,22,00,171,00,23,11,309,36,25,27,046,45,29,24,078,47*71
MSG 0 38834.369 $PGRME,4.6,M,8.6,M,9.7,M*2C
MSG 0 38834.430 $PGRMT,GPS 17-HVS Ver. 2.80,P,P,R,R,P,,40,R*0F
MSG 0 38834.530 $PGRMB,0.0,200,,,,K,,N,N*31
MSG 0 38834.590 $PGRMM,WGS 84*06
MSG 0 38834.814 $GPRMC,144835,A,4303.0302,N,07037.7902,W,000.3,339.5,030712,016.1,W*7D
POS 0 38915.000 367262.305 4767712.092
QUA 0 38915.000 7 9.000 1.000 8.000 1.000 0.000 0.000 0.000
RAW 0 38915.000 4 430303.02000 -703779.02000 -20.00000 144835.00000
MSG 0 38834.964 $GPGGA,144835,4303.0302,N,07037.7902,W,1,08,1.0,12.4,M,-32.4,M,,*43
MSG 0 38835.108 $GPGSA,A,3,,14,16,20,,,25,29,30,31,32,,2.1,1.0,1.8*35
MSG 0 38835.222 $GPGSV,3,3,11,30,56,207,49,31,70,026,50,32,46,265,47*44
MSG 0 38835.341 $PGRME,4.6,M,8.6,M,9.7,M*2C
MSG 0 38835.401 $PGRMB,0.0,200,,,,K,,N,N*31
MSG 0 38835.462 $PGRMM,WGS 84*06
MSG 0 38835.816 $GPRMC,144836,A,4303.0303,N,07037.7900,W,000.3,046.0,030712,016.1,W*73
POS 0 38916.000 367262.580 4767712.272
QUA 0 38916.000 7 9.000 1.000 8.000 1.000 0.000 0.000 0.000
RAW 0 38916.000 4 430303.03000 -703779.00000 -20.20000 144836.00000
MSG 0 38835.965 $GPGGA,144836,4303.0303,N,07037.7900,W,1,08,1.0,12.2,M,-32.4,M,,*45
MSG 0 38836.109 $GPGSA,A,3,,14,16,20,,,25,29,30,31,32,,2.1,1.0,1.8*35
MSG 0 38836.224 $GPGSV,3,1,11,11,00,247,33,14,35,125,49,16,27,207,46,20,30,296,46*79
MSG 0 38836.369 $PGRME,4.6,M,8.6,M,9.7,M*2C
MSG 0 38836.430 $PGRMB,0.0,200,,,,K,,N,N*31
MSG 0 38836.490 $PGRMM,WGS 84*06
MSG 0 38836.815 $GPRMC,144837,A,4303.0302,N,07037.7894,W,000.9,093.5,030712,016.1,W*78
POS 0 38917.000 367263.391 4767712.071
QUA 0 38917.000 7 9.000 1.000 8.000 1.000 0.000 0.000 0.000
RAW 0 38917.000 4 430303.02000 -703778.94000 -20.30000 144837.00000
MSG 0 38836.965 $GPGGA,144837,4303.0302,N,07037.7894,W,1,08,1.0,12.1,M,-32.4,M,,*4A
MSG 0 38837.109 $GPGSA,A,3,,14,16,20,,,25,29,30,31,32,,2.1,1.0,1.8*35
MSG 0 38837.223 $GPGSV,3,2,11,22,00,171,00,23,11,309,37,25,27,046,46,29,24,078,48*7C
MSG 0 38837.369 $PGRME,4.6,M,8.6,M,9.7,M*2C
MSG 0 38837.430 $PGRMB,0.0,200,,,,K,,N,N*31
MSG 0 38837.490 $PGRMM,WGS 84*06
MSG 0 38837.816 $GPRMC,144838,A,4303.0302,N,07037.7896,W,000.2,088.9,030712,016.1,W*78
POS 0 38918.000 367263.119 4767712.077
QUA 0 38918.000 7 9.000 1.000 8.000 1.000 0.000 0.000 0.000
RAW 0 38918.000 4 430303.02000 -703778.96000 -20.10000 144838.00000
MSG 0 38837.966 $GPGGA,144838,4303.0302,N,07037.7896,W,1,08,1.0,12.3,M,-32.4,M,,*45
MSG 0 38838.109 $GPGSA,A,3,,14,16,20,,,25,29,30,31,32,,2.1,1.0,1.9*34
MSG 0 38838.224 $GPGSV,3,3,11,30,56,207,49,31,70,026,50,32,46,265,47*44
MSG 0 38838.343 $PGRME,4.6,M,8.6,M,9.7,M*2C
MSG 0 38838.403 $PGRMB,0.0,200,,,,K,,N,N*31
MSG 0 38838.463 $PGRMM,WGS 84*06
MSG 0 38838.815 $GPRMC,144839,A,4303.0302,N,07037.7895,W,000.2,088.9,030712,016.1,W*7A
POS 0 38919.000 367263.255 4767712.074
QUA 0 38919.000 7 9.000 1.000 8.000 1.000 0.000 0.000 0.000
RAW 0 38919.000 4 430303.02000 -703778.95000 -19.90000 144839.00000
MSG 0 38838.964 $GPGGA,144839,4303.0302,N,07037.7895,W,1,08,1.0,12.5,M,-32.4,M,,*41
MSG 0 38839.108 $GPGSA,A,3,,14,16,20,,,25,29,30,31,32,,2.1,1.0,1.9*34
MSG 0 38839.223 $GPGSV,3,1,11,11,00,247,34,14,35,125,49,16,28,208,46,20,30,296,46*7E
MSG 0 38839.368 $PGRME,4.6,M,8.6,M,9.7,M*2C
MSG 0 38839.429 $PGRMB,0.0,200,,,,K,,N,N*31
MSG 0 38839.489 $PGRMM,WGS 84*06
MSG 0 38839.815 $GPRMC,144840,A,4303.0302,N,07037.7889,W,000.9,088.7,030712,016.1,W*7C
POS 0 38920.000 367264.069 4767712.058
QUA 0 38920.000 7 9.000 1.000 8.000 1.000 0.000 0.000 0.000
RAW 0 38920.000 4 430303.02000 -703778.89000 -20.10000 144840.00000
MSG 0 38839.965 $GPGGA,144840,4303.0302,N,07037.7889,W,1,08,1.0,12.3,M,-32.4,M,,*44
MSG 0 38840.109 $GPGSA,A,3,,14,16,20,,,25,29,30,31,32,,2.1,1.0,1.9*34
MSG 0 38840.223 $GPGSV,3,2,11,22,00,171,00,23,11,309,37,25,27,046,46,29,24,078,48*7C
MSG 0 38840.369 $PGRME,4.6,M,8.6,M,9.7,M*2C
MSG 0 38840.429 $PGRMB,0.0,200,,,,K,,N,N*31
MSG 0 38840.490 $PGRMM,WGS 84*06
MSG 0 38840.819 $GPRMC,144841,A,4303.0303,N,07037.7889,W,000.4,074.5,030712,016.1,W*70
POS 0 38921.000 367264.073 4767712.243
QUA 0 38921.000 7 9.000 1.000 8.000 1.000 0.000 0.000 0.000
RAW 0 38921.000 4 430303.03000 -703778.89000 -20.20000 144841.00000
MSG 0 38840.969 $GPGGA,144841,4303.0303,N,07037.7889,W,1,08,1.0,12.2,M,-32.4,M,,*45
MSG 0 38841.112 $GPGSA,A,3,,14,16,20,,,25,29,30,31,32,,2.1,1.0,1.9*34
MSG 0 38841.227 $GPGSV,3,3,11,30,56,207,49,31,70,026,50,32,46,265,47*44
MSG 0 38841.345 $PGRME,4.6,M,8.6,M,9.7,M*2C
MSG 0 38841.406 $PGRMB,0.0,200,,,,K,,N,N*31
MSG 0 38841.466 $PGRMM,WGS 84*06
MSG 0 38841.820 $GPRMC,144842,A,4303.0303,N,07037.7890,W,000.2,074.5,030712,016.1,W*7D
POS 0 38922.000 367263.937 4767712.246
QUA 0 38922.000 7 9.000 1.000 8.000 1.000 0.000 0.000 0.000
RAW 0 38922.000 4 430303.03000 -703778.90000 -20.10000 144842.00000
MSG 0 38841.970 $GPGGA,144842,4303.0303,N,07037.7890,W,1,08,1.0,12.3,M,-32.4,M,,*4F
MSG 0 38842.114 $GPGSA,A,3,,14,16,20,,,25,29,30,31,32,,2.1,1.0,1.9*34
MSG 0 38842.228 $GPGSV,3,1,11,11,00,247,34,14,35,125,49,16,28,208,46,20,30,296,46*7E
MSG 0 38842.374 $PGRME,4.6,M,8.6,M,9.7,M*2C
MSG 0 38842.434 $PGRMB,0.0,200,,,,K,,N,N*31
MSG 0 38842.495 $PGRMM,WGS 84*06
MSG 0 38842.814 $GPRMC,144843,A,4303.0303,N,07037.7885,W,000.7,090.6,030712,016.1,W*74
POS 0 38923.000 367264.616 4767712.233
QUA 0 38923.000 7 9.000 1.000 8.000 1.000 0.000 0.000 0.000
RAW 0 38923.000 4 430303.03000 -703778.85000 -20.30000 144843.00000
MSG 0 38842.964 $GPGGA,144843,4303.0303,N,07037.7885,W,1,08,1.0,12.1,M,-32.4,M,,*48
MSG 0 38843.107 $GPGSA,A,3,,14,16,20,,,25,29,30,31,32,,2.1,1.0,1.9*34
MSG 0 38843.222 $GPGSV,3,2,11,22,00,171,00,23,11,309,37,25,27,046,45,29,24,078,48*7F
MSG 0 38843.368 $PGRME,4.6,M,8.6,M,9.7,M*2C
MSG 0 38843.428 $PGRMB,0.0,200,,,,K,,N,N*31
MSG 0 38843.488 $PGRMM,WGS 84*06
MSG 0 38843.817 $GPRMC,144844,A,4303.0303,N,07037.7881,W,000.8,082.4,030712,016.1,W*79
POS 0 38924.000 367265.159 4767712.222
QUA 0 38924.000 7 9.000 1.000 8.000 1.000 0.000 0.000 0.000
RAW 0 38924.000 4 430303.03000 -703778.81000 -20.00000 144844.00000
MSG 0 38843.967 $GPGGA,144844,4303.0303,N,07037.7881,W,1,08,1.0,12.4,M,-32.4,M,,*4E
MSG 0 38844.111 $GPGSA,A,3,,14,16,20,,,25,29,30,31,32,,2.1,1.0,1.9*34
MSG 0 38844.226 $GPGSV,3,3,11,30,56,207,49,31,70,026,50,32,46,265,47*44
MSG 0 38844.344 $PGRME,4.6,M,8.6,M,9.7,M*2C
MSG 0 38844.405 $PGRMB,0.0,200,,,,K,,N,N*31
MSG 0 38844.465 $PGRMM,WGS 84*06
MSG 0 38844.812 $GPRMC,144845,A,4303.0304,N,07037.7885,W,000.1,082.4,030712,016.1,W*72
POS 0 38925.000 367264.619 4767712.418
QUA 0 38925.000 7 9.000 1.000 8.000 1.000 0.000 0.000 0.000
RAW 0 38925.000 4 430303.04000 -703778.85000 -19.80000 144845.00000
MSG 0 38844.962 $GPGGA,144845,4303.0304,N,07037.7885,W,1,08,1.0,12.6,M,-32.4,M,,*4E
MSG 0 38845.105 $GPGSA,A,3,,14,16,20,,,25,29,30,31,32,,2.1,1.0,1.9*34
MSG 0 38845.220 $GPGSV,3,1,11,11,00,247,34,14,35,125,49,16,28,208,46,20,30,296,47*7F
MSG 0 38845.366 $PGRME,4.6,M,8.6,M,9.7,M*2C
MSG 0 38845.426 $PGRMB,0.0,200,,,,K,,N,N*31
MSG 0 38845.486 $PGRMM,WGS 84*06
MSG 0 38845.816 $GPRMC,144846,A,4303.0304,N,07037.7883,W,000.3,053.6,030712,016.1,W*7B
POS 0 38926.000 367264.891 4767712.412
QUA 0 38926.000 7 9.000 1.000 8.000 1.000 0.000 0.000 0.000
RAW 0 38926.000 4 430303.04000 -703778.83000 -19.90000 144846.00000
MSG 0 38845.966 $GPGGA,144846,4303.0304,N,07037.7883,W,1,08,1.0,12.5,M,-32.4,M,,*48
MSG 0 38846.110 $GPGSA,A,3,,14,16,20,,,25,29,30,31,32,,2.1,1.0,1.9*34
MSG 0 38846.225 $GPGSV,3,2,11,22,00,171,00,23,11,309,37,25,27,046,45,29,24,078,47*70
MSG 0 38846.370 $PGRME,4.6,M,8.6,M,9.7,M*2C
MSG 0 38846.431 $PGRMB,0.0,200,,,,K,,N,N*31
MSG 0 38846.491 $PGRMM,WGS 84*06
MSG 0 38846.815 $GPRMC,144847,A,4303.0304,N,07037.7876,W,001.0,089.4,030712,016.1,W*77
POS 0 38927.000 367265.841 4767712.394
QUA 0 38927.000 7 9.000 1.000 8.000 1.000 0.000 0.000 0.000
RAW 0 38927.000 4 430303.04000 -703778.76000 -19.90000 144847.00000
MSG 0 38846.965 $GPGGA,144847,4303.0304,N,07037.7876,W,1,08,1.0,12.5,M,-32.4,M,,*43
MSG 0 38847.108 $GPGSA,A,3,,14,16,20,,,25,29,30,31,32,,2.1,1.0,1.9*34
MSG 0 38847.223 $GPGSV,3,3,11,30,56,207,49,31,70,026,50,32,46,265,47*44
MSG 0 38847.341 $PGRME,4.6,M,8.6,M,9.7,M*2C
MSG 0 38847.402 $PGRMB,0.0,200,,,,K,,N,N*31
MSG 0 38847.462 $PGRMM,WGS 84*06
MSG 0 38847.826 $GPRMC,144848,A,4303.0304,N,07037.7880,W,000.0,089.4,030712,016.1,W*70
POS 0 38928.000 367265.298 4767712.405
QUA 0 38928.000 7 9.000 1.000 8.000 1.000 0.000 0.000 0.000
RAW 0 38928.000 4 430303.04000 -703778.80000 -19.90000 144848.00000
MSG 0 38847.976 $GPGGA,144848,4303.0304,N,07037.7880,W,1,08,1.0,12.5,M,-32.4,M,,*45
MSG 0 38848.120 $GPGSA,A,3,,14,16,20,,,25,29,30,31,32,,2.1,1.0,1.9*34
MSG 0 38848.235 $GPGSV,3,1,11,11,00,247,34,14,35,125,49,16,28,208,46,20,30,296,47*7F
MSG 0 38848.380 $PGRME,4.6,M,8.6,M,9.7,M*2C
MSG 0 38848.441 $PGRMB,0.0,200,,,,K,,N,N*31
MSG 0 38848.501 $PGRMM,WGS 84*06
MSG 0 38848.824 $GPRMC,144849,A,4303.0304,N,07037.7880,W,000.0,089.4,030712,016.1,W*71
POS 0 38929.000 367265.298 4767712.405
QUA 0 38929.000 7 9.000 1.000 8.000 1.000 0.000 0.000 0.000
RAW 0 38929.000 4 430303.04000 -703778.80000 -19.90000 144849.00000
MSG 0 38848.974 $GPGGA,144849,4303.0304,N,07037.7880,W,1,08,1.0,12.5,M,-32.4,M,,*44
MSG 0 38849.118 $GPGSA,A,3,,14,16,20,,,25,29,30,31,32,,2.1,1.0,1.9*34
MSG 0 38849.232 $GPGSV,3,2,11,22,00,171,00,23,11,309,37,25,27,046,44,29,24,078,47*71
MSG 0 38849.378 $PGRME,4.6,M,8.6,M,9.7,M*2C
MSG 0 38849.438 $PGRMB,0.0,200,,,,K,,N,N*31
MSG 0 38849.499 $PGRMM,WGS 84*06
MSG 0 38849.813 $GPRMC,144850,A,4303.0304,N,07037.7876,W,000.9,087.8,030712,016.1,W*7B
POS 0 38930.000 367265.841 4767712.394
QUA 0 38930.000 7 9.000 1.000 8.000 1.000 0.000 0.000 0.000
RAW 0 38930.000 4 430303.04000 -703778.76000 -20.30000 144850.00000
MSG 0 38849.963 $GPGGA,144850,4303.0304,N,07037.7876,W,1,08,1.0,12.1,M,-32.4,M,,*41
MSG 0 38850.107 $GPGSA,A,3,,14,16,20,,,25,29,30,31,32,,2.1,1.0,1.9*34
MSG 0 38850.222 $GPGSV,3,3,11,30,56,207,49,31,70,026,50,32,46,265,47*44
MSG 0 38850.340 $PGRME,4.6,M,8.6,M,9.7,M*2C
MSG 0 38850.401 $PGRMB,0.0,200,,,,K,,N,N*31
MSG 0 38850.461 $PGRMM,WGS 84*06
MSG 0 38850.832 $GPRMC,144851,A,4303.0305,N,07037.7872,W,000.6,082.6,030712,016.1,W*7B
POS 0 38931.000 367266.388 4767712.569
QUA 0 38931.000 7 9.000 1.000 8.000 1.000 0.000 0.000 0.000
RAW 0 38931.000 4 430303.05000 -703778.72000 -20.20000 144851.00000
MSG 0 38850.982 $GPGGA,144851,4303.0305,N,07037.7872,W,1,08,1.0,12.2,M,-32.4,M,,*46
MSG 0 38851.126 $GPGSA,A,3,,14,16,20,,,25,29,30,31,32,,2.1,1.0,1.9*34
MSG 0 38851.240 $GPGSV,3,1,11,11,00,247,33,14,35,125,49,16,28,208,46,20,30,296,46*79
MSG 0 38851.386 $PGRME,4.6,M,8.6,M,9.7,M*2C
MSG 0 38851.446 $PGRMB,0.0,200,,,,K,,N,N*31
MSG 0 38851.507 $PGRMM,WGS 84*06
MSG 0 38851.810 $GPRMC,144852,A,4303.0304,N,07037.7874,W,000.0,082.6,030712,016.1,W*79
POS 0 38932.000 367266.112 4767712.389
QUA 0 38932.000 7 9.000 1.000 8.000 1.000 0.000 0.000 0.000
RAW 0 38932.000 4 430303.04000 -703778.74000 -20.00000 144852.00000
MSG 0 38851.960 $GPGGA,144852,4303.0304,N,07037.7874,W,1,08,1.0,12.4,M,-32.4,M,,*44
MSG 0 38852.103 $GPGSA,A,3,,14,16,20,,,25,29,30,31,32,,2.1,1.0,1.9*34
MSG 0 38852.218 $GPGSV,3,2,11,22,00,171,00,23,11,309,37,25,27,046,45,29,24,078,47*70
MSG 0 38852.364 $PGRME,4.6,M,8.6,M,9.7,M*2C
MSG 0 38852.424 $PGRMB,0.0,200,,,,K,,N,N*31
MSG 0 38852.485 $PGRMM,WGS 84*06
MSG 0 38852.815 $GPRMC,144853,A,4303.0305,N,07037.7871,W,000.6,079.6,030712,016.1,W*7E
POS 0 38933.000 367266.523 4767712.566
QUA 0 38933.000 7 9.000 1.000 8.000 1.000 0.000 0.000 0.000
RAW 0 38933.000 4 430303.05000 -703778.71000 -20.10000 144853.00000
MSG 0 38852.965 $GPGGA,144853,4303.0305,N,07037.7871,W,1,08,1.0,12.3,M,-32.4,M,,*46
MSG 0 38853.108 $GPGSA,A,3,,14,16,20,,,25,29,30,31,32,,2.1,1.0,1.9*34
MSG 0 38853.223 $GPGSV,3,3,11,30,56,207,49,31,70,026,50,32,46,265,46*45
MSG 0 38853.342 $PGRME,4.6,M,8.6,M,9.7,M*2C
MSG 0 38853.402 $PGRMB,0.0,200,,,,K,,N,N*31
MSG 0 38853.462 $PGRMM,WGS 84*06
MSG 0 38853.816 $GPRMC,144854,A,4303.0304,N,07037.7865,W,000.8,101.2,030712,016.1,W*79
POS 0 38934.000 367267.334 4767712.365
QUA 0 38934.000 7 9.000 1.000 8.000 1.000 0.000 0.000 0.000
RAW 0 38934.000 4 430303.04000 -703778.65000 -20.10000 144854.00000
MSG 0 38853.966 $GPGGA,144854,4303.0304,N,07037.7865,W,1,08,1.0,12.3,M,-32.4,M,,*45
MSG 0 38854.109 $GPGSA,A,3,,14,16,20,,,25,29,30,31,32,,2.1,1.0,1.9*34
MSG 0 38854.224 $GPGSV,3,1,11,11,00,247,33,14,35,125,49,16,28,208,46,20,30,295,46*7A
MSG 0 38854.370 $PGRME,4.6,M,8.6,M,9.7,M*2C
MSG 0 38854.430 $PGRMB,0.0,200,,,,K,,N,N*31
MSG 0 38854.490 $PGRMM,WGS 84*06
MSG 0 38854.809 $GPRMC,144855,A,4303.0305,N,07037.7868,W,000.0,101.2,030712,016.1,W*7C
POS 0 38935.000 367266.931 4767712.558
QUA 0 38935.000 7 9.000 1.000 8.000 1.000 0.000 0.000 0.000
RAW 0 38935.000 4 430303.05000 -703778.68000 -20.00000 144855.00000
MSG 0 38854.959 $GPGGA,144855,4303.0305,N,07037.7868,W,1,08,1.0,12.4,M,-32.4,M,,*4F
MSG 0 38855.103 $GPGSA,A,3,,14,16,20,,,25,29,30,31,32,,2.1,1.0,1.9*34
MSG 0 38855.217 $GPGSV,3,2,11,22,00,171,00,23,11,309,37,25,27,046,45,29,24,078,47*70
MSG 0 38855.363 $PGRME,4.6,M,8.6,M,9.7,M*2C
MSG 0 38855.424 $PGRMB,0.0,200,,,,K,,N,N*31
MSG 0 38855.484 $PGRMM,WGS 84*06
MSG 0 38855.815 $GPRMC,144856,A,4303.0304,N,07037.7868,W,000.2,101.2,030712,016.1,W*7C
POS 0 38936.000 367266.927 4767712.373
QUA 0 38936.000 7 9.000 1.000 8.000 1.000 0.000 0.000 0.000
RAW 0 38936.000 4 430303.04000 -703778.68000 -20.10000 144856.00000
MSG 0 38855.965 $GPGGA,144856,4303.0304,N,07037.7868,W,1,08,1.0,12.3,M,-32.4,M,,*4A
MSG 0 38856.108 $GPGSA,A,3,,14,16,20,,,25,29,30,31,32,,2.1,1.0,1.9*34
MSG 0 38856.223 $GPGSV,3,3,11,30,56,207,49,31,70,026,50,32,46,265,47*44
MSG 0 38856.341 $PGRME,4.6,M,8.6,M,9.7,M*2C
MSG 0 38856.402 $PGRMB,0.0,200,,,,K,,N,N*31
MSG 0 38856.462 $PGRMM,WGS 84*06
MSG 0 38856.830 $GPRMC,144857,A,4303.0304,N,07037.7861,W,000.9,090.7,030712,016.1,W*73
POS 0 38937.000 367267.877 4767712.354
QUA 0 38937.000 7 9.000 1.000 8.000 1.000 0.000 0.000 0.000
RAW 0 38937.000 4 430303.04000 -703778.61000 -20.30000 144857.00000
MSG 0 38856.980 $GPGGA,144857,4303.0304,N,07037.7861,W,1,08,1.0,12.1,M,-32.4,M,,*40
MSG 0 38857.123 $GPGSA,A,3,,14,16,20,,,25,29,30,31,32,,2.1,1.0,1.9*34
MSG 0 38857.238 $GPGSV,3,1,11,11,00,247,33,14,35,125,49,16,28,208,45,20,30,295,46*79
MSG 0 38857.383 $PGRME,4.6,M,8.6,M,9.7,M*2C
MSG 0 38857.444 $PGRMB,0.0,200,,,,K,,N,N*31
MSG 0 38857.504 $PGRMM,WGS 84*06
MSG 0 38857.815 $GPRMC,144858,A,4303.0304,N,07037.7861,W,000.5,089.0,030712,016.1,W*7F
POS 0 38938.000 367267.877 4767712.354
QUA 0 38938.000 7 9.000 1.000 8.000 1.000 0.000 0.000 0.000
RAW 0 38938.000 4 430303.04000 -703778.61000 -20.20000 144858.00000
MSG 0 38857.965 $GPGGA,144858,4303.0304,N,07037.7861,W,1,08,1.0,12.2,M,-32.4,M,,*4C
MSG 0 38858.108 $GPGSA,A,3,,14,16,20,,,25,29,30,31,32,,2.1,1.0,1.9*34
MSG 0 38858.223 $GPGSV,3,2,11,22,00,171,00,23,11,309,37,25,27,046,45,29,24,078,46*71
MSG 0 38858.369 $PGRME,4.6,M,8.6,M,9.7,M*2C
MSG 0 38858.429 $PGRMB,0.0,200,,,,K,,N,N*31
MSG 0 38858.489 $PGRMM,WGS 84*06
MSG 0 38858.815 $GPRMC,144859,A,4303.0304,N,07037.7862,W,000.1,089.0,030712,016.1,W*79
POS 0 38939.000 367267.741 4767712.357
QUA 0 38939.000 7 9.000 1.000 8.000 1.000 0.000 0.000 0.000
RAW 0 38939.000 4 430303.04000 -703778.62000 -20.30000 144859.00000
MSG 0 38858.965 $GPGGA,144859,4303.0304,N,07037.7862,W,1,08,1.0,12.1,M,-32.4,M,,*4D
MSG 0 38859.109 $GPGSA,A,3,,14,16,20,,,25,29,30,31,32,,2.1,1.0,1.9*34
MSG 0 38859.223 $GPGSV,3,3,11,30,56,207,49,31,70,026,50,32,46,265,47*44
MSG 0 38859.342 $PGRME,4.6,M,8.6,M,9.7,M*2C
MSG 0 38859.402 $PGRMB,0.0,200,,,,K,,N,N*31
MSG 0 38859.463 $PGRMM,WGS 84*06
MSG 0 38859.818 $GPRMC,144900,A,4303.0304,N,07037.7857,W,000.7,100.5,030712,016.1,W*71
POS 0 38940.000 367268.420 4767712.344
QUA 0 38940.000 7 9.000 1.000 8.000 1.000 0.000 0.000 0.000
RAW 0 38940.000 4 430303.04000 -703778.57000 -20.20000 144900.00000
MSG 0 38859.968 $GPGGA,144900,4303.0304,N,07037.7857,W,1,08,1.0,12.2,M,-32.4,M,,*45
MSG 0 38860.112 $GPGSA,A,3,,14,16,20,,25,29,30,31,32,,,2.1,1.0,1.9*34
MSG 0 38860.226 $GPGSV,3,1,10,11,00,247,33,14,35,125,49,16,28,208,46,20,30,295,46*7B
MSG 0 38860.372 $PGRME,4.6,M,8.6,M,9.7,M*2C
MSG 0 38860.432 $PGRMB,0.0,200,,,,K,,N,N*31
MSG 0 38860.493 $PGRMM,WGS 84*06
MSG 0 38860.805 $GPRMC,144901,A,4303.0303,N,07037.7854,W,000.7,099.7,030712,016.1,W*77
POS 0 38941.000 367268.824 4767712.151
QUA 0 38941.000 7 9.000 1.000 8.000 1.000 0.000 0.000 0.000
RAW 0 38941.000 4 430303.03000 -703778.54000 -19.80000 144901.00000
MSG 0 38860.955 $GPGGA,144901,4303.0303,N,07037.7854,W,1,08,1.0,12.6,M,-32.4,M,,*44
MSG 0 38861.099 $GPGSA,A,3,,14,16,20,,25,29,30,31,32,,,2.1,1.0,1.9*34
MSG 0 38861.213 $GPGSV,3,2,10,23,11,309,37,25,27,046,44,29,24,078,47,30,56,207,49*7F
MSG 0 38861.359 $PGRME,4.6,M,8.6,M,9.7,M*2C
MSG 0 38861.419 $PGRMB,0.0,200,,,,K,,N,N*31
MSG 0 38861.480 $PGRMM,WGS 84*06
MSG 0 38861.804 $GPRMC,144902,A,4303.0303,N,07037.7858,W,000.2,099.7,030712,016.1,W*7D
POS 0 38942.000 367268.281 4767712.161
QUA 0 38942.000 7 9.000 1.000 8.000 1.000 0.000 0.000 0.000
RAW 0 38942.000 4 430303.03000 -703778.58000 -19.60000 144902.00000
MSG 0 38861.954 $GPGGA,144902,4303.0303,N,07037.7858,W,1,08,1.0,12.8,M,-32.4,M,,*45
MSG 0 38862.098 $GPGSA,A,3,,14,16,20,,25,29,30,31,32,,,2.1,1.0,1.9*34
MSG 0 38862.212 $GPGSV,3,3,10,31,70,026,50,32,46,265,47*7D
MSG 0 38862.304 $PGRME,4.6,M,8.6,M,9.7,M*2C
MSG 0 38862.364 $PGRMB,0.0,200,,,,K,,N,N*31
MSG 0 38862.425 $PGRMM,WGS 84*06
MSG 0 38862.817 $GPRMC,144903,A,4303.0304,N,07037.7855,W,000.3,086.4,030712,016.1,W*7A
POS 0 38943.000 367268.692 4767712.339
QUA 0 38943.000 7 9.000 1.000 8.000 1.000 0.000 0.000 0.000
RAW 0 38943.000 4 430303.04000 -703778.55000 -20.00000 144903.00000
MSG 0 38862.967 $GPGGA,144903,4303.0304,N,07037.7855,W,1,08,1.0,12.4,M,-32.4,M,,*42
MSG 0 38863.111 $GPGSA,A,3,,14,16,20,,25,29,30,31,32,,,2.1,1.0,1.9*34
MSG 0 38863.225 $GPGSV,3,1,10,11,00,247,33,14,35,125,49,16,28,208,46,20,30,295,47*7A
MSG 0 38863.371 $PGRME,4.6,M,8.6,M,9.7,M*2C
MSG 0 38863.432 $PGRMB,0.0,200,,,,K,,N,N*31
MSG 0 38863.492 $PGRMM,WGS 84*06
MSG 0 38863.823 $GPRMC,144904,A,4303.0303,N,07037.7850,W,000.8,101.6,030712,016.1,W*78
POS 0 38944.000 367269.367 4767712.140
QUA 0 38944.000 7 9.000 1.000 8.000 1.000 0.000 0.000 0.000
RAW 0 38944.000 4 430303.03000 -703778.50000 -20.60000 144904.00000
MSG 0 38863.972 $GPGGA,144904,4303.0303,N,07037.7850,W,1,08,1.0,11.8,M,-32.4,M,,*48
MSG 0 38864.116 $GPGSA,A,3,,14,16,20,,25,29,30,31,32,,,2.1,1.0,1.9*34
MSG 0 38864.231 $GPGSV,3,2,10,23,12,309,37,25,27,046,45,29,24,078,47,30,56,207,49*7D
MSG 0 38864.376 $PGRME,4.6,M,8.5,M,9.7,M*2F
MSG 0 38864.437 $PGRMB,0.0,200,,,,K,,N,N*31
MSG 0 38864.497 $PGRMM,WGS 84*06
MSG 0 38864.804 $GPRMC,144905,A,4303.0302,N,07037.7851,W,000.3,109.1,030712,016.1,W*7D
POS 0 38945.000 367269.227 4767711.958
QUA 0 38945.000 7 9.000 1.000 8.000 1.000 0.000 0.000 0.000
RAW 0 38945.000 4 430303.02000 -703778.51000 -20.30000 144905.00000
MSG 0 38864.954 $GPGGA,144905,4303.0302,N,07037.7851,W,1,08,1.0,12.1,M,-32.4,M,,*43
MSG 0 38865.097 $GPGSA,A,3,,14,16,20,,25,29,30,31,32,,,2.1,1.0,1.9*34
MSG 0 38865.212 $GPGSV,3,3,10,31,70,026,50,32,46,265,48*72
MSG 0 38865.303 $PGRME,4.6,M,8.5,M,9.7,M*2F
MSG 0 38865.364 $PGRMB,0.0,200,,,,K,,N,N*31
MSG 0 38865.424 $PGRMM,WGS 84*06
MSG 0 38865.814 $GPRMC,144906,A,4303.0302,N,07037.7851,W,000.2,109.1,030712,016.1,W*7F
POS 0 38946.000 367269.227 4767711.958
QUA 0 38946.000 7 9.000 1.000 8.000 1.000 0.000 0.000 0.000
RAW 0 38946.000 4 430303.02000 -703778.51000 -20.20000 144906.00000
MSG 0 38865.964 $GPGGA,144906,4303.0302,N,07037.7851,W,1,08,1.0,12.2,M,-32.4,M,,*43
MSG 0 38866.108 $GPGSA,A,3,,14,16,20,,25,29,30,31,32,,,2.1,1.0,1.9*34
MSG 0 38866.223 $GPGSV,3,1,10,11,00,247,33,14,35,125,49,16,28,208,46,20,30,295,46*7B
MSG 0 38866.368 $PGRME,4.6,M,8.5,M,9.7,M*2F
MSG 0 38866.429 $PGRMB,0.0,200,,,,K,,N,N*31
MSG 0 38866.489 $PGRMM,WGS 84*06
MSG 0 38866.805 $GPRMC,144907,A,4303.0302,N,07037.7845,W,000.9,097.9,030712,016.1,W*7E
POS 0 38947.000 367270.042 4767711.942
QUA 0 38947.000 7 9.000 1.000 8.000 1.000 0.000 0.000 0.000
RAW 0 38947.000 4 430303.02000 -703778.45000 -20.10000 144907.00000
MSG 0 38866.955 $GPGGA,144907,4303.0302,N,07037.7845,W,1,08,1.0,12.3,M,-32.4,M,,*46
MSG 0 38867.099 $GPGSA,A,3,,14,16,20,,25,29,30,31,32,,,2.2,1.0,1.9*37
MSG 0 38867.213 $GPGSV,3,2,10,23,12,309,37,25,27,046,46,29,24,078,48,30,56,207,49*71
MSG 0 38867.359 $PGRME,4.6,M,8.5,M,9.7,M*2F
MSG 0 38867.419 $PGRMB,0.0,200,,,,K,,N,N*31
MSG 0 38867.480 $PGRMM,WGS 84*06
MSG 0 38867.817 $GPRMC,144908,A,4303.0303,N,07037.7845,W,000.5,081.2,030712,016.1,W*70
POS 0 38948.000 367270.045 4767712.127
QUA 0 38948.000 7 9.000 1.000 8.000 1.000 0.000 0.000 0.000
RAW 0 38948.000 4 430303.03000 -703778.45000 -19.90000 144908.00000
MSG 0 38867.967 $GPGGA,144908,4303.0303,N,07037.7845,W,1,08,1.0,12.5,M,-32.4,M,,*4E
MSG 0 38868.111 $GPGSA,A,3,,14,16,20,,25,29,30,31,32,,,2.2,1.0,1.9*37
MSG 0 38868.225 $GPGSV,3,3,10,31,70,026,50,32,46,265,47*7D
MSG 0 38868.317 $PGRME,4.6,M,8.5,M,9.7,M*2F
MSG 0 38868.377 $PGRMB,0.0,200,,,,K,,N,N*31
MSG 0 38868.438 $PGRMM,WGS 84*06
MSG 0 38868.803 $GPRMC,144909,A,4303.0301,N,07037.7845,W,000.3,134.4,030712,016.1,W*7C
POS 0 38949.000 367270.038 4767711.757
QUA 0 38949.000 7 9.000 1.000 8.000 1.000 0.000 0.000 0.000
RAW 0 38949.000 4 430303.01000 -703778.45000 -20.30000 144909.00000
MSG 0 38868.953 $GPGGA,144909,4303.0301,N,07037.7845,W,1,08,1.0,12.1,M,-32.4,M,,*49
MSG 0 38869.096 $GPGSA,A,3,,14,16,20,,25,29,30,31,32,,,2.2,1.0,1.9*37
MSG 0 38869.211 $GPGSV,3,1,10,11,00,247,33,14,35,125,48,16,28,208,47,20,30,295,46*7B
MSG 0 38869.357 $PGRME,4.6,M,8.5,M,9.7,M*2F
MSG 0 38869.417 $PGRMB,0.0,200,,,,K,,N,N*31
MSG 0 38869.478 $PGRMM,WGS 84*06
MSG 0 38869.818 $GPRMC,144910,A,4303.0301,N,07037.7843,W,000.4,115.7,030712,016.1,W*75
POS 0 38950.000 367270.310 4767711.752
QUA 0 38950.000 7 9.000 1.000 8.000 1.000 0.000 0.000 0.000
RAW 0 38950.000 4 430303.01000 -703778.43000 -20.50000 144910.00000
MSG 0 38869.968 $GPGGA,144910,4303.0301,N,07037.7843,W,1,08,1.0,11.9,M,-32.4,M,,*4C
MSG 0 38870.111 $GPGSA,A,3,,14,16,20,,25,29,30,31,32,,,2.2,1.0,1.9*37
MSG 0 38870.226 $GPGSV,3,2,10,23,12,309,37,25,27,046,46,29,24,078,48,30,56,207,49*71
MSG 0 38870.372 $PGRME,4.6,M,8.5,M,9.7,M*2F
MSG 0 38870.432 $PGRMB,0.0,200,,,,K,,N,N*31
MSG 0 38870.492 $PGRMM,WGS 84*06
MSG 0 38870.802 $GPRMC,144911,A,4303.0300,N,07037.7838,W,000.8,111.0,030712,016.1,W*76
POS 0 38951.000 367270.985 4767711.553
QUA 0 38951.000 7 9.000 1.000 8.000 1.000 0.000 0.000 0.000
RAW 0 38951.000 4 430303.00000 -703778.38000 -20.10000 144911.00000
MSG 0 38870.952 $GPGGA,144911,4303.0300,N,07037.7838,W,1,08,1.0,12.3,M,-32.4,M,,*49
MSG 0 38871.095 $GPGSA,A,3,,14,16,20,,25,29,30,31,32,,,2.2,1.0,1.9*37
MSG 0 38871.210 $GPGSV,3,3,10,31,70,026,50,32,46,265,47*7D
MSG 0 38871.301 $PGRME,4.6,M,8.5,M,9.7,M*2F
MSG 0 38871.362 $PGRMB,0.0,200,,,,K,,N,N*31
MSG 0 38871.422 $PGRMM,WGS 84*06
MSG 0 38871.820 $GPRMC,144912,A,4303.0300,N,07037.7840,W,000.2,111.0,030712,016.1,W*70
POS 0 38952.000 367270.713 4767711.559
QUA 0 38952.000 7 9.000 1.000 8.000 1.000 0.000 0.000 0.000
RAW 0 38952.000 4 430303.00000 -703778.40000 -19.70000 144912.00000
MSG 0 38871.970 $GPGGA,144912,4303.0300,N,07037.7840,W,1,08,1.0,12.7,M,-32.4,M,,*41
MSG 0 38872.113 $GPGSA,A,3,,14,16,20,,25,29,30,31,32,,,2.2,1.0,1.9*37
MSG 0 38872.228 $GPGSV,3,1,10,11,00,247,33,14,35,125,48,16,28,208,46,20,30,295,45*79
MSG 0 38872.374 $PGRME,4.6,M,8.5,M,9.7,M*2F
MSG 0 38872.434 $PGRMB,0.0,200,,,,K,,N,N*31
MSG 0 38872.494 $PGRMM,WGS 84*06
MSG 0 38872.798 $GPRMC,144913,A,4303.0301,N,07037.7841,W,000.0,111.0,030712,016.1,W*73
POS 0 38953.000 367270.581 4767711.746
QUA 0 38953.000 7 9.000 1.000 8.000 1.000 0.000 0.000 0.000
RAW 0 38953.000 4 430303.01000 -703778.41000 -19.90000 144913.00000
MSG 0 38872.948 $GPGGA,144913,4303.0301,N,07037.7841,W,1,08,1.0,12.5,M,-32.4,M,,*42
MSG 0 38873.092 $GPGSA,A,3,,14,16,20,,25,29,30,31,32,,,2.2,1.0,1.9*37
MSG 0 38873.206 $GPGSV,3,2,10,23,12,309,37,25,26,046,46,29,24,078,49,30,56,207,49*71
MSG 0 38873.352 $PGRME,4.6,M,8.5,M,9.7,M*2F
MSG 0 38873.412 $PGRMB,0.0,200,,,,K,,N,N*31
MSG 0 38873.473 $PGRMM,WGS 84*06
MSG 0 38873.816 $GPRMC,144914,A,4303.0301,N,07037.7838,W,000.9,086.5,030712,016.1,W*79
POS 0 38954.000 367270.988 4767711.739
QUA 0 38954.000 7 9.000 1.000 8.000 1.000 0.000 0.000 0.000
RAW 0 38954.000 4 430303.01000 -703778.38000 -20.30000 144914.00000
MSG 0 38873.966 $GPGGA,144914,4303.0301,N,07037.7838,W,1,08,1.0,12.1,M,-32.4,M,,*4F
MSG 0 38874.109 $GPGSA,A,3,,14,16,20,,25,29,30,31,32,,,2.2,1.0,1.9*37
MSG 0 38874.224 $GPGSV,3,3,10,31,70,026,49,32,46,265,48*7A
MSG 0 38874.315 $PGRME,4.6,M,8.5,M,9.7,M*2F
MSG 0 38874.376 $PGRMB,0.0,200,,,,K,,N,N*31
MSG 0 38874.436 $PGRMM,WGS 84*06
MSG 0 38874.803 $GPRMC,144915,A,4303.0300,N,07037.7833,W,000.6,106.1,030712,016.1,W*70
POS 0 38955.000 367271.663 4767711.540
QUA 0 38955.000 7 9.000 1.000 8.000 1.000 0.000 0.000 0.000
RAW 0 38955.000 4 430303.00000 -703778.33000 -20.50000 144915.00000
MSG 0 38874.953 $GPGGA,144915,4303.0300,N,07037.7833,W,1,08,1.0,11.9,M,-32.4,M,,*4F
MSG 0 38875.097 $GPGSA,A,3,,14,16,20,,25,29,30,31,32,,,2.2,1.0,1.9*37
MSG 0 38875.212 $GPGSV,3,1,10,11,00,247,33,14,35,125,48,16,28,208,47,20,30,295,45*78
MSG 0 38875.357 $PGRME,4.6,M,8.5,M,9.7,M*2F
MSG 0 38875.418 $PGRMB,0.0,200,,,,K,,N,N*31
MSG 0 38875.478 $PGRMM,WGS 84*06
MSG 0 38875.818 $GPRMC,144916,A,4303.0299,N,07037.7834,W,000.3,137.8,030712,016.1,W*7B
POS 0 38956.000 367271.524 4767711.358
QUA 0 38956.000 7 9.000 1.000 8.000 1.000 0.000 0.000 0.000
RAW 0 38956.000 4 430302.99000 -703778.34000 -20.00000 144916.00000
MSG 0 38875.968 $GPGGA,144916,4303.0299,N,07037.7834,W,1,08,1.0,12.4,M,-32.4,M,,*44
MSG 0 38876.111 $GPGSA,A,3,,14,16,20,,25,29,30,31,32,,,2.2,1.0,1.9*37
MSG 0 38876.226 $GPGSV,3,2,10,23,12,309,37,25,26,046,47,29,24,078,50,30,56,207,49*78
MSG 0 38876.372 $PGRME,4.6,M,8.5,M,9.7,M*2F
MSG 0 38876.432 $PGRMB,0.0,200,,,,K,,N,N*31
MSG 0 38876.492 $PGRMM,WGS 84*06
MSG 0 38876.814 $GPRMC,144917,A,4303.0298,N,07037.7830,W,000.6,120.8,030712,016.1,W*7C
POS 0 38957.000 367272.063 4767711.162
QUA 0 38957.000 7 9.000 1.000 8.000 1.000 0.000 0.000 0.000
RAW 0 38957.000 4 430302.98000 -703778.30000 -19.70000 144917.00000
MSG 0 38876.964 $GPGGA,144917,4303.0298,N,07037.7830,W,1,08,1.0,12.7,M,-32.4,M,,*43
MSG 0 38877.107 $GPGSA,A,3,,14,16,20,,25,29,30,31,32,,,2.2,1.0,1.9*37
MSG 0 38877.222 $GPGSV,3,3,10,31,70,026,49,32,46,265,48*7A
MSG 0 38877.313 $PGRME,4.6,M,8.5,M,9.7,M*2F
MSG 0 38877.374 $PGRMB,0.0,200,,,,K,,N,N*31
MSG 0 38877.434 $PGRMM,WGS 84*06
MSG 0 38877.816 $GPRMC,144918,A,4303.0298,N,07037.7828,W,000.5,104.9,030712,016.1,W*7E
POS 0 38958.000 367272.335 4767711.157
QUA 0 38958.000 7 9.000 1.000 8.000 1.000 0.000 0.000 0.000
RAW 0 38958.000 4 430302.98000 -703778.28000 -19.90000 144918.00000
MSG 0 38877.966 $GPGGA,144918,4303.0298,N,07037.7828,W,1,08,1.0,12.5,M,-32.4,M,,*47
MSG 0 38878.110 $GPGSA,A,3,,14,16,20,,25,29,30,31,32,,,2.2,1.0,1.9*37
MSG 0 38878.225 $GPGSV,3,1,10,11,00,247,33,14,35,125,48,16,28,208,46,20,30,295,45*79
MSG 0 38878.370 $PGRME,4.6,M,8.5,M,9.7,M*2F
MSG 0 38878.431 $PGRMB,0.0,200,,,,K,,N,N*31
MSG 0 38878.491 $PGRMM,WGS 84*06
MSG 0 38878.803 $GPRMC,144919,A,4303.0298,N,07037.7828,W,000.3,098.7,030712,016.1,W*73
POS 0 38959.000 367272.335 4767711.157
QUA 0 38959.000 7 9.000 1.000 8.000 1.000 0.000 0.000 0.000
RAW 0 38959.000 4 430302.98000 -703778.28000 -20.20000 144919.00000
MSG 0 38878.953 $GPGGA,144919,4303.0298,N,07037.7828,W,1,08,1.0,12.2,M,-32.4,M,,*41
MSG 0 38879.097 $GPGSA,A,3,,14,16,20,,25,29,30,31,32,,,2.2,1.0,1.9*37
MSG 0 38879.211 $GPGSV,3,2,10,23,12,309,37,25,26,046,47,29,24,078,49,30,56,207,49*70
MSG 0 38879.357 $PGRME,4.6,M,8.5,M,9.7,M*2F
MSG 0 38879.417 $PGRMB,0.0,200,,,,K,,N,N*31
MSG 0 38879.478 $PGRMM,WGS 84*06
MSG 0 38879.803 $GPRMC,144920,A,4303.0298,N,07037.7827,W,000.2,098.7,030712,016.1,W*77
POS 0 38960.000 367272.471 4767711.154
QUA 0 38960.000 7 9.000 1.000 8.000 1.000 0.000 0.000 0.000
RAW 0 38960.000 4 430302.98000 -703778.27000 -20.20000 144920.00000
MSG 0 38879.953 $GPGGA,144920,4303.0298,N,07037.7827,W,1,08,1.0,12.2,M,-32.4,M,,*44
MSG 0 38880.097 $GPGSA,A,3,,14,16,20,,25,29,30,31,32,,,2.2,1.0,1.9*37
MSG 0 38880.211 $GPGSV,3,3,10,31,70,026,50,32,46,265,48*72
MSG 0 38880.303 $PGRME,4.6,M,8.5,M,9.7,M*2F
MSG 0 38880.363 $PGRMB,0.0,200,,,,K,,N,N*31
MSG 0 38880.423 $PGRMM,WGS 84*06
MSG 0 38880.830 $GPRMC,144921,A,4303.0297,N,07037.7824,W,000.6,095.6,030712,016.1,W*72
POS 0 38961.000 367272.874 4767710.961
QUA 0 38961.000 7 9.000 1.000 8.000 1.000 0.000 0.000 0.000
RAW 0 38961.000 4 430302.97000 -703778.24000 -20.10000 144921.00000
MSG 0 38880.980 $GPGGA,144921,4303.0297,N,07037.7824,W,1,08,1.0,12.3,M,-32.4,M,,*48
MSG 0 38881.123 $GPGSA,A,3,,14,16,20,,25,29,30,31,32,,,2.2,1.0,1.9*37
MSG 0 38881.238 $GPGSV,3,1,10,11,00,247,33,14,35,125,48,16,28,208,46,20,30,295,46*7A
MSG 0 38881.384 $PGRME,4.6,M,8.5,M,9.7,M*2F
MSG 0 38881.444 $PGRMB,0.0,200,,,,K,,N,N*31
MSG 0 38881.504 $PGRMM,WGS 84*06
MSG 0 38881.802 $GPRMC,144922,A,4303.0295,N,07037.7820,W,000.8,111.5,030712,016.1,W*77
POS 0 38962.000 367273.410 4767710.581
QUA 0 38962.000 7 9.000 1.000 8.000 1.000 0.000 0.000 0.000
RAW 0 38962.000 4 430302.95000 -703778.20000 -20.20000 144922.00000
MSG 0 38881.952 $GPGGA,144922,4303.0295,N,07037.7820,W,1,08,1.0,12.2,M,-32.4,M,,*4C
MSG 0 38882.096 $GPGSA,A,3,,14,16,20,,25,29,30,31,32,,,2.2,1.0,1.9*37
MSG 0 38882.210 $GPGSV,3,2,10,23,12,309,37,25,26,046,47,29,24,078,49,30,56,207,49*70
MSG 0 38882.356 $PGRME,4.6,M,8.5,M,9.7,M*2F
MSG 0 38882.416 $PGRMB,0.0,200,,,,K,,N,N*31
MSG 0 38882.477 $PGRMM,WGS 84*06
MSG 0 38882.803 $GPRMC,144923,A,4303.0295,N,07037.7821,W,000.2,140.3,030712,016.1,W*7F
POS 0 38963.000 367273.274 4767710.583
QUA 0 38963.000 7 9.000 1.000 8.000 1.000 0.000 0.000 0.000
RAW 0 38963.000 4 430302.95000 -703778.21000 -20.10000 144923.00000
MSG 0 38882.953 $GPGGA,144923,4303.0295,N,07037.7821,W,1,08,1.0,12.3,M,-32.4,M,,*4D
MSG 0 38883.096 $GPGSA,A,3,,14,16,20,,25,29,30,31,32,,,2.2,1.0,1.9*37
MSG 0 38883.211 $GPGSV,3,3,10,31,70,026,49,32,46,265,49*7B
MSG 0 38883.303 $PGRME,4.6,M,8.5,M,9.7,M*2F
MSG 0 38883.363 $PGRMB,0.0,200,,,,K,,N,N*31
MSG 0 38883.423 $PGRMM,WGS 84*06
MSG 0 38883.810 $GPRMC,144924,A,4303.0295,N,07037.7819,W,000.3,111.8,030712,016.1,W*7D
POS 0 38964.000 367273.546 4767710.578
QUA 0 38964.000 7 9.000 1.000 8.000 1.000 0.000 0.000 0.000
RAW 0 38964.000 4 430302.95000 -703778.19000 -19.80000 144924.00000
MSG 0 38883.960 $GPGGA,144924,4303.0295,N,07037.7819,W,1,08,1.0,12.6,M,-32.4,M,,*44
MSG 0 38884.104 $GPGSA,A,3,,14,16,20,,25,29,30,31,32,,,2.2,1.0,1.9*37
MSG 0 38884.218 $GPGSV,3,1,10,11,00,247,33,14,35,125,47,16,28,208,46,20,30,295,46*75
MSG 0 38884.364 $PGRME,4.6,M,8.5,M,9.7,M*2F
MSG 0 38884.425 $PGRMB,0.0,200,,,,K,,N,N*31
MSG 0 38884.485 $PGRMM,WGS 84*06
MSG 0 38884.827 $GPRMC,144925,A,4303.0294,N,07037.7817,W,000.5,104.8,030712,016.1,W*71
POS 0 38965.000 367273.814 4767710.388
QUA 0 38965.000 7 9.000 1.000 8.000 1.000 0.000 0.000 0.000
RAW 0 38965.000 4 430302.94000 -703778.17000 -20.10000 144925.00000
MSG 0 38884.977 $GPGGA,144925,4303.0294,N,07037.7817,W,1,08,1.0,12.3,M,-32.4,M,,*4F
MSG 0 38885.121 $GPGSA,A,3,,14,16,20,,25,29,30,31,32,,,2.2,1.0,1.9*37
MSG 0 38885.235 $GPGSV,3,2,10,23,12,309,37,25,26,046,47,29,24,078,48,30,56,207,49*71
MSG 0 38885.381 $PGRME,4.6,M,8.5,M,9.7,M*2F
MSG 0 38885.442 $PGRMB,0.0,200,,,,K,,N,N*31
MSG 0 38885.502 $PGRMM,WGS 84*06
MSG 0 38885.818 $GPRMC,144926,A,4303.0294,N,07037.7816,W,000.4,102.7,030712,016.1,W*7B
POS 0 38966.000 367273.949 4767710.385
QUA 0 38966.000 7 9.000 1.000 8.000 1.000 0.000 0.000 0.000
RAW 0 38966.000 4 430302.94000 -703778.16000 -20.20000 144926.00000
MSG 0 38885.968 $GPGGA,144926,4303.0294,N,07037.7816,W,1,08,1.0,12.2,M,-32.4,M,,*4C
MSG 0 38886.112 $GPGSA,A,3,,14,16,20,,25,29,30,31,32,,,2.2,1.0,1.9*37
MSG 0 38886.226 $GPGSV,3,3,10,31,70,026,49,32,46,265,48*7A
MSG 0 38886.318 $PGRME,4.6,M,8.5,M,9.7,M*2F
MSG 0 38886.378 $PGRMB,0.0,200,,,,K,,N,N*31
MSG 0 38886.438 $PGRMM,WGS 84*06
MSG 0 38886.809 $GPRMC,144927,A,4303.0293,N,07037.7814,W,000.4,103.0,030712,016.1,W*79
POS 0 38967.000 367274.217 4767710.195
QUA 0 38967.000 7 9.000 1.000 8.000 1.000 0.000 0.000 0.000
RAW 0 38967.000 4 430302.93000 -703778.14000 -20.20000 144927.00000
MSG 0 38886.959 $GPGGA,144927,4303.0293,N,07037.7814,W,1,08,1.0,12.2,M,-32.4,M,,*48
MSG 0 38887.103 $GPGSA,A,3,,14,16,20,,25,29,30,31,32,,,2.2,1.0,1.9*37
MSG 0 38887.217 $GPGSV,3,1,10,11,00,247,33,14,35,125,47,16,28,208,46,20,30,295,46*75
MSG 0 38887.363 $PGRME,4.6,M,8.5,M,9.7,M*2F
MSG 0 38887.423 $PGRMB,0.0,200,,,,K,,N,N*31
MSG 0 38887.484 $PGRMM,WGS 84*06
MSG 0 38887.828 $GPRMC,144928,A,4303.0293,N,07037.7812,W,000.5,112.5,030712,016.1,W*74
POS 0 38968.000 367274.489 4767710.189
QUA 0 38968.000 7 9.000 1.000 8.000 1.000 0.000 0.000 0.000
RAW 0 38968.000 4 430302.93000 -703778.12000 -20.20000 144928.00000
MSG 0 38887.978 $GPGGA,144928,4303.0293,N,07037.7812,W,1,08,1.0,12.2,M,-32.4,M,,*41
MSG 0 38888.121 $GPGSA,A,3,,14,16,20,,25,29,30,31,32,,,2.2,1.0,1.9*37
MSG 0 38888.236 $GPGSV,3,2,10,23,12,309,36,25,26,046,47,29,24,077,47,30,56,207,48*71
MSG 0 38888.381 $PGRME,4.6,M,8.5,M,9.7,M*2F
MSG 0 38888.442 $PGRMB,0.0,200,,,,K,,N,N*31
MSG 0 38888.502 $PGRMM,WGS 84*06
MSG 0 38888.802 $GPRMC,144929,A,4303.0291,N,07037.7809,W,000.7,117.8,030712,016.1,W*77
POS 0 38969.000 367274.889 4767709.811
QUA 0 38969.000 7 9.000 1.000 8.000 1.000 0.000 0.000 0.000
RAW 0 38969.000 4 430302.91000 -703778.09000 -20.10000 144929.00000
MSG 0 38888.952 $GPGGA,144929,4303.0291,N,07037.7809,W,1,08,1.0,12.3,M,-32.4,M,,*49
MSG 0 38889.095 $GPGSA,A,3,,14,16,20,,25,29,30,31,32,,,2.2,1.0,1.9*37
MSG 0 38889.210 $GPGSV,3,3,10,31,70,026,49,32,46,265,48*7A
MSG 0 38889.302 $PGRME,4.6,M,8.5,M,9.7,M*2F
MSG 0 38889.362 $PGRMB,0.0,200,,,,K,,N,N*31
MSG 0 38889.422 $PGRMM,WGS 84*06
MSG 0 38889.813 $GPRMC,144930,A,4303.0292,N,07037.7808,W,000.4,099.0,030712,016.1,W*71
POS 0 38970.000 367275.028 4767709.994
QUA 0 38970.000 7 9.000 1.000 8.000 1.000 0.000 0.000 0.000
RAW 0 38970.000 4 430302.92000 -703778.08000 -19.90000 144930.00000
MSG 0 38889.963 $GPGGA,144930,4303.0292,N,07037.7808,W,1,08,1.0,12.5,M,-32.4,M,,*45
MSG 0 38890.107 $GPGSA,A,3,,14,16,20,,25,29,30,31,32,,,2.2,1.0,1.9*37
MSG 0 38890.221 $GPGSV,3,1,10,11,00,247,34,14,35,125,47,16,28,208,46,20,30,295,47*73
MSG 0 38890.367 $PGRME,4.6,M,8.5,M,9.7,M*2F
MSG 0 38890.427 $PGRMB,0.0,200,,,,K,,N,N*31
MSG 0 38890.488 $PGRMM,WGS 84*06
MSG 0 38890.803 $GPRMC,144931,A,4303.0290,N,07037.7808,W,000.3,148.2,030712,016.1,W*7A
POS 0 38971.000 367275.021 4767709.623
QUA 0 38971.000 7 9.000 1.000 8.000 1.000 0.000 0.000 0.000
RAW 0 38971.000 4 430302.90000 -703778.08000 -19.80000 144931.00000
MSG 0 38890.953 $GPGGA,144931,4303.0290,N,07037.7808,W,1,08,1.0,12.6,M,-32.4,M,,*45
MSG 0 38891.097 $GPGSA,A,3,,14,16,20,,25,29,30,31,32,,,2.2,1.0,1.9*37
MSG 0 38891.211 $GPGSV,3,2,10,23,12,309,36,25,26,046,47,29,24,077,46,30,57,208,48*7E
MSG 0 38891.357 $PGRME,4.6,M,8.5,M,9.7,M*2F
MSG 0 38891.417 $PGRMB,0.0,200,,,,K,,N,N*31
MSG 0 38891.478 $PGRMM,WGS 84*06
MSG 0 38891.802 $GPRMC,144932,A,4303.0291,N,07037.7806,W,000.3,094.2,030712,016.1,W*76
POS 0 38972.000 367275.296 4767709.803
QUA 0 38972.000 7 9.000 1.000 8.000 1.000 0.000 0.000 0.000
RAW 0 38972.000 4 430302.91000 -703778.06000 -19.90000 144932.00000
MSG 0 38891.952 $GPGGA,144932,4303.0291,N,07037.7806,W,1,08,1.0,12.5,M,-32.4,M,,*4A
MSG 0 38892.096 $GPGSA,A,3,,14,16,20,,25,29,30,31,32,,,2.2,1.0,1.9*37
MSG 0 38892.211 $GPGSV,3,3,10,31,70,026,49,32,46,265,48*7A
MSG 0 38892.302 $PGRME,4.6,M,8.5,M,9.7,M*2F
MSG 0 38892.363 $PGRMB,0.0,200,,,,K,,N,N*31
MSG 0 38892.423 $PGRMM,WGS 84*06
MSG 0 38892.801 $GPRMC,144933,A,4303.0289,N,07037.7803,W,000.7,114.0,030712,016.1,W*74
POS 0 38973.000 367275.696 4767709.425
QUA 0 38973.000 7 9.000 1.000 8.000 1.000 0.000 0.000 0.000
RAW 0 38973.000 4 430302.89000 -703778.03000 -20.10000 144933.00000
MSG 0 38892.951 $GPGGA,144933,4303.0289,N,07037.7803,W,1,08,1.0,12.3,M,-32.4,M,,*41
MSG 0 38893.095 $GPGSA,A,3,,14,16,20,,25,29,30,31,32,,,2.2,1.0,1.9*37
MSG 0 38893.210 $GPGSV,3,1,10,11,00,247,34,14,35,125,47,16,28,208,46,20,30,295,46*72
MSG 0 38893.355 $PGRME,4.6,M,8.5,M,9.7,M*2F
MSG 0 38893.416 $PGRMB,0.0,200,,,,K,,N,N*31
MSG 0 38893.476 $PGRMM,WGS 84*06
MSG 0 38893.803 $GPRMC,144934,A,4303.0289,N,07037.7802,W,000.4,110.0,030712,016.1,W*75
POS 0 38974.000 367275.832 4767709.423
QUA 0 38974.000 7 9.000 1.000 8.000 1.000 0.000 0.000 0.000
RAW 0 38974.000 4 430302.89000 -703778.02000 -20.40000 144934.00000
MSG 0 38893.953 $GPGGA,144934,4303.0289,N,07037.7802,W,1,08,1.0,12.0,M,-32.4,M,,*44
MSG 0 38894.096 $GPGSA,A,3,,14,16,20,,25,29,30,31,32,,,2.2,1.0,1.9*37
MSG 0 38894.211 $GPGSV,3,2,10,23,12,309,37,25,26,046,46,29,24,077,45,30,57,208,48*7D
MSG 0 38894.357 $PGRME,4.6,M,8.5,M,9.7,M*2F
MSG 0 38894.417 $PGRMT,GPS 17-HVS Ver. 2.80,P,P,R,R,P,,40,R*0F
MSG 0 38894.517 $PGRMB,0.0,200,,,,K,,N,N*31
MSG 0 38894.577 $PGRMM,WGS 84*06
MSG 0 38894.803 $GPRMC,144935,A,4303.0288,N,07037.7800,W,000.5,116.5,030712,016.1,W*75
POS 0 38975.000 367276.100 4767709.232
QUA 0 38975.000 7 9.000 1.000 8.000 1.000 0.000 0.000 0.000
RAW 0 38975.000 4 430302.88000 -703778.00000 -19.90000 144935.00000
MSG 0 38894.953 $GPGGA,144935,4303.0288,N,07037.7800,W,1,08,1.0,12.5,M,-32.4,M,,*43
MSG 0 38895.096 $GPGSA,A,3,,14,16,20,,25,29,30,31,32,,,2.2,1.0,1.9*37
MSG 0 38895.211 $GPGSV,3,3,10,31,70,028,49,32,46,265,47*7B
MSG 0 38895.302 $PGRME,4.6,M,8.5,M,9.7,M*2F
MSG 0 38895.363 $PGRMB,0.0,200,,,,K,,N,N*31
MSG 0 38895.423 $PGRMM,WGS 84*06
MSG 0 38895.802 $GPRMC,144936,A,4303.0289,N,07037.7798,W,000.6,097.2,030712,016.1,W*75
POS 0 38976.000 367276.375 4767709.412
QUA 0 38976.000 7 9.000 1.000 8.000 1.000 0.000 0.000 0.000
RAW 0 38976.000 4 430302.89000 -703777.98000 -19.90000 144936.00000
MSG 0 38895.952 $GPGGA,144936,4303.0289,N,07037.7798,W,1,08,1.0,12.5,M,-32.4,M,,*4F
MSG 0 38896.096 $GPGSA,A,3,,14,16,20,,25,29,30,31,32,,,2.2,1.0,1.9*37
MSG 0 38896.210 $GPGSV,3,1,10,11,00,247,34,14,35,125,47,16,28,208,45,20,30,295,46*71
MSG 0 38896.356 $PGRME,4.6,M,8.5,M,9.7,M*2F
MSG 0 38896.416 $PGRMB,0.0,200,,,,K,,N,N*31
MSG 0 38896.477 $PGRMM,WGS 84*06
MSG 0 38896.802 $GPRMC,144937,A,4303.0288,N,07037.7797,W,000.5,110.7,030712,016.1,W*72
POS 0 38977.000 367276.507 4767709.224
QUA 0 38977.000 7 9.000 1.000 8.000 1.000 0.000 0.000 0.000
RAW 0 38977.000 4 430302.88000 -703777.97000 -19.80000 144937.00000
MSG 0 38896.952 $GPGGA,144937,4303.0288,N,07037.7797,W,1,08,1.0,12.6,M,-32.4,M,,*43
MSG 0 38897.096 $GPGSA,A,3,,14,16,20,,25,29,30,31,32,,,2.2,1.0,1.9*37
MSG 0 38897.210 $GPGSV,3,2,10,23,12,309,37,25,26,046,45,29,24,077,46,30,57,208,49*7C
MSG 0 38897.356 $PGRME,4.6,M,8.5,M,9.7,M*2F
MSG 0 38897.416 $PGRMB,0.0,200,,,,K,,N,N*31
MSG 0 38897.477 $PGRMM,WGS 84*06
MSG 0 38897.796 $GPRMC,144938,A,4303.0288,N,07037.7798,W,000.0,110.7,030712,016.1,W*77
POS 0 38978.000 367276.371 4767709.227
QUA 0 38978.000 7 9.000 1.000 8.000 1.000 0.000 0.000 0.000
RAW 0 38978.000 4 430302.88000 -703777.98000 -20.00000 144938.00000
MSG 0 38897.946 $GPGGA,144938,4303.0288,N,07037.7798,W,1,08,1.0,12.4,M,-32.4,M,,*41
MSG 0 38898.089 $GPGSA,A,3,,14,16,20,,25,29,30,31,32,,,2.2,1.0,1.9*37
MSG 0 38898.204 $GPGSV,3,3,10,31,70,028,49,32,46,263,47*7D
MSG 0 38898.296 $PGRME,4.6,M,8.5,M,9.7,M*2F
MSG 0 38898.356 $PGRMB,0.0,200,,,,K,,N,N*31
MSG 0 38898.416 $PGRMM,WGS 84*06
MSG 0 38898.801 $GPRMC,144939,A,4303.0288,N,07037.7797,W,000.4,125.6,030712,016.1,W*7A
POS 0 38979.000 367276.507 4767709.224
QUA 0 38979.000 7 9.000 1.000 8.000 1.000 0.000 0.000 0.000
RAW 0 38979.000 4 430302.88000 -703777.97000 -20.10000 144939.00000
MSG 0 38898.951 $GPGGA,144939,4303.0288,N,07037.7797,W,1,08,1.0,12.3,M,-32.4,M,,*48
MSG 0 38899.095 $GPGSA,A,3,,14,16,20,,25,29,30,31,32,,,2.2,1.0,1.9*37
MSG 0 38899.210 $GPGSV,3,1,10,11,00,247,34,14,35,125,48,16,28,208,45,20,30,295,46*7E
MSG 0 38899.355 $PGRME,4.6,M,8.5,M,9.7,M*2F
MSG 0 38899.416 $PGRMB,0.0,200,,,,K,,N,N*31
MSG 0 38899.476 $PGRMM,WGS 84*06
MSG 0 38899.803 $GPRMC,144940,A,4303.0287,N,07037.7792,W,000.7,111.4,030712,016.1,W*78
POS 0 38980.000 367277.182 4767709.026
QUA 0 38980.000 7 9.000 1.000 8.000 1.000 0.000 0.000 0.000
RAW 0 38980.000 4 430302.87000 -703777.92000 -20.20000 144940.00000
MSG 0 38899.953 $GPGGA,144940,4303.0287,N,07037.7792,W,1,08,1.0,12.2,M,-32.4,M,,*4D
MSG 0 38900.097 $GPGSA,A,3,,14,16,20,,25,29,30,31,32,,,2.2,1.0,1.9*37
MSG 0 38900.211 $GPGSV,3,2,10,23,12,309,37,25,26,046,45,29,24,077,46,30,57,208,48*7D
MSG 0 38900.357 $PGRME,4.6,M,8.5,M,9.7,M*2F
MSG 0 38900.417 $PGRMB,0.0,200,,,,K,,N,N*31
MSG 0 38900.478 $PGRMM,WGS 84*06
MSG 0 38900.801 $GPRMC,144941,A,4303.0286,N,07037.7793,W,000.3,138.4,030712,016.1,W*76
POS 0 38981.000 367277.043 4767708.844
QUA 0 38981.000 7 9.000 1.000 8.000 1.000 0.000 0.000 0.000
RAW 0 38981.000 4 430302.86000 -703777.93000 -20.10000 144941.00000
MSG 0 38900.951 $GPGGA,144941,4303.0286,N,07037.7793,W,1,08,1.0,12.3,M,-32.4,M,,*4D
MSG 0 38901.095 $GPGSA,A,3,,14,16,20,,25,29,30,31,32,,,2.2,1.0,1.9*37
MSG 0 38901.210 $GPGSV,3,3,10,31,70,028,49,32,46,263,46*7C
MSG 0 38901.301 $PGRME,4.6,M,8.5,M,9.7,M*2F
MSG 0 38901.362 $PGRMB,0.0,200,,,,K,,N,N*31
MSG 0 38901.422 $PGRMM,WGS 84*06
MSG 0 38901.802 $GPRMC,144942,A,4303.0287,N,07037.7791,W,000.3,090.5,030712,016.1,W*74
POS 0 38982.000 367277.318 4767709.023
QUA 0 38982.000 7 9.000 1.000 8.000 1.000 0.000 0.000 0.000
RAW 0 38982.000 4 430302.87000 -703777.91000 -19.90000 144942.00000
MSG 0 38901.951 $GPGGA,144942,4303.0287,N,07037.7791,W,1,08,1.0,12.5,M,-32.4,M,,*4B
MSG 0 38902.095 $GPGSA,A,3,,14,16,20,,25,29,30,31,32,,,2.2,1.0,1.9*37
MSG 0 38902.210 $GPGSV,3,1,10,11,00,247,34,14,35,125,48,16,28,208,46,20,30,295,46*7D
MSG 0 38902.355 $PGRME,4.6,M,8.5,M,9.7,M*2F
MSG 0 38902.416 $PGRMB,0.0,200,,,,K,,N,N*31
MSG 0 38902.476 $PGRMM,WGS 84*06
MSG 0 38902.801 $GPRMC,144943,A,4303.0285,N,07037.7786,W,000.9,117.0,030712,016.1,W*70
POS 0 38983.000 367277.989 4767708.640
QUA 0 38983.000 7 9.000 1.000 8.000 1.000 0.000 0.000 0.000
RAW 0 38983.000 4 430302.85000 -703777.86000 -20.20000 144943.00000
MSG 0 38902.950 $GPGGA,144943,4303.0285,N,07037.7786,W,1,08,1.0,12.2,M,-32.4,M,,*49
MSG 0 38903.094 $GPGSA,A,3,,14,16,20,,25,29,30,31,32,,,2.2,1.0,1.9*37
MSG 0 38903.209 $GPGSV,3,2,10,23,12,309,37,25,26,046,45,29,24,077,46,30,57,208,49*7C
MSG 0 38903.354 $PGRME,4.6,M,8.5,M,9.7,M*2F
MSG 0 38903.415 $PGRMB,0.0,200,,,,K,,N,N*31
MSG 0 38903.475 $PGRMM,WGS 84*06
MSG 0 38903.802 $GPRMC,144944,A,4303.0284,N,07037.7785,W,000.6,118.0,030712,016.1,W*75
POS 0 38984.000 367278.121 4767708.452
QUA 0 38984.000 7 9.000 1.000 8.000 1.000 0.000 0.000 0.000
RAW 0 38984.000 4 430302.84000 -703777.85000 -20.40000 144944.00000
MSG 0 38903.952 $GPGGA,144944,4303.0284,N,07037.7785,W,1,08,1.0,12.0,M,-32.4,M,,*4E
MSG 0 38904.096 $GPGSA,A,3,,14,16,20,,25,29,30,31,32,,,2.2,1.0,1.9*37
MSG 0 38904.210 $GPGSV,3,3,10,31,70,028,49,32,46,263,46*7C
MSG 0 38904.302 $PGRME,4.6,M,8.5,M,9.7,M*2F
MSG 0 38904.362 $PGRMB,0.0,200,,,,K,,N,N*31
MSG 0 38904.423 $PGRMM,WGS 84*06
MSG 0 38904.797 $GPRMC,144945,A,4303.0284,N,07037.7788,W,000.0,118.0,030712,016.1,W*7F
POS 0 38985.000 367277.714 4767708.460
QUA 0 38985.000 7 9.000 1.000 8.000 1.000 0.000 0.000 0.000
RAW 0 38985.000 4 430302.84000 -703777.88000 -19.80000 144945.00000
MSG 0 38904.947 $GPGGA,144945,4303.0284,N,07037.7788,W,1,08,1.0,12.6,M,-32.4,M,,*44
