FTP NEW 2
VER 11.0.6.21
INF "" "" "" "" 0.000 0.000 0.000
ELL WGS-84 6378137.000 298.257223563
PRO TME -69.000000 0.999600 0.000000 0.000000 0.000000 500000.0000 0.0000
DTM 0.00 0.00 0.00 0.00000 0.00000 0.00000 0.00000
GEO ??? 0.000
HVU 1.0000000000 1.0000000000
TND 11:33:37 07/03/2012 240
DEV 0 32869 "Garmin GPS" 49156 C:\HYPACK 2011\devices\GPS.dll 11.0.10.6
OFF 0 0.000 0.000 0.000 0.000 0.000 0.000 0.000
DDT 0 SYN 
DEV 1 0 "Disabled" 0 Odom CV3 MK3 Disabled Unknown
USR "NOAA Joint Hydrographic Center" "HYPACK Inc." 0x8 15681181
EOH 0001FFFFFFFFFFFFFFFFFFFFFFFFFFFFFFFFFFFFFFFFFFFFFFFFFFFFFFFFFFFFFFFFFFFFFFFFFFFFFFFFFFFFFFFFFFFFFFFFFFFFFFFFFFFFFFFFFFFFFFFFFFFFFFFFFFFFFFFFFFFFFFFFFFFFFFFFFFFFFFFFFFFFFFFFFFFFFFFFFFFF003021300906052B0E03021A050004148F59B33450E6E2A1149B12E1B54715483EE9D71B
MSG 0 41615.847 $GPRMC,153456,A,4303.1238,N,07038.4889,W,000.7,106.1,030712,016.1,W*7B
POS 0 41696.000 366317.280 4767903.822
QUA 0 41696.000 7 9.000 1.000 9.000 1.000 0.000 0.000 0.000
RAW 0 41696.000 4 430312.38000 -703848.89000 -22.80000 153456.00000
MSG 0 41615.997 $GPGGA,153456,4303.1238,N,07038.4889,W,1,09,1.0,9.6,M,-32.4,M,,*72
MSG 0 41616.139 $GPGSA,A,3,,06,,14,16,20,,25,29,30,31,32,1.7,1.0,1.4*3A
MSG 0 41616.258 $GPGSV,3,3,12,29,24,056,45,30,79,219,49,31,56,062,50,32,36,239,47*70
MSG 0 41616.403 $PGRME,5.2,M,6.2,M,8.1,M*24
MSG 0 41616.464 $PGRMB,0.0,200,,,,K,,N,N*31
MSG 0 41616.524 $PGRMM,WGS 84*06
MSG 0 41616.851 $GPRMC,153457,A,4303.1237,N,07038.4888,W,000.5,117.8,030712,016.1,W*7F
POS 0 41697.000 366317.412 4767903.634
QUA 0 41697.000 7 9.000 1.000 9.000 1.000 0.000 0.000 0.000
RAW 0 41697.000 4 430312.37000 -703848.88000 -22.80000 153457.00000
MSG 0 41617.001 $GPGGA,153457,4303.1237,N,07038.4888,W,1,09,1.0,9.6,M,-32.4,M,,*7D
MSG 0 41617.142 $GPGSA,A,3,,06,,14,16,20,,25,29,30,31,32,1.7,1.0,1.4*3A
MSG 0 41617.261 $GPGSV,3,1,12,03,03,185,33,06,12,171,43,13,00,314,00,14,16,137,42*74
MSG 0 41617.407 $PGRME,5.2,M,6.2,M,8.1,M*24
MSG 0 41617.467 $PGRMB,0.0,200,,,,K,,N,N*31
MSG 0 41617.527 $PGRMM,WGS 84*06
FIX 99 41617.737 80 366317.412 4767903.634
MSG 0 41617.852 $GPRMC,153458,A,4303.1237,N,07038.4885,W,000.5,105.6,030712,016.1,W*70
POS 0 41698.000 366317.819 4767903.626
QUA 0 41698.000 7 9.000 1.000 9.000 1.000 0.000 0.000 0.000
RAW 0 41698.000 4 430312.37000 -703848.85000 -22.70000 153458.00000
MSG 0 41618.002 $GPGGA,153458,4303.1237,N,07038.4885,W,1,09,1.0,9.7,M,-32.4,M,,*7E
MSG 0 41618.143 $GPGSA,A,3,,06,,14,16,20,,25,29,30,31,32,1.6,1.0,1.3*3C
MSG 0 41618.262 $GPGSV,3,2,12,16,49,217,46,20,29,271,47,23,29,312,37,25,09,047,39*70
MSG 0 41618.408 $PGRME,5.2,M,6.2,M,8.1,M*24
MSG 0 41618.468 $PGRMB,0.0,200,,,,K,,N,N*31
MSG 0 41618.528 $PGRMM,WGS 84*06
MSG 0 41618.870 $GPRMC,153459,A,4303.1236,N,07038.4883,W,000.6,110.8,030712,016.1,W*7F
POS 0 41699.000 366318.087 4767903.436
QUA 0 41699.000 7 9.000 1.000 9.000 1.000 0.000 0.000 0.000
RAW 0 41699.000 4 430312.36000 -703848.83000 -23.00000 153459.00000
MSG 0 41619.020 $GPGGA,153459,4303.1236,N,07038.4883,W,1,09,1.0,9.4,M,-32.4,M,,*7B
MSG 0 41619.161 $GPGSA,A,3,,06,,14,16,20,,25,29,30,31,32,1.6,1.0,1.3*3C
MSG 0 41619.280 $GPGSV,3,3,12,29,24,056,44,30,79,219,48,31,56,062,50,32,36,239,48*7F
MSG 0 41619.426 $PGRME,5.2,M,6.2,M,8.1,M*24
MSG 0 41619.486 $PGRMB,0.0,200,,,,K,,N,N*31
MSG 0 41619.546 $PGRMM,WGS 84*06
MSG 0 41619.836 $GPRMC,153500,A,4303.1235,N,07038.4880,W,000.7,111.6,030712,016.1,W*7C
POS 0 41700.000 366318.491 4767903.243
QUA 0 41700.000 7 9.000 1.000 9.000 1.000 0.000 0.000 0.000
RAW 0 41700.000 4 430312.35000 -703848.80000 -22.90000 153500.00000
MSG 0 41619.986 $GPGGA,153500,4303.1235,N,07038.4880,W,1,09,1.0,9.5,M,-32.4,M,,*77
MSG 0 41620.128 $GPGSA,A,3,,06,,14,16,20,,25,29,30,31,32,1.7,1.0,1.4*3A
MSG 0 41620.247 $GPGSV,3,1,12,03,03,185,33,06,12,171,43,13,00,314,00,14,16,137,42*74
MSG 0 41620.392 $PGRME,5.2,M,6.2,M,8.1,M*24
MSG 0 41620.453 $PGRMB,0.0,200,,,,K,,N,N*31
MSG 0 41620.513 $PGRMM,WGS 84*06
MSG 0 41620.853 $GPRMC,153501,A,4303.1235,N,07038.4879,W,000.5,110.3,030712,016.1,W*7D
POS 0 41701.000 366318.626 4767903.240
QUA 0 41701.000 7 9.000 1.000 9.000 1.000 0.000 0.000 0.000
RAW 0 41701.000 4 430312.35000 -703848.79000 -22.60000 153501.00000
MSG 0 41621.002 $GPGGA,153501,4303.1235,N,07038.4879,W,1,09,1.0,9.8,M,-32.4,M,,*7D
MSG 0 41621.144 $GPGSA,A,3,,06,,14,16,20,,25,29,30,31,32,1.7,1.0,1.4*3A
MSG 0 41621.263 $GPGSV,3,2,12,16,49,217,47,20,29,271,47,23,29,312,37,25,09,047,40*7F
MSG 0 41621.408 $PGRME,5.2,M,6.2,M,8.1,M*24
MSG 0 41621.469 $PGRMB,0.0,200,,,,K,,N,N*31
MSG 0 41621.529 $PGRMM,WGS 84*06
MSG 0 41621.840 $GPRMC,153502,A,4303.1234,N,07038.4877,W,000.6,120.1,030712,016.1,W*73
POS 0 41702.000 366318.894 4767903.050
QUA 0 41702.000 7 9.000 1.000 9.000 1.000 0.000 0.000 0.000
RAW 0 41702.000 4 430312.34000 -703848.77000 -22.50000 153502.00000
MSG 0 41621.990 $GPGGA,153502,4303.1234,N,07038.4877,W,1,09,1.0,9.9,M,-32.4,M,,*70
MSG 0 41622.132 $GPGSA,A,3,,06,,14,16,20,,25,29,30,31,32,1.7,1.0,1.4*3A
MSG 0 41622.250 $GPGSV,3,3,12,29,24,056,45,30,79,219,49,31,56,062,50,32,36,239,48*7F
MSG 0 41622.396 $PGRME,5.2,M,6.2,M,8.1,M*24
MSG 0 41622.457 $PGRMB,0.0,200,,,,K,,N,N*31
MSG 0 41622.517 $PGRMM,WGS 84*06
MSG 0 41622.866 $GPRMC,153503,A,4303.1234,N,07038.4874,W,000.7,105.2,030712,016.1,W*74
POS 0 41703.000 366319.301 4767903.042
QUA 0 41703.000 7 9.000 1.000 9.000 1.000 0.000 0.000 0.000
RAW 0 41703.000 4 430312.34000 -703848.74000 -22.90000 153503.00000
MSG 0 41623.016 $GPGGA,153503,4303.1234,N,07038.4874,W,1,09,1.0,9.5,M,-32.4,M,,*7E
MSG 0 41623.158 $GPGSA,A,3,,06,,14,16,20,,25,29,30,31,32,1.6,1.0,1.3*3C
MSG 0 41623.276 $GPGSV,3,1,12,03,03,185,33,06,12,171,43,13,00,314,00,14,16,137,42*74
MSG 0 41623.422 $PGRME,5.2,M,6.2,M,8.1,M*24
MSG 0 41623.483 $PGRMB,0.0,200,,,,K,,N,N*31
MSG 0 41623.543 $PGRMM,WGS 84*06
MSG 0 41623.849 $GPRMC,153504,A,4303.1232,N,07038.4872,W,000.7,122.1,030712,016.1,W*75
POS 0 41704.000 366319.566 4767902.666
QUA 0 41704.000 7 9.000 1.000 9.000 1.000 0.000 0.000 0.000
RAW 0 41704.000 4 430312.32000 -703848.72000 -22.80000 153504.00000
MSG 0 41623.999 $GPGGA,153504,4303.1232,N,07038.4872,W,1,09,1.0,9.6,M,-32.4,M,,*7A
MSG 0 41624.140 $GPGSA,A,3,,06,,14,16,20,,25,29,30,31,32,1.7,1.0,1.4*3A
MSG 0 41624.259 $GPGSV,3,2,12,16,49,217,46,20,29,271,47,23,29,312,37,25,09,047,38*71
MSG 0 41624.405 $PGRME,5.2,M,6.3,M,8.2,M*26
MSG 0 41624.465 $PGRMB,0.0,200,,,,K,,N,N*31
MSG 0 41624.526 $PGRMM,WGS 84*06
MSG 0 41624.866 $GPRMC,153505,A,4303.1233,N,07038.4871,W,000.3,080.2,030712,016.1,W*78
POS 0 41705.000 366319.705 4767902.849
QUA 0 41705.000 7 9.000 1.000 9.000 1.000 0.000 0.000 0.000
RAW 0 41705.000 4 430312.33000 -703848.71000 -22.70000 153505.00000
MSG 0 41625.016 $GPGGA,153505,4303.1233,N,07038.4871,W,1,09,1.0,9.7,M,-32.4,M,,*78
MSG 0 41625.158 $GPGSA,A,3,,06,,14,16,20,,25,29,30,31,32,1.7,1.0,1.4*3A
MSG 0 41625.276 $GPGSV,3,3,12,29,24,056,45,30,79,219,49,31,56,062,50,32,36,239,48*7F
MSG 0 41625.422 $PGRME,5.2,M,6.3,M,8.2,M*26
MSG 0 41625.483 $PGRMB,0.0,200,,,,K,,N,N*31
MSG 0 41625.543 $PGRMM,WGS 84*06
MSG 0 41625.835 $GPRMC,153506,A,4303.1230,N,07038.4867,W,000.9,119.5,030712,016.1,W*73
POS 0 41706.000 366320.237 4767902.283
QUA 0 41706.000 7 9.000 1.000 9.000 1.000 0.000 0.000 0.000
RAW 0 41706.000 4 430312.30000 -703848.67000 -22.60000 153506.00000
MSG 0 41625.985 $GPGGA,153506,4303.1230,N,07038.4867,W,1,09,1.0,9.8,M,-32.4,M,,*70
MSG 0 41626.127 $GPGSA,A,3,,06,,14,16,20,,25,29,30,31,32,1.7,1.0,1.4*3A
MSG 0 41626.245 $GPGSV,3,1,12,03,03,185,33,06,12,171,44,13,00,314,00,14,16,137,41*70
MSG 0 41626.391 $PGRME,5.2,M,6.2,M,8.1,M*24
MSG 0 41626.451 $PGRMB,0.0,200,,,,K,,N,N*31
MSG 0 41626.512 $PGRMM,WGS 84*06
MSG 0 41626.866 $GPRMC,153507,A,4303.1230,N,07038.4865,W,000.7,113.1,030712,016.1,W*70
POS 0 41707.000 366320.508 4767902.277
QUA 0 41707.000 7 9.000 1.000 9.000 1.000 0.000 0.000 0.000
RAW 0 41707.000 4 430312.30000 -703848.65000 -22.90000 153507.00000
MSG 0 41627.016 $GPGGA,153507,4303.1230,N,07038.4865,W,1,09,1.0,9.5,M,-32.4,M,,*7E
MSG 0 41627.158 $GPGSA,A,3,,06,,14,16,20,,25,29,30,31,32,1.7,1.0,1.4*3A
MSG 0 41627.276 $GPGSV,3,2,12,16,49,217,46,20,29,271,47,23,30,311,37,25,09,047,37*75
MSG 0 41627.422 $PGRME,5.2,M,6.2,M,8.1,M*24
MSG 0 41627.483 $PGRMB,0.0,200,,,,K,,N,N*31
MSG 0 41627.543 $PGRMM,WGS 84*06
MSG 0 41627.850 $GPRMC,153508,A,4303.1230,N,07038.4864,W,000.4,107.2,030712,016.1,W*7B
POS 0 41708.000 366320.644 4767902.275
QUA 0 41708.000 7 9.000 1.000 9.000 1.000 0.000 0.000 0.000
RAW 0 41708.000 4 430312.30000 -703848.64000 -22.40000 153508.00000
MSG 0 41628.000 $GPGGA,153508,4303.1230,N,07038.4864,W,1,09,1.0,10.0,M,-32.4,M,,*4D
MSG 0 41628.144 $GPGSA,A,3,,06,,14,16,20,,25,29,30,31,32,1.7,1.0,1.4*3A
MSG 0 41628.263 $GPGSV,3,3,12,29,24,056,45,30,79,219,49,31,56,062,50,32,36,239,47*70
MSG 0 41628.408 $PGRME,5.2,M,6.3,M,8.2,M*26
MSG 0 41628.469 $PGRMB,0.0,200,,,,K,,N,N*31
MSG 0 41628.529 $PGRMM,WGS 84*06
MSG 0 41628.850 $GPRMC,153509,A,4303.1229,N,07038.4862,W,000.5,117.2,030712,016.1,W*74
POS 0 41709.000 366320.912 4767902.084
QUA 0 41709.000 7 9.000 1.000 9.000 1.000 0.000 0.000 0.000
RAW 0 41709.000 4 430312.29000 -703848.62000 -22.50000 153509.00000
MSG 0 41629.000 $GPGGA,153509,4303.1229,N,07038.4862,W,1,09,1.0,9.9,M,-32.4,M,,*73
MSG 0 41629.141 $GPGSA,A,3,,06,,14,16,20,,25,29,30,31,32,1.7,1.0,1.4*3A
MSG 0 41629.260 $GPGSV,3,1,12,03,03,185,33,06,12,171,44,13,00,314,00,14,16,137,42*73
MSG 0 41629.406 $PGRME,5.2,M,6.2,M,8.1,M*24
MSG 0 41629.466 $PGRMB,0.0,200,,,,K,,N,N*31
MSG 0 41629.526 $PGRMM,WGS 84*06
MSG 0 41629.869 $GPRMC,153510,A,4303.1228,N,07038.4858,W,000.8,110.1,030712,016.1,W*7D
POS 0 41710.000 366321.451 4767901.889
QUA 0 41710.000 7 9.000 1.000 9.000 1.000 0.000 0.000 0.000
RAW 0 41710.000 4 430312.28000 -703848.58000 -22.50000 153510.00000
MSG 0 41630.019 $GPGGA,153510,4303.1228,N,07038.4858,W,1,09,1.0,9.9,M,-32.4,M,,*73
MSG 0 41630.161 $GPGSA,A,3,,06,,14,16,20,,25,29,30,31,32,1.7,1.0,1.4*3A
MSG 0 41630.280 $GPGSV,3,2,12,16,49,217,47,20,29,271,47,23,30,311,36,25,09,047,37*75
MSG 0 41630.425 $PGRME,5.2,M,6.2,M,8.1,M*24
MSG 0 41630.486 $PGRMB,0.0,200,,,,K,,N,N*31
MSG 0 41630.546 $PGRMM,WGS 84*06
MSG 0 41630.845 $GPRMC,153511,A,4303.1229,N,07038.4860,W,000.0,110.1,030712,016.1,W*7E
POS 0 41711.000 366321.184 4767902.079
QUA 0 41711.000 7 9.000 1.000 9.000 1.000 0.000 0.000 0.000
RAW 0 41711.000 4 430312.29000 -703848.60000 -22.50000 153511.00000
MSG 0 41630.995 $GPGGA,153511,4303.1229,N,07038.4860,W,1,09,1.0,9.9,M,-32.4,M,,*78
MSG 0 41631.136 $GPGSA,A,3,,06,,14,16,20,,25,29,30,31,32,1.7,1.0,1.4*3A
MSG 0 41631.255 $GPGSV,3,3,12,29,24,056,45,30,79,219,49,31,56,062,50,32,36,239,47*70
MSG 0 41631.401 $PGRME,5.2,M,6.2,M,8.1,M*24
MSG 0 41631.461 $PGRMB,0.0,200,,,,K,,N,N*31
MSG 0 41631.522 $PGRMM,WGS 84*06
MSG 0 41631.867 $GPRMC,153512,A,4303.1228,N,07038.4858,W,000.7,119.5,030712,016.1,W*7D
POS 0 41712.000 366321.451 4767901.889
QUA 0 41712.000 7 9.000 1.000 9.000 1.000 0.000 0.000 0.000
RAW 0 41712.000 4 430312.28000 -703848.58000 -22.60000 153512.00000
MSG 0 41632.017 $GPGGA,153512,4303.1228,N,07038.4858,W,1,09,1.0,9.8,M,-32.4,M,,*70
MSG 0 41632.158 $GPGSA,A,3,,06,,14,16,20,,25,29,30,31,32,1.6,1.0,1.3*3C
MSG 0 41632.277 $GPGSV,3,1,12,03,03,185,33,06,12,171,43,13,00,314,00,14,16,137,41*77
MSG 0 41632.423 $PGRME,5.2,M,6.2,M,8.1,M*24
MSG 0 41632.483 $PGRMB,0.0,200,,,,K,,N,N*31
MSG 0 41632.544 $PGRMM,WGS 84*06
MSG 0 41632.901 $GPRMC,153513,A,4303.1227,N,07038.4853,W,000.7,103.8,030712,016.1,W*7E
POS 0 41713.000 366322.126 4767901.690
QUA 0 41713.000 7 9.000 1.000 9.000 1.000 0.000 0.000 0.000
RAW 0 41713.000 4 430312.27000 -703848.53000 -22.70000 153513.00000
MSG 0 41633.051 $GPGGA,153513,4303.1227,N,07038.4853,W,1,09,1.0,9.7,M,-32.4,M,,*7A
MSG 0 41633.192 $GPGSA,A,3,,06,,14,16,20,,25,29,30,31,32,1.7,1.0,1.4*3A
MSG 0 41633.311 $GPGSV,3,2,12,16,49,217,47,20,29,271,47,23,30,311,36,25,09,047,38*7A
MSG 0 41633.457 $PGRME,5.2,M,6.3,M,8.2,M*26
MSG 0 41633.517 $PGRMB,0.0,200,,,,K,,N,N*31
MSG 0 41633.578 $PGRMM,WGS 84*06
MSG 0 41633.867 $GPRMC,153514,A,4303.1226,N,07038.4852,W,000.5,118.8,030712,016.1,W*71
POS 0 41714.000 366322.259 4767901.503
QUA 0 41714.000 7 9.000 1.000 9.000 1.000 0.000 0.000 0.000
RAW 0 41714.000 4 430312.26000 -703848.52000 -22.60000 153514.00000
MSG 0 41634.017 $GPGGA,153514,4303.1226,N,07038.4852,W,1,09,1.0,9.8,M,-32.4,M,,*72
MSG 0 41634.158 $GPGSA,A,3,,06,,14,16,20,,25,29,30,31,32,1.7,1.0,1.4*3A
MSG 0 41634.277 $GPGSV,3,3,12,29,24,056,45,30,79,219,49,31,56,062,50,32,36,239,47*70
MSG 0 41634.423 $PGRME,5.2,M,6.2,M,8.1,M*24
MSG 0 41634.483 $PGRMB,0.0,200,,,,K,,N,N*31
MSG 0 41634.543 $PGRMM,WGS 84*06
MSG 0 41634.849 $GPRMC,153515,A,4303.1226,N,07038.4850,W,000.6,120.3,030712,016.1,W*71
POS 0 41715.000 366322.530 4767901.497
QUA 0 41715.000 7 9.000 1.000 9.000 1.000 0.000 0.000 0.000
RAW 0 41715.000 4 430312.26000 -703848.50000 -22.90000 153515.00000
MSG 0 41634.998 $GPGGA,153515,4303.1226,N,07038.4850,W,1,09,1.0,9.5,M,-32.4,M,,*7C
MSG 0 41635.140 $GPGSA,A,3,,06,,14,16,20,,25,29,30,31,32,1.6,1.0,1.3*3C
MSG 0 41635.259 $GPGSV,3,1,12,03,03,185,33,06,12,171,43,13,00,314,00,14,16,137,43*75
MSG 0 41635.404 $PGRME,5.2,M,6.2,M,8.1,M*24
MSG 0 41635.465 $PGRMB,0.0,200,,,,K,,N,N*31
MSG 0 41635.525 $PGRMM,WGS 84*06
MSG 0 41635.849 $GPRMC,153516,A,4303.1224,N,07038.4846,W,000.9,116.3,030712,016.1,W*7D
POS 0 41716.000 366323.066 4767901.116
QUA 0 41716.000 7 9.000 1.000 9.000 1.000 0.000 0.000 0.000
RAW 0 41716.000 4 430312.24000 -703848.46000 -22.90000 153516.00000
MSG 0 41635.999 $GPGGA,153516,4303.1224,N,07038.4846,W,1,09,1.0,9.5,M,-32.4,M,,*7A
MSG 0 41636.140 $GPGSA,A,3,,06,,14,16,20,,25,29,30,31,32,1.7,1.0,1.4*3A
MSG 0 41636.259 $GPGSV,3,2,12,16,49,217,46,20,29,271,47,23,30,311,37,25,08,047,37*74
MSG 0 41636.405 $PGRME,5.2,M,6.2,M,8.1,M*24
MSG 0 41636.465 $PGRMB,0.0,200,,,,K,,N,N*31
MSG 0 41636.526 $PGRMM,WGS 84*06
MSG 0 41636.866 $GPRMC,153517,A,4303.1223,N,07038.4845,W,000.7,125.8,030712,016.1,W*7D
POS 0 41717.000 366323.198 4767900.929
QUA 0 41717.000 7 9.000 1.000 9.000 1.000 0.000 0.000 0.000
RAW 0 41717.000 4 430312.23000 -703848.45000 -22.80000 153517.00000
MSG 0 41637.016 $GPGGA,153517,4303.1223,N,07038.4845,W,1,09,1.0,9.6,M,-32.4,M,,*7C
MSG 0 41637.157 $GPGSA,A,3,,06,,14,16,20,,25,29,30,31,32,1.7,1.0,1.4*3A
MSG 0 41637.276 $GPGSV,3,3,12,29,24,056,46,30,79,219,49,31,56,062,50,32,36,239,47*73
MSG 0 41637.422 $PGRME,5.2,M,6.2,M,8.1,M*24
MSG 0 41637.482 $PGRMB,0.0,200,,,,K,,N,N*31
MSG 0 41637.542 $PGRMM,WGS 84*06
MSG 0 41637.850 $GPRMC,153518,A,4303.1224,N,07038.4844,W,000.4,091.6,030712,016.1,W*77
POS 0 41718.000 366323.337 4767901.111
QUA 0 41718.000 7 9.000 1.000 9.000 1.000 0.000 0.000 0.000
RAW 0 41718.000 4 430312.24000 -703848.44000 -22.40000 153518.00000
MSG 0 41638.000 $GPGGA,153518,4303.1224,N,07038.4844,W,1,09,1.0,10.0,M,-32.4,M,,*4B
MSG 0 41638.143 $GPGSA,A,3,,06,,14,16,20,,25,29,30,31,32,1.7,1.0,1.4*3A
MSG 0 41638.262 $GPGSV,3,1,12,03,03,185,32,06,12,171,43,13,00,314,00,14,16,137,42*75
MSG 0 41638.408 $PGRME,5.2,M,6.2,M,8.1,M*24
MSG 0 41638.468 $PGRMB,0.0,200,,,,K,,N,N*31
MSG 0 41638.529 $PGRMM,WGS 84*06
MSG 0 41638.869 $GPRMC,153519,A,4303.1223,N,07038.4841,W,000.7,113.4,030712,016.1,W*7E
POS 0 41719.000 366323.741 4767900.918
QUA 0 41719.000 7 9.000 1.000 9.000 1.000 0.000 0.000 0.000
RAW 0 41719.000 4 430312.23000 -703848.41000 -22.60000 153519.00000
MSG 0 41639.019 $GPGGA,153519,4303.1223,N,07038.4841,W,1,09,1.0,9.8,M,-32.4,M,,*78
MSG 0 41639.160 $GPGSA,A,3,,06,,14,16,20,,25,29,30,31,32,1.7,1.0,1.4*3A
MSG 0 41639.279 $GPGSV,3,2,12,16,49,217,47,20,29,271,46,23,30,311,37,25,08,047,39*7A
MSG 0 41639.425 $PGRME,5.2,M,6.2,M,8.1,M*24
MSG 0 41639.485 $PGRMB,0.0,200,,,,K,,N,N*31
MSG 0 41639.545 $PGRMM,WGS 84*06
MSG 0 41639.850 $GPRMC,153520,A,4303.1222,N,07038.4838,W,000.8,112.8,030712,016.1,W*79
POS 0 41720.000 366324.144 4767900.725
QUA 0 41720.000 7 9.000 1.000 9.000 1.000 0.000 0.000 0.000
RAW 0 41720.000 4 430312.22000 -703848.38000 -22.70000 153520.00000
MSG 0 41640.000 $GPGGA,153520,4303.1222,N,07038.4838,W,1,09,1.0,9.7,M,-32.4,M,,*72
MSG 0 41640.141 $GPGSA,A,3,,06,,14,16,20,,25,29,30,31,32,1.7,1.0,1.4*3A
MSG 0 41640.260 $GPGSV,3,3,12,29,24,056,46,30,79,219,49,31,56,062,51,32,36,239,47*72
MSG 0 41640.406 $PGRME,5.2,M,6.2,M,8.1,M*24
MSG 0 41640.466 $PGRMB,0.0,200,,,,K,,N,N*31
MSG 0 41640.527 $PGRMM,WGS 84*06
MSG 0 41640.860 $GPRMC,153521,A,4303.1222,N,07038.4840,W,000.0,112.8,030712,016.1,W*7F
POS 0 41721.000 366323.873 4767900.730
QUA 0 41721.000 7 9.000 1.000 9.000 1.000 0.000 0.000 0.000
RAW 0 41721.000 4 430312.22000 -703848.40000 -22.40000 153521.00000
MSG 0 41641.010 $GPGGA,153521,4303.1222,N,07038.4840,W,1,09,1.0,10.0,M,-32.4,M,,*43
MSG 0 41641.153 $GPGSA,A,3,,06,,14,16,20,,25,29,30,31,32,1.7,1.0,1.4*3A
MSG 0 41641.272 $GPGSV,3,1,12,03,03,185,32,06,12,171,42,13,00,314,00,14,16,137,43*75
MSG 0 41641.418 $PGRME,5.2,M,6.2,M,8.1,M*24
MSG 0 41641.478 $PGRMB,0.0,200,,,,K,,N,N*31
MSG 0 41641.538 $PGRMM,WGS 84*06
MSG 0 41641.835 $GPRMC,153522,A,4303.1222,N,07038.4839,W,000.3,124.9,030712,016.1,W*75
POS 0 41722.000 366324.009 4767900.728
QUA 0 41722.000 7 9.000 1.000 9.000 1.000 0.000 0.000 0.000
RAW 0 41722.000 4 430312.22000 -703848.39000 -22.60000 153522.00000
MSG 0 41641.985 $GPGGA,153522,4303.1222,N,07038.4839,W,1,09,1.0,9.8,M,-32.4,M,,*7E
MSG 0 41642.126 $GPGSA,A,3,,06,,14,16,20,,25,29,30,31,32,1.7,1.0,1.4*3A
MSG 0 41642.245 $GPGSV,3,2,12,16,49,217,47,20,29,271,46,23,30,311,37,25,08,047,41*75
MSG 0 41642.391 $PGRME,5.2,M,6.2,M,8.1,M*24
MSG 0 41642.451 $PGRMB,0.0,200,,,,K,,N,N*31
MSG 0 41642.511 $PGRMM,WGS 84*06
MSG 0 41642.848 $GPRMC,153523,A,4303.1219,N,07038.4833,W,001.0,120.5,030712,016.1,W*7C
POS 0 41723.000 366324.812 4767900.156
QUA 0 41723.000 7 9.000 1.000 9.000 1.000 0.000 0.000 0.000
RAW 0 41723.000 4 430312.19000 -703848.33000 -22.90000 153523.00000
MSG 0 41642.998 $GPGGA,153523,4303.1219,N,07038.4833,W,1,09,1.0,9.5,M,-32.4,M,,*70
MSG 0 41643.140 $GPGSA,A,3,,06,,14,16,20,,25,29,30,31,32,1.6,1.0,1.3*3C
MSG 0 41643.259 $GPGSV,3,3,12,29,24,056,47,30,79,219,49,31,56,062,51,32,36,239,47*73
MSG 0 41643.404 $PGRME,5.2,M,6.2,M,8.1,M*24
MSG 0 41643.465 $PGRMB,0.0,200,,,,K,,N,N*31
MSG 0 41643.525 $PGRMM,WGS 84*06
MSG 0 41643.852 $GPRMC,153524,A,4303.1221,N,07038.4833,W,000.5,095.7,030712,016.1,W*79
POS 0 41724.000 366324.819 4767900.527
QUA 0 41724.000 7 9.000 1.000 9.000 1.000 0.000 0.000 0.000
RAW 0 41724.000 4 430312.21000 -703848.33000 -22.80000 153524.00000
MSG 0 41644.002 $GPGGA,153524,4303.1221,N,07038.4833,W,1,09,1.0,9.6,M,-32.4,M,,*7F
MSG 0 41644.143 $GPGSA,A,3,,06,,14,16,20,,25,29,30,31,32,1.7,1.0,1.4*3A
MSG 0 41644.262 $GPGSV,3,1,12,03,03,185,33,06,12,171,42,13,00,314,00,14,16,137,43*74
MSG 0 41644.408 $PGRME,5.2,M,6.2,M,8.1,M*24
MSG 0 41644.468 $PGRMB,0.0,200,,,,K,,N,N*31
MSG 0 41644.528 $PGRMM,WGS 84*06
MSG 0 41644.851 $GPRMC,153525,A,4303.1219,N,07038.4832,W,000.5,137.7,030712,016.1,W*7B
POS 0 41725.000 366324.948 4767900.154
QUA 0 41725.000 7 9.000 1.000 9.000 1.000 0.000 0.000 0.000
RAW 0 41725.000 4 430312.19000 -703848.32000 -22.70000 153525.00000
MSG 0 41645.001 $GPGGA,153525,4303.1219,N,07038.4832,W,1,09,1.0,9.7,M,-32.4,M,,*75
MSG 0 41645.142 $GPGSA,A,3,,06,,14,16,20,,25,29,30,31,32,1.7,1.0,1.4*3A
MSG 0 41645.261 $GPGSV,3,2,12,16,49,217,46,20,29,271,46,23,30,311,36,25,08,047,40*74
MSG 0 41645.407 $PGRME,5.2,M,6.2,M,8.1,M*24
MSG 0 41645.467 $PGRMB,0.0,200,,,,K,,N,N*31
MSG 0 41645.528 $PGRMM,WGS 84*06
MSG 0 41645.861 $GPRMC,153526,A,4303.1219,N,07038.4827,W,000.9,103.2,030712,016.1,W*72
POS 0 41726.000 366325.627 4767900.141
QUA 0 41726.000 7 9.000 1.000 9.000 1.000 0.000 0.000 0.000
RAW 0 41726.000 4 430312.19000 -703848.27000 -22.90000 153526.00000
MSG 0 41646.011 $GPGGA,153526,4303.1219,N,07038.4827,W,1,09,1.0,9.5,M,-32.4,M,,*70
MSG 0 41646.152 $GPGSA,A,3,,06,,14,16,20,,25,29,30,31,32,1.6,1.0,1.3*3C
MSG 0 41646.271 $GPGSV,3,3,12,29,24,056,47,30,79,219,49,31,56,062,51,32,36,239,47*73
MSG 0 41646.417 $PGRME,5.2,M,6.2,M,8.1,M*24
MSG 0 41646.477 $PGRMB,0.0,200,,,,K,,N,N*31
MSG 0 41646.538 $PGRMM,WGS 84*06
MSG 0 41646.847 $GPRMC,153527,A,4303.1216,N,07038.4825,W,000.8,128.1,030712,016.1,W*75
POS 0 41727.000 366325.887 4767899.580
QUA 0 41727.000 7 9.000 1.000 9.000 1.000 0.000 0.000 0.000
RAW 0 41727.000 4 430312.16000 -703848.25000 -22.90000 153527.00000
MSG 0 41646.997 $GPGGA,153527,4303.1216,N,07038.4825,W,1,09,1.0,9.5,M,-32.4,M,,*7C
MSG 0 41647.138 $GPGSA,A,3,,06,,14,16,20,,25,29,30,31,32,1.6,1.0,1.3*3C
MSG 0 41647.257 $GPGSV,3,1,12,03,03,185,00,06,12,171,42,13,00,314,00,14,16,137,43*74
MSG 0 41647.403 $PGRME,5.2,M,6.2,M,8.1,M*24
MSG 0 41647.463 $PGRMB,0.0,200,,,,K,,N,N*31
MSG 0 41647.523 $PGRMM,WGS 84*06
MSG 0 41647.848 $GPRMC,153528,A,4303.1216,N,07038.4824,W,000.6,124.2,030712,016.1,W*7A
POS 0 41728.000 366326.023 4767899.577
QUA 0 41728.000 7 9.000 1.000 9.000 1.000 0.000 0.000 0.000
RAW 0 41728.000 4 430312.16000 -703848.24000 -22.70000 153528.00000
MSG 0 41647.998 $GPGGA,153528,4303.1216,N,07038.4824,W,1,09,1.0,9.7,M,-32.4,M,,*70
MSG 0 41648.140 $GPGSA,A,3,,06,,14,16,20,,25,29,30,31,32,1.7,1.0,1.4*3A
MSG 0 41648.258 $GPGSV,3,2,12,16,49,217,46,20,29,271,46,23,30,311,36,25,08,047,40*74
MSG 0 41648.404 $PGRME,5.2,M,6.2,M,8.1,M*24
MSG 0 41648.465 $PGRMB,0.0,200,,,,K,,N,N*31
MSG 0 41648.525 $PGRMM,WGS 84*06
MSG 0 41648.856 $GPRMC,153529,A,4303.1216,N,07038.4823,W,000.4,106.4,030712,016.1,W*78
POS 0 41729.000 366326.159 4767899.575
QUA 0 41729.000 7 9.000 1.000 9.000 1.000 0.000 0.000 0.000
RAW 0 41729.000 4 430312.16000 -703848.23000 -22.40000 153529.00000
MSG 0 41649.006 $GPGGA,153529,4303.1216,N,07038.4823,W,1,09,1.0,10.0,M,-32.4,M,,*49
MSG 0 41649.149 $GPGSA,A,3,,06,,14,16,20,,25,29,30,31,32,1.7,1.0,1.4*3A
MSG 0 41649.268 $GPGSV,3,3,12,29,24,056,48,30,79,219,49,31,56,062,51,32,36,239,47*7C
MSG 0 41649.414 $PGRME,5.2,M,6.2,M,8.1,M*24
MSG 0 41649.474 $PGRMB,0.0,200,,,,K,,N,N*31
MSG 0 41649.534 $PGRMM,WGS 84*06
MSG 0 41649.849 $GPRMC,153530,A,4303.1214,N,07038.4821,W,000.6,131.7,030712,016.1,W*75
POS 0 41730.000 366326.423 4767899.199
QUA 0 41730.000 7 9.000 1.000 9.000 1.000 0.000 0.000 0.000
RAW 0 41730.000 4 430312.14000 -703848.21000 -22.60000 153530.00000
MSG 0 41649.999 $GPGGA,153530,4303.1214,N,07038.4821,W,1,09,1.0,9.8,M,-32.4,M,,*71
MSG 0 41650.140 $GPGSA,A,3,,06,,14,16,20,,25,29,30,31,32,1.7,1.0,1.4*3A
MSG 0 41650.259 $GPGSV,3,1,12,03,03,185,32,06,12,171,42,13,00,314,00,14,16,137,42*74
MSG 0 41650.405 $PGRME,5.2,M,6.2,M,8.1,M*24
MSG 0 41650.465 $PGRMB,0.0,200,,,,K,,N,N*31
MSG 0 41650.525 $PGRMM,WGS 84*06
MSG 0 41650.849 $GPRMC,153531,A,4303.1215,N,07038.4819,W,000.4,080.5,030712,016.1,W*75
POS 0 41731.000 366326.698 4767899.379
QUA 0 41731.000 7 9.000 1.000 9.000 1.000 0.000 0.000 0.000
RAW 0 41731.000 4 430312.15000 -703848.19000 -22.50000 153531.00000
MSG 0 41650.998 $GPGGA,153531,4303.1215,N,07038.4819,W,1,09,1.0,9.9,M,-32.4,M,,*7B
MSG 0 41651.140 $GPGSA,A,3,,06,,14,16,20,,25,29,30,31,32,1.7,1.0,1.4*3A
MSG 0 41651.259 $GPGSV,3,2,12,16,49,217,46,20,29,271,47,23,30,311,36,25,08,047,39*7B
MSG 0 41651.404 $PGRME,5.2,M,6.2,M,8.1,M*24
MSG 0 41651.465 $PGRMB,0.0,200,,,,K,,N,N*31
MSG 0 41651.525 $PGRMM,WGS 84*06
MSG 0 41651.875 $GPRMC,153532,A,4303.1214,N,07038.4819,W,000.3,129.4,030712,016.1,W*73
POS 0 41732.000 366326.694 4767899.194
QUA 0 41732.000 7 9.000 1.000 9.000 1.000 0.000 0.000 0.000
RAW 0 41732.000 4 430312.14000 -703848.19000 -22.80000 153532.00000
MSG 0 41652.025 $GPGGA,153532,4303.1214,N,07038.4819,W,1,09,1.0,9.6,M,-32.4,M,,*76
MSG 0 41652.166 $GPGSA,A,3,,06,,14,16,20,,25,29,30,31,32,1.7,1.0,1.4*3A
MSG 0 41652.285 $GPGSV,3,3,12,29,24,056,48,30,79,219,48,31,56,062,51,32,36,239,47*7D
MSG 0 41652.431 $PGRME,5.2,M,6.2,M,8.1,M*24
MSG 0 41652.491 $PGRMB,0.0,200,,,,K,,N,N*31
MSG 0 41652.551 $PGRMM,WGS 84*06
MSG 0 41652.834 $GPRMC,153533,A,4303.1213,N,07038.4815,W,000.8,117.6,030712,016.1,W*7D
POS 0 41733.000 366327.234 4767898.998
QUA 0 41733.000 7 9.000 1.000 9.000 1.000 0.000 0.000 0.000
RAW 0 41733.000 4 430312.13000 -703848.15000 -22.70000 153533.00000
MSG 0 41652.984 $GPGGA,153533,4303.1213,N,07038.4815,W,1,09,1.0,9.7,M,-32.4,M,,*7D
MSG 0 41653.126 $GPGSA,A,3,,06,,14,16,20,,25,29,30,31,32,1.6,1.0,1.3*3C
MSG 0 41653.244 $GPGSV,3,1,12,03,03,185,32,06,12,171,42,13,00,314,00,14,16,137,43*75
MSG 0 41653.390 $PGRME,5.2,M,6.2,M,8.1,M*24
MSG 0 41653.450 $PGRMB,0.0,200,,,,K,,N,N*31
MSG 0 41653.511 $PGRMM,WGS 84*06
MSG 0 41653.850 $GPRMC,153534,A,4303.1212,N,07038.4813,W,000.6,116.8,030712,016.1,W*7C
POS 0 41734.000 366327.502 4767898.808
QUA 0 41734.000 7 9.000 1.000 9.000 1.000 0.000 0.000 0.000
RAW 0 41734.000 4 430312.12000 -703848.13000 -22.30000 153534.00000
MSG 0 41654.000 $GPGGA,153534,4303.1212,N,07038.4813,W,1,09,1.0,10.1,M,-32.4,M,,*43
MSG 0 41654.144 $GPGSA,A,3,,06,,14,16,20,,25,29,30,31,32,1.7,1.0,1.4*3A
MSG 0 41654.263 $GPGSV,3,2,12,16,49,217,47,20,29,271,47,23,30,311,36,25,08,047,41*75
MSG 0 41654.408 $PGRME,5.2,M,6.2,M,8.1,M*24
MSG 0 41654.469 $PGRMT,GPS 17-HVS Ver. 2.80,P,P,R,R,P,,38,R*00
MSG 0 41654.569 $PGRMB,0.0,200,,,,K,,N,N*31
MSG 0 41654.629 $PGRMM,WGS 84*06
MSG 0 41654.831 $GPRMC,153535,A,4303.1211,N,07038.4814,W,000.3,157.5,030712,016.1,W*74
POS 0 41735.000 366327.362 4767898.625
QUA 0 41735.000 7 9.000 1.000 9.000 1.000 0.000 0.000 0.000
RAW 0 41735.000 4 430312.11000 -703848.14000 -22.50000 153535.00000
MSG 0 41654.980 $GPGGA,153535,4303.1211,N,07038.4814,W,1,09,1.0,9.9,M,-32.4,M,,*76
MSG 0 41655.122 $GPGSA,A,3,,06,,14,16,20,,25,29,30,31,32,1.6,1.0,1.3*3C
MSG 0 41655.241 $GPGSV,3,3,12,29,24,056,49,30,80,220,49,31,56,062,51,32,36,239,47*71
MSG 0 41655.386 $PGRME,5.2,M,6.2,M,8.1,M*24
MSG 0 41655.447 $PGRMB,0.0,200,,,,K,,N,N*31
MSG 0 41655.507 $PGRMM,WGS 84*06
MSG 0 41655.865 $GPRMC,153536,A,4303.1210,N,07038.4809,W,000.8,117.4,030712,016.1,W*74
POS 0 41736.000 366328.037 4767898.427
QUA 0 41736.000 7 9.000 1.000 9.000 1.000 0.000 0.000 0.000
RAW 0 41736.000 4 430312.10000 -703848.09000 -22.80000 153536.00000
MSG 0 41656.015 $GPGGA,153536,4303.1210,N,07038.4809,W,1,09,1.0,9.6,M,-32.4,M,,*77
MSG 0 41656.157 $GPGSA,A,3,,06,,14,16,20,,25,29,30,31,32,1.6,1.0,1.3*3C
MSG 0 41656.276 $GPGSV,3,1,12,03,03,185,32,06,12,171,42,13,00,314,00,14,16,137,43*75
MSG 0 41656.421 $PGRME,5.2,M,6.2,M,8.1,M*24
MSG 0 41656.482 $PGRMB,0.0,200,,,,K,,N,N*31
MSG 0 41656.542 $PGRMM,WGS 84*06
MSG 0 41656.846 $GPRMC,153537,A,4303.1209,N,07038.4808,W,000.6,119.3,030712,016.1,W*7B
POS 0 41737.000 366328.169 4767898.239
QUA 0 41737.000 7 9.000 1.000 9.000 1.000 0.000 0.000 0.000
RAW 0 41737.000 4 430312.09000 -703848.08000 -23.00000 153537.00000
MSG 0 41656.996 $GPGGA,153537,4303.1209,N,07038.4808,W,1,09,1.0,9.4,M,-32.4,M,,*7D
MSG 0 41657.138 $GPGSA,A,3,,06,,14,16,20,,25,29,30,31,32,1.7,1.0,1.4*3A
MSG 0 41657.256 $GPGSV,3,2,12,16,49,217,46,20,29,271,47,23,30,311,36,25,08,047,40*75
MSG 0 41657.402 $PGRME,5.2,M,6.2,M,8.1,M*24
MSG 0 41657.463 $PGRMB,0.0,200,,,,K,,N,N*31
MSG 0 41657.523 $PGRMM,WGS 84*06
MSG 0 41657.860 $GPRMC,153538,A,4303.1209,N,07038.4807,W,000.4,116.0,030712,016.1,W*75
POS 0 41738.000 366328.305 4767898.237
QUA 0 41738.000 7 9.000 1.000 9.000 1.000 0.000 0.000 0.000
RAW 0 41738.000 4 430312.09000 -703848.07000 -22.40000 153538.00000
MSG 0 41658.010 $GPGGA,153538,4303.1209,N,07038.4807,W,1,09,1.0,10.0,M,-32.4,M,,*41
MSG 0 41658.154 $GPGSA,A,3,,06,,14,16,20,,25,29,30,31,32,1.6,1.0,1.3*3C
MSG 0 41658.273 $GPGSV,3,3,12,29,24,056,49,30,80,220,49,31,55,063,51,32,36,239,47*73
MSG 0 41658.418 $PGRME,5.2,M,6.2,M,8.1,M*24
MSG 0 41658.479 $PGRMB,0.0,200,,,,K,,N,N*31
MSG 0 41658.539 $PGRMM,WGS 84*06
MSG 0 41658.851 $GPRMC,153539,A,4303.1208,N,07038.4803,W,000.7,103.2,030712,016.1,W*74
POS 0 41739.000 366328.844 4767898.041
QUA 0 41739.000 7 9.000 1.000 9.000 1.000 0.000 0.000 0.000
RAW 0 41739.000 4 430312.08000 -703848.03000 -22.50000 153539.00000
MSG 0 41659.001 $GPGGA,153539,4303.1208,N,07038.4803,W,1,09,1.0,9.9,M,-32.4,M,,*74
MSG 0 41659.143 $GPGSA,A,3,,06,,14,16,20,,25,29,30,31,32,1.6,1.0,1.3*3C
MSG 0 41659.261 $GPGSV,3,1,12,03,03,185,32,06,12,171,42,13,00,314,00,14,16,137,42*74
MSG 0 41659.407 $PGRME,5.2,M,6.2,M,8.1,M*24
MSG 0 41659.468 $PGRMB,0.0,200,,,,K,,N,N*31
MSG 0 41659.528 $PGRMM,WGS 84*06
MSG 0 41659.864 $GPRMC,153540,A,4303.1206,N,07038.4800,W,000.9,121.3,030712,016.1,W*78
POS 0 41740.000 366329.244 4767897.663
QUA 0 41740.000 7 9.000 1.000 9.000 1.000 0.000 0.000 0.000
RAW 0 41740.000 4 430312.06000 -703848.00000 -22.40000 153540.00000
MSG 0 41660.014 $GPGGA,153540,4303.1206,N,07038.4800,W,1,09,1.0,10.0,M,-32.4,M,,*46
MSG 0 41660.158 $GPGSA,A,3,,06,,14,16,20,,25,29,30,31,32,1.6,1.0,1.3*3C
MSG 0 41660.276 $GPGSV,3,2,12,16,49,217,47,20,29,271,47,23,30,311,35,25,08,047,40*77
MSG 0 41660.422 $PGRME,5.2,M,6.2,M,8.1,M*24
MSG 0 41660.482 $PGRMB,0.0,200,,,,K,,N,N*31
MSG 0 41660.543 $PGRMM,WGS 84*06
MSG 0 41660.848 $GPRMC,153541,A,4303.1206,N,07038.4802,W,000.3,139.9,030712,016.1,W*72
POS 0 41741.000 366328.973 4767897.668
QUA 0 41741.000 7 9.000 1.000 9.000 1.000 0.000 0.000 0.000
RAW 0 41741.000 4 430312.06000 -703848.02000 -22.20000 153541.00000
MSG 0 41660.998 $GPGGA,153541,4303.1206,N,07038.4802,W,1,09,1.0,10.2,M,-32.4,M,,*47
MSG 0 41661.142 $GPGSA,A,3,,06,,14,16,20,,25,29,30,31,32,1.6,1.0,1.3*3C
MSG 0 41661.261 $GPGSV,3,3,12,29,24,055,48,30,80,220,49,31,55,063,51,32,35,239,47*72
MSG 0 41661.406 $PGRME,5.2,M,6.2,M,8.1,M*24
MSG 0 41661.467 $PGRMB,0.0,200,,,,K,,N,N*31
MSG 0 41661.527 $PGRMM,WGS 84*06
MSG 0 41661.851 $GPRMC,153542,A,4303.1205,N,07038.4801,W,000.3,134.1,030712,016.1,W*74
POS 0 41742.000 366329.105 4767897.480
QUA 0 41742.000 7 9.000 1.000 9.000 1.000 0.000 0.000 0.000
RAW 0 41742.000 4 430312.05000 -703848.01000 -22.10000 153542.00000
MSG 0 41662.001 $GPGGA,153542,4303.1205,N,07038.4801,W,1,09,1.0,10.3,M,-32.4,M,,*45
MSG 0 41662.145 $GPGSA,A,3,,06,,14,16,20,,25,29,30,31,32,1.6,1.0,1.3*3C
MSG 0 41662.263 $GPGSV,3,1,12,03,03,185,00,06,12,171,42,13,00,314,00,14,16,137,43*74
MSG 0 41662.409 $PGRME,5.2,M,6.2,M,8.1,M*24
MSG 0 41662.470 $PGRMB,0.0,200,,,,K,,N,N*31
MSG 0 41662.530 $PGRMM,WGS 84*06
MSG 0 41662.854 $GPRMC,153543,A,4303.1204,N,07038.4798,W,000.5,128.8,030712,016.1,W*79
POS 0 41743.000 366329.509 4767897.287
QUA 0 41743.000 7 9.000 1.000 9.000 1.000 0.000 0.000 0.000
RAW 0 41743.000 4 430312.04000 -703847.98000 -22.40000 153543.00000
MSG 0 41663.004 $GPGGA,153543,4303.1204,N,07038.4798,W,1,09,1.0,10.0,M,-32.4,M,,*49
MSG 0 41663.148 $GPGSA,A,3,,06,,14,16,20,,25,29,30,31,32,1.6,1.0,1.3*3C
MSG 0 41663.266 $GPGSV,3,2,12,16,49,217,47,20,29,271,47,23,30,311,36,25,08,047,38*7B
MSG 0 41663.412 $PGRME,5.2,M,6.2,M,8.1,M*24
MSG 0 41663.472 $PGRMB,0.0,200,,,,K,,N,N*31
MSG 0 41663.533 $PGRMM,WGS 84*06
MSG 0 41663.867 $GPRMC,153544,A,4303.1204,N,07038.4796,W,000.6,098.4,030712,016.1,W*75
POS 0 41744.000 366329.780 4767897.282
QUA 0 41744.000 7 9.000 1.000 9.000 1.000 0.000 0.000 0.000
RAW 0 41744.000 4 430312.04000 -703847.96000 -22.60000 153544.00000
MSG 0 41664.017 $GPGGA,153544,4303.1204,N,07038.4796,W,1,09,1.0,9.8,M,-32.4,M,,*70
MSG 0 41664.159 $GPGSA,A,3,,06,,14,16,20,,25,29,30,31,32,1.7,1.0,1.4*3A
MSG 0 41664.277 $GPGSV,3,3,12,29,24,055,49,30,80,220,49,31,55,063,52,32,35,239,46*71
MSG 0 41664.423 $PGRME,5.2,M,6.2,M,8.1,M*24
MSG 0 41664.483 $PGRMB,0.0,200,,,,K,,N,N*31
MSG 0 41664.544 $PGRMM,WGS 84*06
MSG 0 41664.868 $GPRMC,153545,A,4303.1203,N,07038.4795,W,000.4,129.4,030712,016.1,W*79
POS 0 41745.000 366329.912 4767897.094
QUA 0 41745.000 7 9.000 1.000 9.000 1.000 0.000 0.000 0.000
RAW 0 41745.000 4 430312.03000 -703847.95000 -22.70000 153545.00000
MSG 0 41665.018 $GPGGA,153545,4303.1203,N,07038.4795,W,1,09,1.0,9.7,M,-32.4,M,,*7A
MSG 0 41665.159 $GPGSA,A,3,,06,,14,16,20,,25,29,30,31,32,1.7,1.0,1.3*3D
MSG 0 41665.278 $GPGSV,3,1,12,03,03,185,00,06,12,171,42,13,00,314,00,14,16,137,43*74
MSG 0 41665.424 $PGRME,5.2,M,6.2,M,8.1,M*24
MSG 0 41665.484 $PGRMB,0.0,200,,,,K,,N,N*31
MSG 0 41665.544 $PGRMM,WGS 84*06
MSG 0 41665.891 $GPRMC,153546,A,4303.1202,N,07038.4791,W,000.8,116.9,030712,016.1,W*72
POS 0 41746.000 366330.452 4767896.898
QUA 0 41746.000 7 9.000 1.000 9.000 1.000 0.000 0.000 0.000
RAW 0 41746.000 4 430312.02000 -703847.91000 -22.80000 153546.00000
MSG 0 41666.041 $GPGGA,153546,4303.1202,N,07038.4791,W,1,09,1.0,9.6,M,-32.4,M,,*7D
MSG 0 41666.183 $GPGSA,A,3,,06,,14,16,20,,25,29,30,31,32,1.6,1.0,1.3*3C
MSG 0 41666.301 $GPGSV,3,2,12,16,49,217,46,20,29,271,47,23,30,311,36,25,08,047,41*74
MSG 0 41666.447 $PGRME,5.2,M,6.2,M,8.1,M*24
MSG 0 41666.507 $PGRMB,0.0,200,,,,K,,N,N*31
MSG 0 41666.568 $PGRMM,WGS 84*06
MSG 0 41666.889 $GPRMC,153547,A,4303.1200,N,07038.4787,W,000.9,118.7,030712,016.1,W*77
POS 0 41747.000 366330.987 4767896.518
QUA 0 41747.000 7 9.000 1.000 9.000 1.000 0.000 0.000 0.000
RAW 0 41747.000 4 430312.00000 -703847.87000 -22.50000 153547.00000
MSG 0 41667.039 $GPGGA,153547,4303.1200,N,07038.4787,W,1,09,1.0,9.9,M,-32.4,M,,*76
MSG 0 41667.181 $GPGSA,A,3,,06,,14,16,20,,25,29,30,31,32,1.7,1.0,1.3*3D
MSG 0 41667.299 $GPGSV,3,3,12,29,24,055,48,30,80,220,49,31,55,063,51,32,35,239,46*73
MSG 0 41667.445 $PGRME,5.3,M,6.3,M,8.2,M*27
MSG 0 41667.506 $PGRMB,0.0,200,,,,K,,N,N*31
MSG 0 41667.566 $PGRMM,WGS 84*06
MSG 0 41667.864 $GPRMC,153548,A,4303.1199,N,07038.4788,W,000.5,133.7,030712,016.1,W*71
POS 0 41748.000 366330.848 4767896.335
QUA 0 41748.000 7 9.000 1.000 9.000 1.000 0.000 0.000 0.000
RAW 0 41748.000 4 430311.99000 -703847.88000 -22.10000 153548.00000
MSG 0 41668.014 $GPGGA,153548,4303.1199,N,07038.4788,W,1,09,1.0,10.3,M,-32.4,M,,*47
MSG 0 41668.157 $GPGSA,A,3,,06,,14,16,20,,25,29,30,31,32,1.7,1.0,1.3*3D
MSG 0 41668.276 $GPGSV,3,1,12,03,03,185,00,06,12,171,42,13,00,314,00,14,16,137,42*75
MSG 0 41668.422 $PGRME,5.3,M,6.3,M,8.2,M*27
MSG 0 41668.482 $PGRMB,0.0,200,,,,K,,N,N*31
MSG 0 41668.542 $PGRMM,WGS 84*06
MSG 0 41668.890 $GPRMC,153549,A,4303.1199,N,07038.4787,W,000.3,117.4,030712,016.1,W*7C
POS 0 41749.000 366330.984 4767896.333
QUA 0 41749.000 7 9.000 1.000 9.000 1.000 0.000 0.000 0.000
RAW 0 41749.000 4 430311.99000 -703847.87000 -22.00000 153549.00000
MSG 0 41669.040 $GPGGA,153549,4303.1199,N,07038.4787,W,1,09,1.0,10.4,M,-32.4,M,,*4E
MSG 0 41669.184 $GPGSA,A,3,,06,,14,16,20,,25,29,30,31,32,1.7,1.0,1.4*3A
MSG 0 41669.302 $GPGSV,3,2,12,16,49,217,46,20,29,271,47,23,30,311,36,25,08,047,40*75
MSG 0 41669.448 $PGRME,5.2,M,6.2,M,8.1,M*24
MSG 0 41669.508 $PGRMB,0.0,200,,,,K,,N,N*31
MSG 0 41669.569 $PGRMM,WGS 84*06
MSG 0 41669.843 $GPRMC,153550,A,4303.1198,N,07038.4784,W,000.6,120.5,030712,016.1,W*76
POS 0 41750.000 366331.387 4767896.139
QUA 0 41750.000 7 9.000 1.000 9.000 1.000 0.000 0.000 0.000
RAW 0 41750.000 4 430311.98000 -703847.84000 -22.20000 153550.00000
MSG 0 41669.993 $GPGGA,153550,4303.1198,N,07038.4784,W,1,09,1.0,10.2,M,-32.4,M,,*42
MSG 0 41670.137 $GPGSA,A,3,,06,,14,16,20,,25,29,30,31,32,1.7,1.0,1.3*3D
MSG 0 41670.256 $GPGSV,3,3,12,29,24,055,49,30,80,220,49,31,55,063,51,32,35,239,46*72
MSG 0 41670.401 $PGRME,5.3,M,6.3,M,8.2,M*27
MSG 0 41670.462 $PGRMB,0.0,200,,,,K,,N,N*31
MSG 0 41670.522 $PGRMM,WGS 84*06
MSG 0 41670.845 $GPRMC,153551,A,4303.1197,N,07038.4784,W,000.4,140.0,030712,016.1,W*79
POS 0 41751.000 366331.384 4767895.954
QUA 0 41751.000 7 9.000 1.000 9.000 1.000 0.000 0.000 0.000
RAW 0 41751.000 4 430311.97000 -703847.84000 -22.50000 153551.00000
MSG 0 41670.995 $GPGGA,153551,4303.1197,N,07038.4784,W,1,09,1.0,9.9,M,-32.4,M,,*7F
MSG 0 41671.136 $GPGSA,A,3,,06,,14,16,20,,25,29,30,31,32,1.7,1.0,1.3*3D
MSG 0 41671.255 $GPGSV,3,1,12,03,04,185,32,06,12,171,43,13,00,314,00,14,16,137,42*72
MSG 0 41671.401 $PGRME,5.2,M,6.2,M,8.1,M*24
MSG 0 41671.461 $PGRMB,0.0,200,,,,K,,N,N*31
MSG 0 41671.522 $PGRMM,WGS 84*06
MSG 0 41671.834 $GPRMC,153552,A,4303.1195,N,07038.4781,W,000.6,123.5,030712,016.1,W*7F
POS 0 41752.000 366331.784 4767895.576
QUA 0 41752.000 7 9.000 1.000 9.000 1.000 0.000 0.000 0.000
RAW 0 41752.000 4 430311.95000 -703847.81000 -22.40000 153552.00000
MSG 0 41671.984 $GPGGA,153552,4303.1195,N,07038.4781,W,1,09,1.0,10.0,M,-32.4,M,,*4A
MSG 0 41672.128 $GPGSA,A,3,,06,,14,16,20,,25,29,30,31,32,1.6,1.0,1.3*3C
MSG 0 41672.246 $GPGSV,3,2,12,16,49,217,46,20,29,271,47,23,30,311,36,25,08,047,40*75
MSG 0 41672.392 $PGRME,5.2,M,6.2,M,8.1,M*24
MSG 0 41672.452 $PGRMB,0.0,200,,,,K,,N,N*31
MSG 0 41672.513 $PGRMM,WGS 84*06
MSG 0 41672.845 $GPRMC,153553,A,4303.1195,N,07038.4779,W,000.6,117.3,030712,016.1,W*78
POS 0 41753.000 366332.055 4767895.571
QUA 0 41753.000 7 9.000 1.000 9.000 1.000 0.000 0.000 0.000
RAW 0 41753.000 4 430311.95000 -703847.79000 -22.20000 153553.00000
MSG 0 41672.995 $GPGGA,153553,4303.1195,N,07038.4779,W,1,09,1.0,10.2,M,-32.4,M,,*4E
MSG 0 41673.139 $GPGSA,A,3,,06,,14,16,20,,25,29,30,31,32,1.6,1.0,1.3*3C
MSG 0 41673.257 $GPGSV,3,3,12,29,24,055,49,30,80,220,49,31,55,063,51,32,35,239,46*72
MSG 0 41673.403 $PGRME,5.2,M,6.2,M,8.1,M*24
MSG 0 41673.463 $PGRMB,0.0,200,,,,K,,N,N*31
MSG 0 41673.524 $PGRMM,WGS 84*06
MSG 0 41673.833 $GPRMC,153554,A,4303.1194,N,07038.4778,W,000.5,124.7,030712,016.1,W*78
POS 0 41754.000 366332.187 4767895.383
QUA 0 41754.000 7 9.000 1.000 9.000 1.000 0.000 0.000 0.000
RAW 0 41754.000 4 430311.94000 -703847.78000 -22.20000 153554.00000
MSG 0 41673.983 $GPGGA,153554,4303.1194,N,07038.4778,W,1,09,1.0,10.2,M,-32.4,M,,*49
MSG 0 41674.127 $GPGSA,A,3,,06,,14,16,20,,25,29,30,31,32,1.6,1.0,1.3*3C
MSG 0 41674.246 $GPGSV,3,1,12,03,04,185,32,06,12,171,42,13,00,314,00,14,16,137,43*72
MSG 0 41674.391 $PGRME,5.2,M,6.2,M,8.1,M*24
MSG 0 41674.452 $PGRMB,0.0,200,,,,K,,N,N*31
MSG 0 41674.512 $PGRMM,WGS 84*06
MSG 0 41674.847 $GPRMC,153555,A,4303.1193,N,07038.4774,W,000.7,111.1,030712,016.1,W*70
POS 0 41755.000 366332.727 4767895.188
QUA 0 41755.000 7 9.000 1.000 9.000 1.000 0.000 0.000 0.000
RAW 0 41755.000 4 430311.93000 -703847.74000 -22.20000 153555.00000
MSG 0 41674.997 $GPGGA,153555,4303.1193,N,07038.4774,W,1,09,1.0,10.2,M,-32.4,M,,*43
MSG 0 41675.141 $GPGSA,A,3,,06,,14,16,20,,25,29,30,31,32,1.6,1.0,1.3*3C
MSG 0 41675.259 $GPGSV,3,2,12,16,49,217,46,20,29,271,47,23,30,311,36,25,08,047,40*75
MSG 0 41675.405 $PGRME,5.2,M,6.2,M,8.1,M*24
MSG 0 41675.466 $PGRMB,0.0,200,,,,K,,N,N*31
MSG 0 41675.526 $PGRMM,WGS 84*06
MSG 0 41675.833 $GPRMC,153556,A,4303.1191,N,07038.4774,W,000.5,144.1,030712,016.1,W*73
POS 0 41756.000 366332.719 4767894.817
QUA 0 41756.000 7 9.000 1.000 9.000 1.000 0.000 0.000 0.000
RAW 0 41756.000 4 430311.91000 -703847.74000 -22.20000 153556.00000
MSG 0 41675.983 $GPGGA,153556,4303.1191,N,07038.4774,W,1,09,1.0,10.2,M,-32.4,M,,*42
MSG 0 41676.127 $GPGSA,A,3,,06,,14,16,20,,25,29,30,31,32,1.6,1.0,1.3*3C
MSG 0 41676.246 $GPGSV,3,3,12,29,24,055,48,30,80,220,49,31,55,063,51,32,35,239,46*73
MSG 0 41676.391 $PGRME,5.2,M,6.2,M,8.1,M*24
MSG 0 41676.452 $PGRMB,0.0,200,,,,K,,N,N*31
MSG 0 41676.512 $PGRMM,WGS 84*06
MSG 0 41676.860 $GPRMC,153557,A,4303.1190,N,07038.4772,W,000.5,129.5,030712,016.1,W*7A
POS 0 41757.000 366332.987 4767894.627
QUA 0 41757.000 7 9.000 1.000 9.000 1.000 0.000 0.000 0.000
RAW 0 41757.000 4 430311.90000 -703847.72000 -22.20000 153557.00000
MSG 0 41677.010 $GPGGA,153557,4303.1190,N,07038.4772,W,1,09,1.0,10.2,M,-32.4,M,,*44
MSG 0 41677.154 $GPGSA,A,3,,06,,14,16,20,,25,29,30,31,32,1.7,1.0,1.3*3D
MSG 0 41677.272 $GPGSV,3,1,12,03,04,185,33,06,12,171,42,13,00,314,00,14,16,137,43*73
MSG 0 41677.418 $PGRME,5.2,M,6.2,M,8.1,M*24
MSG 0 41677.479 $PGRMB,0.0,200,,,,K,,N,N*31
MSG 0 41677.539 $PGRMM,WGS 84*06
MSG 0 41677.834 $GPRMC,153558,A,4303.1189,N,07038.4770,W,000.7,131.0,030712,016.1,W*71
POS 0 41758.000 366333.255 4767894.437
QUA 0 41758.000 7 9.000 1.000 9.000 1.000 0.000 0.000 0.000
RAW 0 41758.000 4 430311.89000 -703847.70000 -22.40000 153558.00000
MSG 0 41677.984 $GPGGA,153558,4303.1189,N,07038.4770,W,1,09,1.0,10.0,M,-32.4,M,,*43
MSG 0 41678.129 $GPGSA,A,3,,06,,14,16,20,,25,29,30,31,32,1.6,1.0,1.3*3C
MSG 0 41678.247 $GPGSV,3,2,12,16,49,217,46,20,29,271,47,23,30,311,36,25,08,047,38*7A
MSG 0 41678.392 $PGRME,5.2,M,6.2,M,8.1,M*24
MSG 0 41678.453 $PGRMB,0.0,200,,,,K,,N,N*31
MSG 0 41678.513 $PGRMM,WGS 84*06
MSG 0 41678.834 $GPRMC,153559,A,4303.1188,N,07038.4766,W,000.8,121.4,030712,016.1,W*7C
POS 0 41759.000 366333.794 4767894.241
QUA 0 41759.000 7 9.000 1.000 9.000 1.000 0.000 0.000 0.000
RAW 0 41759.000 4 430311.88000 -703847.66000 -22.20000 153559.00000
MSG 0 41678.984 $GPGGA,153559,4303.1188,N,07038.4766,W,1,09,1.0,10.2,M,-32.4,M,,*46
MSG 0 41679.128 $GPGSA,A,3,,06,,14,16,20,,25,29,30,31,32,1.6,1.0,1.3*3C
MSG 0 41679.246 $GPGSV,3,3,12,29,24,055,48,30,80,220,49,31,55,063,51,32,35,239,47*72
MSG 0 41679.392 $PGRME,5.2,M,6.2,M,8.1,M*24
MSG 0 41679.452 $PGRMB,0.0,200,,,,K,,N,N*31
MSG 0 41679.513 $PGRMM,WGS 84*06
MSG 0 41679.864 $GPRMC,153600,A,4303.1188,N,07038.4765,W,000.5,106.1,030712,016.1,W*7D
POS 0 41760.000 366333.930 4767894.238
QUA 0 41760.000 7 9.000 1.000 9.000 1.000 0.000 0.000 0.000
RAW 0 41760.000 4 430311.88000 -703847.65000 -22.00000 153600.00000
MSG 0 41680.014 $GPGGA,153600,4303.1188,N,07038.4765,W,1,09,1.0,10.4,M,-32.4,M,,*4C
MSG 0 41680.158 $GPGSA,A,3,,06,,14,16,20,,25,29,30,31,32,1.6,1.0,1.3*3C
MSG 0 41680.276 $GPGSV,3,1,12,03,04,185,33,06,12,171,42,13,00,314,00,14,16,137,43*73
MSG 0 41680.422 $PGRME,5.2,M,6.2,M,8.1,M*24
MSG 0 41680.482 $PGRMB,0.0,200,,,,K,,N,N*31
MSG 0 41680.543 $PGRMM,WGS 84*06
MSG 0 41680.833 $GPRMC,153601,A,4303.1187,N,07038.4764,W,000.4,113.5,030712,016.1,W*73
POS 0 41761.000 366334.062 4767894.050
QUA 0 41761.000 7 9.000 1.000 9.000 1.000 0.000 0.000 0.000
RAW 0 41761.000 4 430311.87000 -703847.64000 -22.00000 153601.00000
MSG 0 41680.983 $GPGGA,153601,4303.1187,N,07038.4764,W,1,09,1.0,10.4,M,-32.4,M,,*43
MSG 0 41681.127 $GPGSA,A,3,,06,,14,16,20,,25,29,30,31,32,1.6,1.0,1.3*3C
MSG 0 41681.245 $GPGSV,3,2,12,16,49,217,46,20,29,271,47,23,30,311,36,25,08,047,41*74
MSG 0 41681.391 $PGRME,5.2,M,6.2,M,8.1,M*24
MSG 0 41681.451 $PGRMB,0.0,200,,,,K,,N,N*31
MSG 0 41681.512 $PGRMM,WGS 84*06
MSG 0 41681.833 $GPRMC,153602,A,4303.1185,N,07038.4761,W,000.7,125.2,030712,016.1,W*76
POS 0 41762.000 366334.462 4767893.672
QUA 0 41762.000 7 9.000 1.000 9.000 1.000 0.000 0.000 0.000
RAW 0 41762.000 4 430311.85000 -703847.61000 -21.90000 153602.00000
MSG 0 41681.983 $GPGGA,153602,4303.1185,N,07038.4761,W,1,09,1.0,10.5,M,-32.4,M,,*46
MSG 0 41682.127 $GPGSA,A,3,,06,,14,16,20,,25,29,30,31,32,1.6,1.0,1.3*3C
MSG 0 41682.245 $GPGSV,3,3,12,29,24,055,48,30,80,220,49,31,55,063,51,32,35,239,47*72
MSG 0 41682.391 $PGRME,5.2,M,6.2,M,8.1,M*24
MSG 0 41682.451 $PGRMB,0.0,200,,,,K,,N,N*31
MSG 0 41682.512 $PGRMM,WGS 84*06
MSG 0 41682.854 $GPRMC,153603,A,4303.1186,N,07038.4762,W,000.3,111.6,030712,016.1,W*70
POS 0 41763.000 366334.330 4767893.860
QUA 0 41763.000 7 9.000 1.000 9.000 1.000 0.000 0.000 0.000
RAW 0 41763.000 4 430311.86000 -703847.62000 -21.90000 153603.00000
MSG 0 41683.004 $GPGGA,153603,4303.1186,N,07038.4762,W,1,09,1.0,10.5,M,-32.4,M,,*47
MSG 0 41683.148 $GPGSA,A,3,,06,,14,16,20,,25,29,30,31,32,1.6,1.0,1.3*3C
MSG 0 41683.266 $GPGSV,3,1,12,03,04,185,33,06,12,171,42,13,00,314,00,14,16,137,43*73
MSG 0 41683.412 $PGRME,5.2,M,6.2,M,8.1,M*24
MSG 0 41683.472 $PGRMB,0.0,200,,,,K,,N,N*31
MSG 0 41683.533 $PGRMM,WGS 84*06
MSG 0 41683.848 $GPRMC,153604,A,4303.1184,N,07038.4761,W,000.5,148.1,030712,016.1,W*7B
POS 0 41764.000 366334.459 4767893.487
QUA 0 41764.000 7 9.000 1.000 9.000 1.000 0.000 0.000 0.000
RAW 0 41764.000 4 430311.84000 -703847.61000 -22.00000 153604.00000
MSG 0 41683.998 $GPGGA,153604,4303.1184,N,07038.4761,W,1,09,1.0,10.4,M,-32.4,M,,*40
MSG 0 41684.141 $GPGSA,A,3,,06,,14,16,20,,25,29,30,31,32,1.7,1.0,1.3*3D
MSG 0 41684.260 $GPGSV,3,2,12,16,49,217,46,20,29,271,47,23,30,311,36,25,08,047,39*7B
MSG 0 41684.406 $PGRME,5.2,M,6.2,M,8.1,M*24
MSG 0 41684.466 $PGRMB,0.0,200,,,,K,,N,N*31
MSG 0 41684.527 $PGRMM,WGS 84*06
MSG 0 41684.847 $GPRMC,153605,A,4303.1183,N,07038.4756,W,000.8,118.1,030712,016.1,W*71
POS 0 41765.000 366335.134 4767893.289
QUA 0 41765.000 7 9.000 1.000 9.000 1.000 0.000 0.000 0.000
RAW 0 41765.000 4 430311.83000 -703847.56000 -22.40000 153605.00000
MSG 0 41684.997 $GPGGA,153605,4303.1183,N,07038.4756,W,1,09,1.0,10.0,M,-32.4,M,,*46
MSG 0 41685.141 $GPGSA,A,3,,06,,14,16,20,,25,29,30,31,32,1.7,1.0,1.3*3D
MSG 0 41685.260 $GPGSV,3,3,12,29,24,055,48,30,80,220,48,31,55,063,51,32,35,239,47*73
MSG 0 41685.405 $PGRME,5.2,M,6.2,M,8.1,M*24
MSG 0 41685.466 $PGRMB,0.0,200,,,,K,,N,N*31
MSG 0 41685.526 $PGRMM,WGS 84*06
MSG 0 41685.845 $GPRMC,153606,A,4303.1181,N,07038.4755,W,000.7,131.2,030712,016.1,W*74
POS 0 41766.000 366335.262 4767892.916
QUA 0 41766.000 7 9.000 1.000 9.000 1.000 0.000 0.000 0.000
RAW 0 41766.000 4 430311.81000 -703847.55000 -22.20000 153606.00000
MSG 0 41685.995 $GPGGA,153606,4303.1181,N,07038.4755,W,1,09,1.0,10.2,M,-32.4,M,,*46
MSG 0 41686.139 $GPGSA,A,3,,06,,14,16,20,,25,29,30,31,32,1.7,1.0,1.4*3A
MSG 0 41686.257 $GPGSV,3,1,12,03,04,185,33,06,12,171,43,13,00,314,00,14,16,137,43*72
MSG 0 41686.403 $PGRME,5.2,M,6.2,M,8.1,M*24
MSG 0 41686.464 $PGRMB,0.0,200,,,,K,,N,N*31
MSG 0 41686.524 $PGRMM,WGS 84*06
MSG 0 41686.834 $GPRMC,153607,A,4303.1182,N,07038.4756,W,000.2,122.6,030712,016.1,W*76
POS 0 41767.000 366335.130 4767893.104
QUA 0 41767.000 7 9.000 1.000 9.000 1.000 0.000 0.000 0.000
RAW 0 41767.000 4 430311.82000 -703847.56000 -22.00000 153607.00000
MSG 0 41686.983 $GPGGA,153607,4303.1182,N,07038.4756,W,1,09,1.0,10.4,M,-32.4,M,,*41
MSG 0 41687.127 $GPGSA,A,3,,06,,14,16,20,,25,29,30,31,32,1.6,1.0,1.3*3C
MSG 0 41687.246 $GPGSV,3,2,12,16,49,217,47,20,29,271,47,23,30,311,36,25,08,047,40*74
MSG 0 41687.392 $PGRME,5.2,M,6.2,M,8.1,M*24
MSG 0 41687.452 $PGRMB,0.0,200,,,,K,,N,N*31
MSG 0 41687.512 $PGRMM,WGS 84*06
MSG 0 41687.832 $GPRMC,153608,A,4303.1180,N,07038.4750,W,000.9,118.1,030712,016.1,W*78
POS 0 41768.000 366335.937 4767892.718
QUA 0 41768.000 7 9.000 1.000 9.000 1.000 0.000 0.000 0.000
RAW 0 41768.000 4 430311.80000 -703847.50000 -22.00000 153608.00000
MSG 0 41687.982 $GPGGA,153608,4303.1180,N,07038.4750,W,1,09,1.0,10.4,M,-32.4,M,,*4A
MSG 0 41688.126 $GPGSA,A,3,,06,,14,16,20,,25,29,30,31,32,1.6,1.0,1.3*3C
MSG 0 41688.245 $GPGSV,3,3,12,29,24,055,47,30,80,220,49,31,55,063,51,32,35,239,48*72
MSG 0 41688.390 $PGRME,5.2,M,6.2,M,8.1,M*24
MSG 0 41688.451 $PGRMB,0.0,200,,,,K,,N,N*31
MSG 0 41688.511 $PGRMM,WGS 84*06
MSG 0 41688.844 $GPRMC,153609,A,4303.1180,N,07038.4749,W,000.7,115.0,030712,016.1,W*73
POS 0 41769.000 366336.073 4767892.715
QUA 0 41769.000 7 9.000 1.000 9.000 1.000 0.000 0.000 0.000
RAW 0 41769.000 4 430311.80000 -703847.49000 -22.10000 153609.00000
MSG 0 41688.994 $GPGGA,153609,4303.1180,N,07038.4749,W,1,09,1.0,10.3,M,-32.4,M,,*44
MSG 0 41689.138 $GPGSA,A,3,,06,,14,16,20,,25,29,30,31,32,1.6,1.0,1.3*3C
MSG 0 41689.256 $GPGSV,3,1,12,03,04,185,33,06,12,171,43,13,00,314,00,14,16,137,42*73
MSG 0 41689.402 $PGRME,5.2,M,6.2,M,8.1,M*24
MSG 0 41689.463 $PGRMB,0.0,200,,,,K,,N,N*31
MSG 0 41689.523 $PGRMM,WGS 84*06
MSG 0 41689.898 $GPRMC,153610,A,4303.1180,N,07038.4749,W,000.3,119.1,030712,016.1,W*72
POS 0 41770.000 366336.073 4767892.715
QUA 0 41770.000 7 9.000 1.000 9.000 1.000 0.000 0.000 0.000
RAW 0 41770.000 4 430311.80000 -703847.49000 -21.70000 153610.00000
MSG 0 41690.048 $GPGGA,153610,4303.1180,N,07038.4749,W,1,09,1.0,10.7,M,-32.4,M,,*48
MSG 0 41690.192 $GPGSA,A,3,,06,,14,16,20,,25,29,30,31,32,1.6,1.0,1.3*3C
MSG 0 41690.310 $GPGSV,3,2,12,16,49,217,46,20,29,271,46,23,30,311,36,25,08,047,40*74
MSG 0 41690.456 $PGRME,5.2,M,6.2,M,8.1,M*24
MSG 0 41690.517 $PGRMB,0.0,200,,,,K,,N,N*31
MSG 0 41690.577 $PGRMM,WGS 84*06
MSG 0 41690.833 $GPRMC,153611,A,4303.1178,N,07038.4748,W,000.5,140.5,030712,016.1,W*7B
POS 0 41771.000 366336.201 4767892.342
QUA 0 41771.000 7 9.000 1.000 9.000 1.000 0.000 0.000 0.000
RAW 0 41771.000 4 430311.78000 -703847.48000 -21.90000 153611.00000
MSG 0 41690.983 $GPGGA,153611,4303.1178,N,07038.4748,W,1,09,1.0,10.5,M,-32.4,M,,*4D
MSG 0 41691.127 $GPGSA,A,3,,06,,14,16,20,,25,29,30,31,32,1.6,1.0,1.3*3C
FIX 99 41691.265 81 366336.201 4767892.342
