FTP NEW 2
VER 11.0.6.21
INF "" "" "" "" 0.000 0.000 0.000
ELL WGS-84 6378137.000 298.257223563
PRO TME -69.000000 0.999600 0.000000 0.000000 0.000000 500000.0000 0.0000
DTM 0.00 0.00 0.00 0.00000 0.00000 0.00000 0.00000
GEO ??? 0.000
HVU 1.0000000000 1.0000000000
TND 13:03:50 07/03/2012 240
DEV 0 32869 "Garmin GPS" 49156 C:\HYPACK 2011\devices\GPS.dll 11.0.10.6
OFF 0 0.000 0.000 0.000 0.000 0.000 0.000 0.000
DDT 0 SYN 
DEV 1 0 "Disabled" 0 Odom CV3 MK3 Disabled Unknown
USR "NOAA Joint Hydrographic Center" "HYPACK Inc." 0x8 15681181
EOH 0001FFFFFFFFFFFFFFFFFFFFFFFFFFFFFFFFFFFFFFFFFFFFFFFFFFFFFFFFFFFFFFFFFFFFFFFFFFFFFFFFFFFFFFFFFFFFFFFFFFFFFFFFFFFFFFFFFFFFFFFFFFFFFFFFFFFFFFFFFFFFFFFFFFFFFFFFFFFFFFFFFFFFFFFFFFFFFFFFFFFF003021300906052B0E03021A05000414F44AE7A1479F1F66F1E26A3BB0A1A15FD5C42B2F
MSG 0 47027.949 $GPGSA,A,3,,06,10,13,16,20,21,23,29,30,31,32,1.1,0.8,0.8*3B
MSG 0 47028.076 $GPGSV,3,3,12,29,01,030,38,30,57,049,49,31,26,101,49,32,04,212,41*73
MSG 0 47028.222 $PGRME,5.0,M,5.6,M,7.5,M*2A
MSG 0 47028.282 $PGRMB,0.0,200,,,,K,,N,N*31
MSG 0 47028.343 $PGRMM,WGS 84*06
MSG 0 47028.658 $GPRMC,170509,A,4305.7764,N,07038.8085,W,000.3,075.7,030712,016.1,W*72
POS 0 47109.000 365979.866 4772821.971
QUA 0 47109.000 7 9.200 0.800 11.000 1.000 0.000 0.000 0.000
RAW 0 47109.000 4 430577.64000 -703880.85000 -23.90000 170509.00000
MSG 0 47028.808 $GPGGA,170509,4305.7764,N,07038.8085,W,1,11,0.8,8.5,M,-32.4,M,,*7E
MSG 0 47028.949 $GPGSA,A,3,,06,10,13,16,20,21,23,29,30,31,32,1.1,0.8,0.8*3B
MSG 0 47029.076 $GPGSV,3,1,12,03,42,176,32,06,51,152,50,10,06,320,37,13,35,312,47*78
MSG 0 47029.222 $PGRME,5.0,M,5.6,M,7.5,M*2A
MSG 0 47029.282 $PGRMB,0.0,200,,,,K,,N,N*31
MSG 0 47029.343 $PGRMM,WGS 84*06
MSG 0 47029.660 $GPRMC,170510,A,4305.7764,N,07038.8082,W,000.6,093.9,030712,016.1,W*7E
POS 0 47110.000 365980.273 4772821.963
QUA 0 47110.000 7 9.200 0.800 11.000 1.000 0.000 0.000 0.000
RAW 0 47110.000 4 430577.64000 -703880.82000 -24.20000 170510.00000
MSG 0 47029.810 $GPGGA,170510,4305.7764,N,07038.8082,W,1,11,0.8,8.2,M,-32.4,M,,*76
FIX 99 47030.103 98 365980.273 4772821.963
MSG 0 47029.952 $GPGSA,A,3,,06,10,13,16,20,21,23,29,30,31,32,1.1,0.8,0.8*3B
MSG 0 47030.079 $GPGSV,3,2,12,16,82,344,49,20,07,236,40,21,06,075,42,23,60,277,50*7F
MSG 0 47030.225 $PGRME,5.0,M,5.6,M,7.5,M*2A
MSG 0 47030.285 $PGRMB,0.0,200,,,,K,,N,N*31
MSG 0 47030.345 $PGRMM,WGS 84*06
MSG 0 47030.671 $GPRMC,170511,A,4305.7765,N,07038.8083,W,000.2,026.5,030712,016.1,W*79
POS 0 47111.000 365980.141 4772822.151
QUA 0 47111.000 7 9.200 0.800 11.000 1.000 0.000 0.000 0.000
RAW 0 47111.000 4 430577.65000 -703880.83000 -23.80000 170511.00000
MSG 0 47030.821 $GPGGA,170511,4305.7765,N,07038.8083,W,1,11,0.8,8.6,M,-32.4,M,,*73
MSG 0 47030.963 $GPGSA,A,3,,06,10,13,16,20,21,23,29,30,31,32,1.1,0.8,0.8*3B
MSG 0 47031.090 $GPGSV,3,3,12,29,01,030,37,30,57,049,49,31,26,101,48,32,04,212,42*7E
MSG 0 47031.236 $PGRME,5.0,M,5.6,M,7.5,M*2A
MSG 0 47031.296 $PGRMB,0.0,200,,,,K,,N,N*31
MSG 0 47031.356 $PGRMM,WGS 84*06
MSG 0 47031.677 $GPRMC,170512,A,4305.7766,N,07038.8083,W,000.3,009.3,030712,016.1,W*73
POS 0 47112.000 365980.145 4772822.336
QUA 0 47112.000 7 9.200 0.800 11.000 1.000 0.000 0.000 0.000
RAW 0 47112.000 4 430577.66000 -703880.83000 -23.50000 170512.00000
MSG 0 47031.827 $GPGGA,170512,4305.7766,N,07038.8083,W,1,11,0.8,8.9,M,-32.4,M,,*7C
MSG 0 47031.968 $GPGSA,A,3,,06,10,13,16,20,21,23,29,30,31,32,1.2,0.8,0.9*39
MSG 0 47032.095 $GPGSV,3,1,12,03,42,176,32,06,51,152,49,10,06,320,00,13,35,312,47*74
MSG 0 47032.241 $PGRME,5.0,M,5.7,M,7.6,M*28
MSG 0 47032.302 $PGRMB,0.0,200,,,,K,,N,N*31
MSG 0 47032.362 $PGRMM,WGS 84*06
MSG 0 47032.659 $GPRMC,170513,A,4305.7766,N,07038.8080,W,000.5,085.6,030712,016.1,W*76
POS 0 47113.000 365980.552 4772822.328
QUA 0 47113.000 7 9.200 0.800 11.000 1.000 0.000 0.000 0.000
RAW 0 47113.000 4 430577.66000 -703880.80000 -23.70000 170513.00000
MSG 0 47032.809 $GPGGA,170513,4305.7766,N,07038.8080,W,1,11,0.8,8.7,M,-32.4,M,,*70
MSG 0 47032.951 $GPGSA,A,3,,06,10,13,16,20,21,23,29,30,31,32,1.2,0.8,0.9*39
MSG 0 47033.078 $GPGSV,3,2,12,16,82,344,49,20,07,236,39,21,06,075,40,23,60,275,50*71
MSG 0 47033.224 $PGRME,5.0,M,5.8,M,7.7,M*26
MSG 0 47033.284 $PGRMB,0.0,200,,,,K,,N,N*31
MSG 0 47033.345 $PGRMM,WGS 84*06
MSG 0 47033.673 $GPRMC,170514,A,4305.7766,N,07038.8081,W,000.0,085.6,030712,016.1,W*75
POS 0 47114.000 365980.416 4772822.331
QUA 0 47114.000 7 9.200 0.800 11.000 1.000 0.000 0.000 0.000
RAW 0 47114.000 4 430577.66000 -703880.81000 -23.80000 170514.00000
MSG 0 47033.823 $GPGGA,170514,4305.7766,N,07038.8081,W,1,11,0.8,8.6,M,-32.4,M,,*77
MSG 0 47033.965 $GPGSA,A,3,,06,10,13,16,20,21,23,29,30,31,32,1.2,0.8,0.9*39
MSG 0 47034.092 $GPGSV,3,3,12,29,01,030,38,30,57,049,50,31,26,101,47,32,04,212,42*76
MSG 0 47034.238 $PGRME,5.0,M,5.7,M,7.6,M*28
MSG 0 47034.298 $PGRMB,0.0,200,,,,K,,N,N*31
MSG 0 47034.358 $PGRMM,WGS 84*06
MSG 0 47034.676 $GPRMC,170515,A,4305.7767,N,07038.8083,W,000.5,304.3,030712,016.1,W*7D
POS 0 47115.000 365980.148 4772822.521
QUA 0 47115.000 7 9.200 0.800 11.000 1.000 0.000 0.000 0.000
RAW 0 47115.000 4 430577.67000 -703880.83000 -23.60000 170515.00000
MSG 0 47034.825 $GPGGA,170515,4305.7767,N,07038.8083,W,1,11,0.8,8.8,M,-32.4,M,,*7B
MSG 0 47034.967 $GPGSA,A,3,,06,10,13,16,20,21,23,29,30,31,32,1.2,0.8,0.9*39
FIX 99 47035.153 99 365980.148 4772822.521
