FTP NEW 2
VER 11.0.6.21
INF "" "" "" "" 0.000 0.000 0.000
ELL WGS-84 6378137.000 298.257223563
PRO TME -69.000000 0.999600 0.000000 0.000000 0.000000 500000.0000 0.0000
DTM 0.00 0.00 0.00 0.00000 0.00000 0.00000 0.00000
GEO ??? 0.000
HVU 1.0000000000 1.0000000000
TND 10:37:17 07/03/2012 240
DEV 0 32869 "Garmin GPS" 49156 C:\HYPACK 2011\devices\GPS.dll 11.0.10.6
OFF 0 0.000 0.000 0.000 0.000 0.000 0.000 0.000
DDT 0 SYN 
DEV 1 0 "Disabled" 0 Odom CV3 MK3 Disabled Unknown
USR "NOAA Joint Hydrographic Center" "HYPACK Inc." 0x8 15681181
EOH 2D7307E676C4244AA2F637F6FE42CA62D8613FE012B64BAF7874345A3D841AD40F2A6597721653C58EA232CABB45D72E80A1FEE2862AD1E770DC4AAE100408D2AFE641C60BE8EEC3C923EEB9AD56DCDA78C3D070B8DB1F2DDF19C3D7493DEE69E52294145BC06B8C77B831AB464FEDAA60F451652F5D06B88A595AE69D43586F
MSG 0 38234.828 $GPRMC,143835,A,4302.8927,N,07038.3610,W,000.3,156.7,030712,016.1,W*70
POS 0 38315.000 366482.530 4767472.691
QUA 0 38315.000 7 9.100 0.900 9.000 1.000 0.000 0.000 0.000
RAW 0 38315.000 4 430289.27000 -703836.10000 -20.00000 143835.00000
MSG 0 38234.978 $GPGGA,143835,4302.8927,N,07038.3610,W,1,09,0.9,12.4,M,-32.4,M,,*4E
MSG 0 38235.122 $GPGSA,A,3,,14,16,20,22,,25,29,30,31,32,,1.8,0.9,1.5*3A
MSG 0 38235.241 $GPGSV,3,3,11,30,51,206,47,31,72,013,49,32,47,271,42*41
MSG 0 38235.359 $PGRME,4.5,M,7.9,M,9.1,M*29
MSG 0 38235.420 $PGRMB,0.0,200,,,,K,,N,N*31
MSG 0 38235.480 $PGRMM,WGS 84*06
MSG 0 38235.829 $GPRMC,143836,A,4302.8926,N,07038.3608,W,000.5,143.2,030712,016.1,W*7C
POS 0 38316.000 366482.798 4767472.500
QUA 0 38316.000 7 9.100 0.900 9.000 1.000 0.000 0.000 0.000
RAW 0 38316.000 4 430289.26000 -703836.08000 -20.40000 143836.00000
MSG 0 38235.979 $GPGGA,143836,4302.8926,N,07038.3608,W,1,09,0.9,12.0,M,-32.4,M,,*41
MSG 0 38236.122 $GPGSA,A,3,,14,16,20,22,,25,29,30,31,32,,1.8,0.9,1.5*3A
MSG 0 38236.241 $GPGSV,3,1,11,11,00,247,34,14,39,121,47,16,23,206,41,20,29,300,47*7D
MSG 0 38236.387 $PGRME,4.5,M,7.9,M,9.1,M*29
MSG 0 38236.447 $PGRMB,0.0,200,,,,K,,N,N*31
MSG 0 38236.507 $PGRMM,WGS 84*06
FIX 99 38237.059 64 366482.798 4767472.500
MSG 0 38236.829 $GPRMC,143837,A,4302.8925,N,07038.3608,W,000.3,144.1,030712,016.1,W*7C
POS 0 38317.000 366482.794 4767472.315
QUA 0 38317.000 7 9.100 0.900 9.000 1.000 0.000 0.000 0.000
RAW 0 38317.000 4 430289.25000 -703836.08000 -20.40000 143837.00000
MSG 0 38236.979 $GPGGA,143837,4302.8925,N,07038.3608,W,1,09,0.9,12.0,M,-32.4,M,,*43
MSG 0 38237.122 $GPGSA,A,3,,14,16,20,22,,25,29,30,31,32,,1.8,0.9,1.5*3A
MSG 0 38237.241 $GPGSV,3,2,11,22,03,172,38,23,07,308,37,25,31,047,46,29,23,083,47*7B
MSG 0 38237.387 $PGRME,4.5,M,7.9,M,9.1,M*29
MSG 0 38237.447 $PGRMB,0.0,200,,,,K,,N,N*31
MSG 0 38237.507 $PGRMM,WGS 84*06
MSG 0 38237.828 $GPRMC,143838,A,4302.8925,N,07038.3607,W,000.3,115.4,030712,016.1,W*7D
POS 0 38318.000 366482.930 4767472.313
QUA 0 38318.000 7 9.100 0.900 9.000 1.000 0.000 0.000 0.000
RAW 0 38318.000 4 430289.25000 -703836.07000 -20.40000 143838.00000
MSG 0 38237.978 $GPGGA,143838,4302.8925,N,07038.3607,W,1,09,0.9,12.0,M,-32.4,M,,*43
MSG 0 38238.122 $GPGSA,A,3,,14,16,20,22,,25,29,30,31,32,,1.8,0.9,1.5*3A
MSG 0 38238.241 $GPGSV,3,3,11,30,51,206,47,31,72,013,49,32,47,271,44*47
MSG 0 38238.359 $PGRME,4.5,M,7.9,M,9.1,M*29
MSG 0 38238.420 $PGRMB,0.0,200,,,,K,,N,N*31
MSG 0 38238.480 $PGRMM,WGS 84*06
MSG 0 38238.829 $GPRMC,143839,A,4302.8923,N,07038.3606,W,000.5,145.4,030712,016.1,W*78
POS 0 38319.000 366483.058 4767471.940
QUA 0 38319.000 7 9.100 0.900 9.000 1.000 0.000 0.000 0.000
RAW 0 38319.000 4 430289.23000 -703836.06000 -20.40000 143839.00000
MSG 0 38238.979 $GPGGA,143839,4302.8923,N,07038.3606,W,1,09,0.9,12.0,M,-32.4,M,,*45
MSG 0 38239.123 $GPGSA,A,3,,14,16,20,22,,25,29,30,31,32,,1.8,0.9,1.5*3A
MSG 0 38239.241 $GPGSV,3,1,11,11,00,247,33,14,39,121,47,16,23,206,40,20,29,300,46*7A
MSG 0 38239.387 $PGRME,4.5,M,7.9,M,9.1,M*29
MSG 0 38239.448 $PGRMB,0.0,200,,,,K,,N,N*31
MSG 0 38239.508 $PGRMM,WGS 84*06
MSG 0 38239.828 $GPRMC,143840,A,4302.8922,N,07038.3604,W,000.5,137.6,030712,016.1,W*72
POS 0 38320.000 366483.326 4767471.749
QUA 0 38320.000 7 9.100 0.900 9.000 1.000 0.000 0.000 0.000
RAW 0 38320.000 4 430289.22000 -703836.04000 -20.50000 143840.00000
MSG 0 38239.978 $GPGGA,143840,4302.8922,N,07038.3604,W,1,09,0.9,11.9,M,-32.4,M,,*42
MSG 0 38240.122 $GPGSA,A,3,,14,16,20,22,,25,29,30,31,32,,1.8,0.9,1.5*3A
MSG 0 38240.241 $GPGSV,3,2,11,22,03,172,38,23,07,308,37,25,31,047,46,29,23,083,47*7B
MSG 0 38240.386 $PGRME,4.5,M,7.9,M,9.1,M*29
MSG 0 38240.447 $PGRMB,0.0,200,,,,K,,N,N*31
MSG 0 38240.507 $PGRMM,WGS 84*06
MSG 0 38240.827 $GPRMC,143841,A,4302.8922,N,07038.3602,W,000.5,116.2,030712,016.1,W*72
POS 0 38321.000 366483.598 4767471.744
QUA 0 38321.000 7 9.100 0.900 9.000 1.000 0.000 0.000 0.000
RAW 0 38321.000 4 430289.22000 -703836.02000 -20.50000 143841.00000
MSG 0 38240.977 $GPGGA,143841,4302.8922,N,07038.3602,W,1,09,0.9,11.9,M,-32.4,M,,*45
MSG 0 38241.121 $GPGSA,A,3,,14,16,20,22,,25,29,30,31,32,,1.8,0.9,1.5*3A
MSG 0 38241.239 $GPGSV,3,3,11,30,51,206,47,31,72,013,49,32,47,271,45*46
MSG 0 38241.358 $PGRME,4.5,M,7.9,M,9.1,M*29
MSG 0 38241.418 $PGRMB,0.0,200,,,,K,,N,N*31
MSG 0 38241.479 $PGRMM,WGS 84*06
MSG 0 38241.828 $GPRMC,143842,A,4302.8920,N,07038.3601,W,000.6,142.2,030712,016.1,W*72
POS 0 38322.000 366483.726 4767471.371
QUA 0 38322.000 7 9.100 0.900 9.000 1.000 0.000 0.000 0.000
RAW 0 38322.000 4 430289.20000 -703836.01000 -20.20000 143842.00000
MSG 0 38241.978 $GPGGA,143842,4302.8920,N,07038.3601,W,1,09,0.9,12.2,M,-32.4,M,,*4F
MSG 0 38242.121 $GPGSA,A,3,,14,16,20,22,,25,29,30,31,32,,1.8,0.9,1.5*3A
MSG 0 38242.240 $GPGSV,3,1,11,11,00,247,34,14,39,121,46,16,23,206,40,20,29,300,45*7F
MSG 0 38242.386 $PGRME,4.5,M,7.9,M,9.1,M*29
MSG 0 38242.446 $PGRMB,0.0,200,,,,K,,N,N*31
MSG 0 38242.507 $PGRMM,WGS 84*06
MSG 0 38242.828 $GPRMC,143843,A,4302.8917,N,07038.3600,W,000.7,149.2,030712,016.1,W*7C
POS 0 38323.000 366483.851 4767470.813
QUA 0 38323.000 7 9.100 0.900 9.000 1.000 0.000 0.000 0.000
RAW 0 38323.000 4 430289.17000 -703836.00000 -20.10000 143843.00000
MSG 0 38242.978 $GPGGA,143843,4302.8917,N,07038.3600,W,1,09,0.9,12.3,M,-32.4,M,,*4A
MSG 0 38243.122 $GPGSA,A,3,,14,16,20,22,,25,29,30,31,32,,1.8,0.9,1.5*3A
MSG 0 38243.240 $GPGSV,3,2,11,22,03,172,38,23,07,308,37,25,31,047,47,29,23,083,47*7A
MSG 0 38243.386 $PGRME,4.5,M,7.9,M,9.1,M*29
MSG 0 38243.447 $PGRMB,0.0,200,,,,K,,N,N*31
MSG 0 38243.507 $PGRMM,WGS 84*06
MSG 0 38243.829 $GPRMC,143844,A,4302.8918,N,07038.3599,W,000.3,119.4,030712,016.1,W*70
POS 0 38324.000 366483.991 4767470.996
QUA 0 38324.000 7 9.100 0.900 9.000 1.000 0.000 0.000 0.000
RAW 0 38324.000 4 430289.18000 -703835.99000 -20.10000 143844.00000
MSG 0 38243.979 $GPGGA,143844,4302.8918,N,07038.3599,W,1,09,0.9,12.3,M,-32.4,M,,*41
MSG 0 38244.123 $GPGSA,A,3,,14,16,20,22,,25,29,30,31,32,,1.8,0.9,1.5*3A
MSG 0 38244.241 $GPGSV,3,3,11,30,51,206,47,31,72,013,49,32,47,271,46*45
MSG 0 38244.360 $PGRME,4.5,M,7.9,M,9.1,M*29
MSG 0 38244.420 $PGRMB,0.0,200,,,,K,,N,N*31
MSG 0 38244.481 $PGRMM,WGS 84*06
MSG 0 38244.828 $GPRMC,143845,A,4302.8918,N,07038.3598,W,000.3,126.8,030712,016.1,W*70
POS 0 38325.000 366484.126 4767470.993
QUA 0 38325.000 7 9.100 0.900 9.000 1.000 0.000 0.000 0.000
RAW 0 38325.000 4 430289.18000 -703835.98000 -20.20000 143845.00000
MSG 0 38244.978 $GPGGA,143845,4302.8918,N,07038.3598,W,1,09,0.9,12.2,M,-32.4,M,,*40
MSG 0 38245.122 $GPGSA,A,3,,14,16,20,22,,25,29,30,31,32,,1.8,0.9,1.5*3A
MSG 0 38245.241 $GPGSV,3,1,11,11,00,247,34,14,39,121,46,16,23,206,39,20,29,300,44*70
MSG 0 38245.386 $PGRME,4.5,M,7.9,M,9.1,M*29
MSG 0 38245.447 $PGRMB,0.0,200,,,,K,,N,N*31
MSG 0 38245.507 $PGRMM,WGS 84*06
MSG 0 38245.830 $GPRMC,143846,A,4302.8916,N,07038.3599,W,000.4,168.0,030712,016.1,W*79
POS 0 38326.000 366483.983 4767470.626
QUA 0 38326.000 7 9.100 0.900 9.000 1.000 0.000 0.000 0.000
RAW 0 38326.000 4 430289.16000 -703835.99000 -20.10000 143846.00000
MSG 0 38245.979 $GPGGA,143846,4302.8916,N,07038.3599,W,1,09,0.9,12.3,M,-32.4,M,,*4D
MSG 0 38246.123 $GPGSA,A,3,,14,16,20,22,,25,29,30,31,32,,1.8,0.9,1.5*3A
MSG 0 38246.242 $GPGSV,3,2,11,22,03,172,36,23,07,308,37,25,31,047,47,29,23,083,46*75
MSG 0 38246.388 $PGRME,4.5,M,7.9,M,9.1,M*29
MSG 0 38246.448 $PGRMB,0.0,200,,,,K,,N,N*31
MSG 0 38246.508 $PGRMM,WGS 84*06
MSG 0 38246.828 $GPRMC,143847,A,4302.8916,N,07038.3596,W,000.4,124.2,030712,016.1,W*7D
POS 0 38327.000 366484.391 4767470.618
QUA 0 38327.000 7 9.100 0.900 9.000 1.000 0.000 0.000 0.000
RAW 0 38327.000 4 430289.16000 -703835.96000 -20.50000 143847.00000
MSG 0 38246.978 $GPGGA,143847,4302.8916,N,07038.3596,W,1,09,0.9,11.9,M,-32.4,M,,*4A
MSG 0 38247.122 $GPGSA,A,3,,14,16,20,22,,25,29,30,31,32,,1.8,0.9,1.5*3A
MSG 0 38247.240 $GPGSV,3,3,11,30,51,206,49,31,72,013,48,32,47,271,47*4B
MSG 0 38247.359 $PGRME,4.5,M,7.9,M,9.1,M*29
MSG 0 38247.419 $PGRMB,0.0,200,,,,K,,N,N*31
MSG 0 38247.480 $PGRMM,WGS 84*06
MSG 0 38247.828 $GPRMC,143848,A,4302.8913,N,07038.3595,W,000.7,143.1,030712,016.1,W*75
POS 0 38328.000 366484.515 4767470.060
QUA 0 38328.000 7 9.100 0.900 9.000 1.000 0.000 0.000 0.000
RAW 0 38328.000 4 430289.13000 -703835.95000 -20.80000 143848.00000
MSG 0 38247.978 $GPGGA,143848,4302.8913,N,07038.3595,W,1,09,0.9,11.6,M,-32.4,M,,*4C
MSG 0 38248.122 $GPGSA,A,3,,14,16,20,22,,25,29,30,31,32,,1.8,0.9,1.5*3A
MSG 0 38248.241 $GPGSV,3,1,11,11,00,247,34,14,39,121,46,16,23,206,37,20,29,300,45*7F
MSG 0 38248.386 $PGRME,4.5,M,7.9,M,9.1,M*29
MSG 0 38248.447 $PGRMB,0.0,200,,,,K,,N,N*31
MSG 0 38248.507 $PGRMM,WGS 84*06
MSG 0 38248.828 $GPRMC,143849,A,4302.8912,N,07038.3593,W,000.7,138.6,030712,016.1,W*78
POS 0 38329.000 366484.783 4767469.869
QUA 0 38329.000 7 9.100 0.900 9.000 1.000 0.000 0.000 0.000
RAW 0 38329.000 4 430289.12000 -703835.93000 -20.50000 143849.00000
MSG 0 38248.978 $GPGGA,143849,4302.8912,N,07038.3593,W,1,09,0.9,11.9,M,-32.4,M,,*45
MSG 0 38249.122 $GPGSA,A,3,,14,16,20,22,,25,29,30,31,32,,1.8,0.9,1.5*3A
MSG 0 38249.240 $GPGSV,3,2,11,22,03,172,35,23,07,308,37,25,31,047,48,29,23,083,45*7A
MSG 0 38249.386 $PGRME,4.5,M,7.9,M,9.1,M*29
MSG 0 38249.446 $PGRMB,0.0,200,,,,K,,N,N*31
MSG 0 38249.507 $PGRMM,WGS 84*06
MSG 0 38249.858 $GPRMC,143850,A,4302.8911,N,07038.3592,W,000.5,140.1,030712,016.1,W*78
POS 0 38330.000 366484.915 4767469.682
QUA 0 38330.000 7 9.100 0.900 9.000 1.000 0.000 0.000 0.000
RAW 0 38330.000 4 430289.11000 -703835.92000 -20.30000 143850.00000
MSG 0 38250.008 $GPGGA,143850,4302.8911,N,07038.3592,W,1,09,0.9,12.1,M,-32.4,M,,*44
MSG 0 38250.152 $GPGSA,A,3,,14,16,20,22,,25,29,30,31,32,,1.8,0.9,1.5*3A
MSG 0 38250.270 $GPGSV,3,3,11,30,51,206,49,31,72,013,48,32,47,271,48*44
MSG 0 38250.389 $PGRME,4.5,M,7.9,M,9.1,M*29
MSG 0 38250.450 $PGRMB,0.0,200,,,,K,,N,N*31
MSG 0 38250.510 $PGRMM,WGS 84*06
MSG 0 38250.840 $GPRMC,143851,A,4302.8910,N,07038.3591,W,000.5,140.6,030712,016.1,W*7C
POS 0 38331.000 366485.048 4767469.494
QUA 0 38331.000 7 9.100 0.900 9.000 1.000 0.000 0.000 0.000
RAW 0 38331.000 4 430289.10000 -703835.91000 -20.20000 143851.00000
MSG 0 38250.990 $GPGGA,143851,4302.8910,N,07038.3591,W,1,09,0.9,12.2,M,-32.4,M,,*44
MSG 0 38251.133 $GPGSA,A,3,,14,16,20,22,,25,29,30,31,32,,1.8,0.9,1.5*3A
MSG 0 38251.252 $GPGSV,3,1,11,11,00,247,33,14,39,121,46,16,23,206,38,20,29,300,47*75
MSG 0 38251.398 $PGRME,4.5,M,8.0,M,9.2,M*2C
MSG 0 38251.458 $PGRMB,0.0,200,,,,K,,N,N*31
MSG 0 38251.519 $PGRMM,WGS 84*06
MSG 0 38251.828 $GPRMC,143852,A,4302.8910,N,07038.3590,W,000.3,139.9,030712,016.1,W*79
POS 0 38332.000 366485.183 4767469.491
QUA 0 38332.000 7 9.100 0.900 9.000 1.000 0.000 0.000 0.000
RAW 0 38332.000 4 430289.10000 -703835.90000 -20.40000 143852.00000
MSG 0 38251.978 $GPGGA,143852,4302.8910,N,07038.3590,W,1,09,0.9,12.0,M,-32.4,M,,*44
MSG 0 38252.122 $GPGSA,A,3,,14,16,20,22,,25,29,30,31,32,,1.8,0.9,1.5*3A
MSG 0 38252.241 $GPGSV,3,2,11,22,03,172,36,23,07,308,37,25,31,047,49,29,23,083,45*78
MSG 0 38252.386 $PGRME,4.5,M,8.0,M,9.1,M*2F
MSG 0 38252.447 $PGRMB,0.0,200,,,,K,,N,N*31
MSG 0 38252.507 $PGRMM,WGS 84*06
MSG 0 38252.828 $GPRMC,143853,A,4302.8908,N,07038.3589,W,000.5,143.6,030712,016.1,W*7D
POS 0 38333.000 366485.312 4767469.118
QUA 0 38333.000 7 9.100 0.900 9.000 1.000 0.000 0.000 0.000
RAW 0 38333.000 4 430289.08000 -703835.89000 -20.70000 143853.00000
MSG 0 38252.978 $GPGGA,143853,4302.8908,N,07038.3589,W,1,09,0.9,11.7,M,-32.4,M,,*40
MSG 0 38253.121 $GPGSA,A,3,,14,16,20,22,,25,29,30,31,32,,1.8,0.9,1.5*3A
MSG 0 38253.240 $GPGSV,3,3,11,30,51,206,50,31,72,013,48,32,47,271,47*43
MSG 0 38253.359 $PGRME,4.5,M,8.0,M,9.1,M*2F
MSG 0 38253.419 $PGRMB,0.0,200,,,,K,,N,N*31
MSG 0 38253.480 $PGRMM,WGS 84*06
MSG 0 38253.844 $GPRMC,143854,A,4302.8906,N,07038.3587,W,000.8,146.2,030712,016.1,W*76
POS 0 38334.000 366485.576 4767468.743
QUA 0 38334.000 7 9.100 0.900 9.000 1.000 0.000 0.000 0.000
RAW 0 38334.000 4 430289.06000 -703835.87000 -20.80000 143854.00000
MSG 0 38253.994 $GPGGA,143854,4302.8906,N,07038.3587,W,1,09,0.9,11.6,M,-32.4,M,,*46
MSG 0 38254.137 $GPGSA,A,3,,14,16,20,22,,25,29,30,31,32,,1.8,0.9,1.5*3A
MSG 0 38254.256 $GPGSV,3,1,11,11,00,247,34,14,39,121,47,16,23,206,41,20,29,299,48*73
MSG 0 38254.402 $PGRME,4.5,M,8.0,M,9.1,M*2F
MSG 0 38254.462 $PGRMB,0.0,200,,,,K,,N,N*31
MSG 0 38254.523 $PGRMM,WGS 84*06
MSG 0 38254.829 $GPRMC,143855,A,4302.8905,N,07038.3586,W,000.6,147.6,030712,016.1,W*7E
POS 0 38335.000 366485.708 4767468.555
QUA 0 38335.000 7 9.100 0.900 9.000 1.000 0.000 0.000 0.000
RAW 0 38335.000 4 430289.05000 -703835.86000 -20.80000 143855.00000
MSG 0 38254.979 $GPGGA,143855,4302.8905,N,07038.3586,W,1,09,0.9,11.6,M,-32.4,M,,*45
MSG 0 38255.123 $GPGSA,A,3,,14,16,20,22,,25,29,30,31,32,,1.8,0.9,1.5*3A
MSG 0 38255.241 $GPGSV,3,2,11,22,03,172,37,23,07,308,37,25,31,047,49,29,23,083,45*79
MSG 0 38255.387 $PGRME,4.5,M,8.0,M,9.2,M*2C
MSG 0 38255.447 $PGRMB,0.0,200,,,,K,,N,N*31
MSG 0 38255.508 $PGRMM,WGS 84*06
MSG 0 38255.840 $GPRMC,143856,A,4302.8904,N,07038.3584,W,000.6,138.3,030712,016.1,W*73
POS 0 38336.000 366485.976 4767468.365
QUA 0 38336.000 7 9.100 0.900 9.000 1.000 0.000 0.000 0.000
RAW 0 38336.000 4 430289.04000 -703835.84000 -20.50000 143856.00000
MSG 0 38255.990 $GPGGA,143856,4302.8904,N,07038.3584,W,1,09,0.9,11.9,M,-32.4,M,,*4A
MSG 0 38256.133 $GPGSA,A,3,,14,16,20,22,,25,29,30,31,32,,1.8,0.9,1.5*3A
MSG 0 38256.252 $GPGSV,3,3,11,30,51,206,50,31,72,013,49,32,47,271,46*43
MSG 0 38256.371 $PGRME,4.5,M,8.0,M,9.1,M*2F
MSG 0 38256.431 $PGRMB,0.0,200,,,,K,,N,N*31
MSG 0 38256.491 $PGRMM,WGS 84*06
MSG 0 38256.827 $GPRMC,143857,A,4302.8902,N,07038.3584,W,000.5,147.2,030712,016.1,W*7E
POS 0 38337.000 366485.969 4767467.995
QUA 0 38337.000 7 9.100 0.900 9.000 1.000 0.000 0.000 0.000
RAW 0 38337.000 4 430289.02000 -703835.84000 -20.60000 143857.00000
MSG 0 38256.977 $GPGGA,143857,4302.8902,N,07038.3584,W,1,09,0.9,11.8,M,-32.4,M,,*4C
MSG 0 38257.121 $GPGSA,A,3,,14,16,20,22,,25,29,30,31,32,,1.8,0.9,1.5*3A
MSG 0 38257.240 $GPGSV,3,1,11,11,00,247,33,14,39,121,46,16,23,206,42,20,29,299,48*76
MSG 0 38257.385 $PGRME,4.5,M,8.0,M,9.1,M*2F
MSG 0 38257.446 $PGRMB,0.0,200,,,,K,,N,N*31
MSG 0 38257.506 $PGRMM,WGS 84*06
MSG 0 38257.828 $GPRMC,143858,A,4302.8902,N,07038.3584,W,000.2,146.0,030712,016.1,W*75
POS 0 38338.000 366485.969 4767467.995
QUA 0 38338.000 7 9.100 0.900 9.000 1.000 0.000 0.000 0.000
RAW 0 38338.000 4 430289.02000 -703835.84000 -20.30000 143858.00000
MSG 0 38257.978 $GPGGA,143858,4302.8902,N,07038.3584,W,1,09,0.9,12.1,M,-32.4,M,,*49
MSG 0 38258.121 $GPGSA,A,3,,14,16,20,22,,25,29,30,31,32,,1.8,0.9,1.5*3A
MSG 0 38258.240 $GPGSV,3,2,11,22,03,172,39,23,07,308,37,25,31,047,48,29,23,083,44*77
MSG 0 38258.386 $PGRME,4.5,M,8.0,M,9.1,M*2F
MSG 0 38258.446 $PGRMB,0.0,200,,,,K,,N,N*31
MSG 0 38258.506 $PGRMM,WGS 84*06
MSG 0 38258.861 $GPRMC,143859,A,4302.8901,N,07038.3582,W,000.5,143.8,030712,016.1,W*7B
POS 0 38339.000 366486.237 4767467.804
QUA 0 38339.000 7 9.100 0.900 9.000 1.000 0.000 0.000 0.000
RAW 0 38339.000 4 430289.01000 -703835.82000 -20.70000 143859.00000
MSG 0 38259.010 $GPGGA,143859,4302.8901,N,07038.3582,W,1,09,0.9,11.7,M,-32.4,M,,*48
MSG 0 38259.154 $GPGSA,A,3,,14,16,20,22,,25,29,30,31,32,,1.8,0.9,1.5*3A
MSG 0 38259.273 $GPGSV,3,3,11,30,51,206,50,31,72,013,49,32,47,271,46*43
MSG 0 38259.391 $PGRME,4.5,M,8.0,M,9.1,M*2F
MSG 0 38259.452 $PGRMB,0.0,200,,,,K,,N,N*31
MSG 0 38259.512 $PGRMM,WGS 84*06
MSG 0 38259.840 $GPRMC,143900,A,4302.8899,N,07038.3580,W,000.7,147.8,030712,016.1,W*72
POS 0 38340.000 366486.501 4767467.429
QUA 0 38340.000 7 9.100 0.900 9.000 1.000 0.000 0.000 0.000
RAW 0 38340.000 4 430288.99000 -703835.80000 -20.70000 143900.00000
MSG 0 38259.990 $GPGGA,143900,4302.8899,N,07038.3580,W,1,09,0.9,11.7,M,-32.4,M,,*47
MSG 0 38260.134 $GPGSA,A,3,,14,16,20,22,,25,29,30,31,32,,1.8,0.9,1.5*3A
MSG 0 38260.253 $GPGSV,3,1,11,11,00,247,34,14,39,121,47,16,23,206,39,20,29,299,47*73
MSG 0 38260.398 $PGRME,4.5,M,8.1,M,9.2,M*2D
MSG 0 38260.459 $PGRMB,0.0,200,,,,K,,N,N*31
MSG 0 38260.519 $PGRMM,WGS 84*06
MSG 0 38260.860 $GPRMC,143901,A,4302.8897,N,07038.3579,W,000.6,148.4,030712,016.1,W*79
POS 0 38341.000 366486.629 4767467.056
QUA 0 38341.000 7 9.000 1.000 9.000 1.000 0.000 0.000 0.000
RAW 0 38341.000 4 430288.97000 -703835.79000 -20.50000 143901.00000
MSG 0 38261.010 $GPGGA,143901,4302.8897,N,07038.3579,W,1,09,1.0,11.9,M,-32.4,M,,*48
MSG 0 38261.154 $GPGSA,A,3,,14,16,20,22,,25,29,30,31,32,,1.9,1.0,1.6*30
MSG 0 38261.273 $GPGSV,3,2,11,22,02,172,39,23,07,308,37,25,31,047,48,29,23,083,45*77
MSG 0 38261.418 $PGRME,4.5,M,8.1,M,9.2,M*2D
MSG 0 38261.479 $PGRMB,0.0,200,,,,K,,N,N*31
MSG 0 38261.539 $PGRMM,WGS 84*06
MSG 0 38261.860 $GPRMC,143902,A,4302.8896,N,07038.3578,W,000.5,147.0,030712,016.1,W*72
POS 0 38342.000 366486.762 4767466.868
QUA 0 38342.000 7 9.000 1.000 9.000 1.000 0.000 0.000 0.000
RAW 0 38342.000 4 430288.96000 -703835.78000 -20.70000 143902.00000
MSG 0 38262.010 $GPGGA,143902,4302.8896,N,07038.3578,W,1,09,1.0,11.7,M,-32.4,M,,*45
MSG 0 38262.153 $GPGSA,A,3,,14,16,20,22,,25,29,30,31,32,,1.9,1.0,1.6*30
MSG 0 38262.272 $GPGSV,3,3,11,30,51,206,49,31,72,013,49,32,47,271,47*4A
MSG 0 38262.391 $PGRME,4.5,M,8.1,M,9.2,M*2D
MSG 0 38262.451 $PGRMB,0.0,200,,,,K,,N,N*31
MSG 0 38262.511 $PGRMM,WGS 84*06
MSG 0 38262.828 $GPRMC,143903,A,4302.8895,N,07038.3576,W,000.7,144.0,030712,016.1,W*7F
POS 0 38343.000 366487.029 4767466.678
QUA 0 38343.000 7 9.000 1.000 9.000 1.000 0.000 0.000 0.000
RAW 0 38343.000 4 430288.95000 -703835.76000 -20.40000 143903.00000
MSG 0 38262.978 $GPGGA,143903,4302.8895,N,07038.3576,W,1,09,1.0,12.0,M,-32.4,M,,*4D
MSG 0 38263.122 $GPGSA,A,3,,14,16,20,22,,25,29,30,31,32,,1.8,1.0,1.5*32
MSG 0 38263.240 $GPGSV,3,1,11,11,00,247,34,14,39,121,48,16,23,206,40,20,29,299,48*7D
MSG 0 38263.386 $PGRME,4.5,M,8.1,M,9.2,M*2D
MSG 0 38263.447 $PGRMB,0.0,200,,,,K,,N,N*31
MSG 0 38263.507 $PGRMM,WGS 84*06
MSG 0 38263.828 $GPRMC,143904,A,4302.8893,N,07038.3575,W,000.5,146.4,030712,016.1,W*79
POS 0 38344.000 366487.158 4767466.305
QUA 0 38344.000 7 9.000 1.000 9.000 1.000 0.000 0.000 0.000
RAW 0 38344.000 4 430288.93000 -703835.75000 -20.50000 143904.00000
MSG 0 38263.978 $GPGGA,143904,4302.8893,N,07038.3575,W,1,09,1.0,11.9,M,-32.4,M,,*45
MSG 0 38264.122 $GPGSA,A,3,,14,16,20,22,,25,29,30,31,32,,1.8,1.0,1.5*32
MSG 0 38264.240 $GPGSV,3,2,11,22,02,172,41,23,08,308,37,25,31,047,47,29,23,083,46*7B
MSG 0 38264.386 $PGRME,4.5,M,8.0,M,9.1,M*2F
MSG 0 38264.447 $PGRMB,0.0,200,,,,K,,N,N*31
MSG 0 38264.507 $PGRMM,WGS 84*06
MSG 0 38264.839 $GPRMC,143905,A,4302.8894,N,07038.3574,W,000.3,117.1,030712,016.1,W*79
POS 0 38345.000 366487.297 4767466.487
QUA 0 38345.000 7 9.100 0.900 9.000 1.000 0.000 0.000 0.000
RAW 0 38345.000 4 430288.94000 -703835.74000 -20.30000 143905.00000
MSG 0 38264.989 $GPGGA,143905,4302.8894,N,07038.3574,W,1,09,0.9,12.1,M,-32.4,M,,*41
MSG 0 38265.132 $GPGSA,A,3,,14,16,20,22,,25,29,30,31,32,,1.8,0.9,1.5*3A
MSG 0 38265.251 $GPGSV,3,3,11,30,51,206,48,31,72,013,49,32,47,271,47*4B
MSG 0 38265.370 $PGRME,4.5,M,8.0,M,9.1,M*2F
MSG 0 38265.430 $PGRMB,0.0,200,,,,K,,N,N*31
MSG 0 38265.491 $PGRMM,WGS 84*06
MSG 0 38265.827 $GPRMC,143906,A,4302.8891,N,07038.3574,W,000.6,165.3,030712,016.1,W*7D
POS 0 38346.000 366487.287 4767465.932
QUA 0 38346.000 7 9.100 0.900 9.000 1.000 0.000 0.000 0.000
RAW 0 38346.000 4 430288.91000 -703835.74000 -20.10000 143906.00000
MSG 0 38265.977 $GPGGA,143906,4302.8891,N,07038.3574,W,1,09,0.9,12.3,M,-32.4,M,,*45
MSG 0 38266.121 $GPGSA,A,3,,14,16,20,22,,25,29,30,31,32,,1.8,0.9,1.5*3A
MSG 0 38266.240 $GPGSV,3,1,11,11,00,247,34,14,39,121,47,16,23,206,43,20,29,299,48*71
MSG 0 38266.385 $PGRME,4.5,M,8.0,M,9.1,M*2F
MSG 0 38266.446 $PGRMB,0.0,200,,,,K,,N,N*31
MSG 0 38266.506 $PGRMM,WGS 84*06
MSG 0 38266.842 $GPRMC,143907,A,4302.8891,N,07038.3572,W,000.4,127.8,030712,016.1,W*75
POS 0 38347.000 366487.558 4767465.927
QUA 0 38347.000 7 9.100 0.900 9.000 1.000 0.000 0.000 0.000
RAW 0 38347.000 4 430288.91000 -703835.72000 -20.20000 143907.00000
MSG 0 38266.992 $GPGGA,143907,4302.8891,N,07038.3572,W,1,09,0.9,12.2,M,-32.4,M,,*43
MSG 0 38267.136 $GPGSA,A,3,,14,16,20,22,,25,29,30,31,32,,1.8,0.9,1.5*3A
MSG 0 38267.254 $GPGSV,3,2,11,22,02,172,44,23,08,308,36,25,31,047,46,29,23,083,45*7D
MSG 0 38267.400 $PGRME,4.5,M,8.0,M,9.1,M*2F
MSG 0 38267.460 $PGRMB,0.0,200,,,,K,,N,N*31
MSG 0 38267.521 $PGRMM,WGS 84*06
MSG 0 38267.858 $GPRMC,143908,A,4302.8888,N,07038.3573,W,000.6,169.8,030712,016.1,W*7B
POS 0 38348.000 366487.411 4767465.374
QUA 0 38348.000 7 9.100 0.900 9.000 1.000 0.000 0.000 0.000
RAW 0 38348.000 4 430288.88000 -703835.73000 -20.20000 143908.00000
MSG 0 38268.008 $GPGGA,143908,4302.8888,N,07038.3573,W,1,09,0.9,12.2,M,-32.4,M,,*45
MSG 0 38268.152 $GPGSA,A,3,,14,16,20,22,,25,29,30,31,32,,1.8,0.9,1.5*3A
MSG 0 38268.271 $GPGSV,3,3,11,30,51,206,48,31,72,013,49,32,47,271,47*4B
MSG 0 38268.389 $PGRME,4.5,M,8.0,M,9.1,M*2F
MSG 0 38268.450 $PGRMB,0.0,200,,,,K,,N,N*31
MSG 0 38268.510 $PGRMM,WGS 84*06
MSG 0 38268.837 $GPRMC,143909,A,4302.8887,N,07038.3570,W,000.7,144.4,030712,016.1,W*74
POS 0 38349.000 366487.815 4767465.181
QUA 0 38349.000 7 9.100 0.900 9.000 1.000 0.000 0.000 0.000
RAW 0 38349.000 4 430288.87000 -703835.70000 -20.40000 143909.00000
MSG 0 38268.987 $GPGGA,143909,4302.8887,N,07038.3570,W,1,09,0.9,12.0,M,-32.4,M,,*4A
MSG 0 38269.131 $GPGSA,A,3,,14,16,20,22,,25,29,30,31,32,,1.8,0.9,1.5*3A
MSG 0 38269.249 $GPGSV,3,1,11,11,00,247,34,14,39,121,47,16,23,206,43,20,29,299,48*71
MSG 0 38269.395 $PGRME,4.5,M,8.0,M,9.1,M*2F
MSG 0 38269.455 $PGRMB,0.0,200,,,,K,,N,N*31
MSG 0 38269.516 $PGRMM,WGS 84*06
MSG 0 38269.842 $GPRMC,143910,A,4302.8886,N,07038.3570,W,000.4,142.9,030712,016.1,W*75
POS 0 38350.000 366487.811 4767464.996
QUA 0 38350.000 7 9.100 0.900 9.000 1.000 0.000 0.000 0.000
RAW 0 38350.000 4 430288.86000 -703835.70000 -20.30000 143910.00000
MSG 0 38269.992 $GPGGA,143910,4302.8886,N,07038.3570,W,1,09,0.9,12.1,M,-32.4,M,,*42
MSG 0 38270.136 $GPGSA,A,3,,14,16,20,22,,25,29,30,31,32,,1.8,0.9,1.5*3A
MSG 0 38270.254 $GPGSV,3,2,11,22,02,172,44,23,08,308,36,25,30,047,46,29,23,083,45*7C
MSG 0 38270.400 $PGRME,4.5,M,8.0,M,9.1,M*2F
MSG 0 38270.461 $PGRMB,0.0,200,,,,K,,N,N*31
MSG 0 38270.521 $PGRMM,WGS 84*06
MSG 0 38270.828 $GPRMC,143911,A,4302.8885,N,07038.3569,W,000.4,146.2,030712,016.1,W*70
POS 0 38351.000 366487.944 4767464.808
QUA 0 38351.000 7 9.100 0.900 9.000 1.000 0.000 0.000 0.000
RAW 0 38351.000 4 430288.85000 -703835.69000 -20.00000 143911.00000
MSG 0 38270.978 $GPGGA,143911,4302.8885,N,07038.3569,W,1,09,0.9,12.4,M,-32.4,M,,*4D
MSG 0 38271.122 $GPGSA,A,3,,14,16,20,22,,25,29,30,31,32,,1.8,0.9,1.5*3A
MSG 0 38271.240 $GPGSV,3,3,11,30,51,206,48,31,72,013,49,32,47,271,48*44
MSG 0 38271.359 $PGRME,4.5,M,8.0,M,9.1,M*2F
MSG 0 38271.420 $PGRMB,0.0,200,,,,K,,N,N*31
MSG 0 38271.480 $PGRMM,WGS 84*06
MSG 0 38271.827 $GPRMC,143912,A,4302.8883,N,07038.3567,W,000.7,147.5,030712,016.1,W*7E
POS 0 38352.000 366488.208 4767464.433
QUA 0 38352.000 7 9.100 0.900 9.000 1.000 0.000 0.000 0.000
RAW 0 38352.000 4 430288.83000 -703835.67000 -20.00000 143912.00000
MSG 0 38271.977 $GPGGA,143912,4302.8883,N,07038.3567,W,1,09,0.9,12.4,M,-32.4,M,,*46
MSG 0 38272.121 $GPGSA,A,3,,14,16,20,22,,25,29,30,31,32,,1.8,0.9,1.5*3A
MSG 0 38272.239 $GPGSV,3,1,11,11,00,247,34,14,39,121,47,16,23,206,43,20,29,299,47*7E
MSG 0 38272.385 $PGRME,4.5,M,8.0,M,9.1,M*2F
MSG 0 38272.446 $PGRMB,0.0,200,,,,K,,N,N*31
MSG 0 38272.506 $PGRMM,WGS 84*06
MSG 0 38272.829 $GPRMC,143913,A,4302.8882,N,07038.3568,W,000.5,173.4,030712,016.1,W*75
POS 0 38353.000 366488.068 4767464.250
QUA 0 38353.000 7 9.100 0.900 9.000 1.000 0.000 0.000 0.000
RAW 0 38353.000 4 430288.82000 -703835.68000 -20.00000 143913.00000
MSG 0 38272.979 $GPGGA,143913,4302.8882,N,07038.3568,W,1,09,0.9,12.4,M,-32.4,M,,*49
MSG 0 38273.122 $GPGSA,A,3,,14,16,20,22,,25,29,30,31,32,,1.8,0.9,1.5*3A
MSG 0 38273.241 $GPGSV,3,2,11,22,02,172,42,23,08,308,37,25,30,047,46,29,23,083,46*78
MSG 0 38273.387 $PGRME,4.5,M,8.0,M,9.1,M*2F
MSG 0 38273.447 $PGRMB,0.0,200,,,,K,,N,N*31
MSG 0 38273.508 $PGRMM,WGS 84*06
MSG 0 38273.831 $GPRMC,143914,A,4302.8883,N,07038.3568,W,000.0,173.4,030712,016.1,W*76
POS 0 38354.000 366488.072 4767464.435
QUA 0 38354.000 7 9.100 0.900 9.000 1.000 0.000 0.000 0.000
RAW 0 38354.000 4 430288.83000 -703835.68000 -20.20000 143914.00000
MSG 0 38273.981 $GPGGA,143914,4302.8883,N,07038.3568,W,1,09,0.9,12.2,M,-32.4,M,,*49
MSG 0 38274.125 $GPGSA,A,3,,14,16,20,22,,25,29,30,31,32,,1.8,0.9,1.5*3A
MSG 0 38274.243 $GPGSV,3,3,11,30,51,206,48,31,72,013,48,32,47,271,49*44
MSG 0 38274.362 $PGRME,4.5,M,8.0,M,9.1,M*2F
MSG 0 38274.422 $PGRMB,0.0,200,,,,K,,N,N*31
MSG 0 38274.483 $PGRMM,WGS 84*06
MSG 0 38274.828 $GPRMC,143915,A,4302.8881,N,07038.3567,W,000.8,166.6,030712,016.1,W*74
POS 0 38355.000 366488.201 4767464.063
QUA 0 38355.000 7 9.100 0.900 9.000 1.000 0.000 0.000 0.000
RAW 0 38355.000 4 430288.81000 -703835.67000 -20.00000 143915.00000
MSG 0 38274.978 $GPGGA,143915,4302.8881,N,07038.3567,W,1,09,0.9,12.4,M,-32.4,M,,*43
MSG 0 38275.121 $GPGSA,A,3,,14,16,20,22,,25,29,30,31,32,,1.8,0.9,1.5*3A
MSG 0 38275.240 $GPGSV,3,1,11,11,00,247,34,14,39,121,47,16,23,206,44,20,29,299,45*7B
MSG 0 38275.386 $PGRME,4.5,M,8.0,M,9.2,M*2C
MSG 0 38275.446 $PGRMB,0.0,200,,,,K,,N,N*31
MSG 0 38275.506 $PGRMM,WGS 84*06
MSG 0 38275.829 $GPRMC,143916,A,4302.8876,N,07038.3564,W,000.9,154.8,030712,016.1,W*72
POS 0 38356.000 366488.590 4767463.129
QUA 0 38356.000 7 9.100 0.900 9.000 1.000 0.000 0.000 0.000
RAW 0 38356.000 4 430288.76000 -703835.64000 -20.10000 143916.00000
MSG 0 38275.979 $GPGGA,143916,4302.8876,N,07038.3564,W,1,09,0.9,12.3,M,-32.4,M,,*4C
MSG 0 38276.122 $GPGSA,A,3,,14,16,20,22,,25,29,30,31,32,,1.8,0.9,1.5*3A
MSG 0 38276.241 $GPGSV,3,2,11,22,02,172,40,23,08,308,37,25,30,047,46,29,23,083,46*7A
MSG 0 38276.387 $PGRME,4.5,M,8.0,M,9.2,M*2C
MSG 0 38276.447 $PGRMB,0.0,200,,,,K,,N,N*31
MSG 0 38276.508 $PGRMM,WGS 84*06
MSG 0 38276.827 $GPRMC,143917,A,4302.8878,N,07038.3564,W,000.3,115.2,030712,016.1,W*78
POS 0 38357.000 366488.597 4767463.499
QUA 0 38357.000 7 9.100 0.900 9.000 1.000 0.000 0.000 0.000
RAW 0 38357.000 4 430288.78000 -703835.64000 -20.40000 143917.00000
MSG 0 38276.977 $GPGGA,143917,4302.8878,N,07038.3564,W,1,09,0.9,12.0,M,-32.4,M,,*40
MSG 0 38277.120 $GPGSA,A,3,,14,16,20,22,,25,29,30,31,32,,1.8,0.9,1.5*3A
MSG 0 38277.239 $GPGSV,3,3,11,30,51,206,48,31,72,013,48,32,47,271,49*44
MSG 0 38277.358 $PGRME,4.5,M,8.0,M,9.2,M*2C
MSG 0 38277.418 $PGRMB,0.0,200,,,,K,,N,N*31
MSG 0 38277.479 $PGRMM,WGS 84*06
MSG 0 38277.827 $GPRMC,143918,A,4302.8876,N,07038.3563,W,000.5,151.2,030712,016.1,W*78
POS 0 38358.000 366488.725 4767463.127
QUA 0 38358.000 7 9.100 0.900 9.000 1.000 0.000 0.000 0.000
RAW 0 38358.000 4 430288.76000 -703835.63000 -20.30000 143918.00000
MSG 0 38277.977 $GPGGA,143918,4302.8876,N,07038.3563,W,1,09,0.9,12.1,M,-32.4,M,,*47
MSG 0 38278.121 $GPGSA,A,3,,14,16,20,22,,25,29,30,31,32,,1.8,0.9,1.5*3A
MSG 0 38278.240 $GPGSV,3,1,11,11,00,247,34,14,39,121,46,16,23,206,44,20,29,299,46*79
MSG 0 38278.385 $PGRME,4.5,M,8.0,M,9.2,M*2C
MSG 0 38278.446 $PGRMB,0.0,200,,,,K,,N,N*31
MSG 0 38278.506 $PGRMM,WGS 84*06
MSG 0 38278.840 $GPRMC,143919,A,4302.8873,N,07038.3560,W,000.9,143.2,030712,016.1,W*70
POS 0 38359.000 366489.122 4767462.563
QUA 0 38359.000 7 9.100 0.900 9.000 1.000 0.000 0.000 0.000
RAW 0 38359.000 4 430288.73000 -703835.60000 -19.80000 143919.00000
MSG 0 38278.990 $GPGGA,143919,4302.8873,N,07038.3560,W,1,09,0.9,12.6,M,-32.4,M,,*47
MSG 0 38279.133 $GPGSA,A,3,,14,16,20,22,,25,29,30,31,32,,1.8,0.9,1.5*3A
MSG 0 38279.252 $GPGSV,3,2,11,22,02,172,42,23,08,308,37,25,30,047,45,29,23,083,46*7B
MSG 0 38279.398 $PGRME,4.5,M,8.0,M,9.2,M*2C
MSG 0 38279.458 $PGRMB,0.0,200,,,,K,,N,N*31
MSG 0 38279.519 $PGRMM,WGS 84*06
MSG 0 38279.827 $GPRMC,143920,A,4302.8873,N,07038.3562,W,000.3,177.4,030712,016.1,W*73
POS 0 38360.000 366488.850 4767462.569
QUA 0 38360.000 7 9.100 0.900 9.000 1.000 0.000 0.000 0.000
RAW 0 38360.000 4 430288.73000 -703835.62000 -19.80000 143920.00000
MSG 0 38279.977 $GPGGA,143920,4302.8873,N,07038.3562,W,1,09,0.9,12.6,M,-32.4,M,,*4F
MSG 0 38280.121 $GPGSA,A,3,,14,16,20,22,,25,29,30,31,32,,1.8,0.9,1.5*3A
MSG 0 38280.240 $GPGSV,3,3,11,30,51,206,47,31,72,013,47,32,47,271,48*45
MSG 0 38280.358 $PGRME,4.5,M,8.0,M,9.2,M*2C
MSG 0 38280.419 $PGRMB,0.0,200,,,,K,,N,N*31
MSG 0 38280.479 $PGRMM,WGS 84*06
MSG 0 38280.827 $GPRMC,143921,A,4302.8872,N,07038.3562,W,000.3,184.9,030712,016.1,W*72
POS 0 38361.000 366488.847 4767462.384
QUA 0 38361.000 7 9.100 0.900 9.000 1.000 0.000 0.000 0.000
RAW 0 38361.000 4 430288.72000 -703835.62000 -20.00000 143921.00000
MSG 0 38280.977 $GPGGA,143921,4302.8872,N,07038.3562,W,1,09,0.9,12.4,M,-32.4,M,,*4D
MSG 0 38281.121 $GPGSA,A,3,,14,16,20,22,,25,29,30,31,32,,1.8,0.9,1.5*3A
MSG 0 38281.239 $GPGSV,3,1,11,11,00,247,34,14,39,121,45,16,23,206,42,20,29,299,48*72
MSG 0 38281.385 $PGRME,4.5,M,8.0,M,9.2,M*2C
MSG 0 38281.445 $PGRMB,0.0,200,,,,K,,N,N*31
MSG 0 38281.506 $PGRMM,WGS 84*06
MSG 0 38281.826 $GPRMC,143922,A,4302.8870,N,07038.3561,W,000.6,160.8,030712,016.1,W*7E
POS 0 38362.000 366488.975 4767462.011
QUA 0 38362.000 7 9.100 0.900 9.000 1.000 0.000 0.000 0.000
RAW 0 38362.000 4 430288.70000 -703835.61000 -19.90000 143922.00000
MSG 0 38281.976 $GPGGA,143922,4302.8870,N,07038.3561,W,1,09,0.9,12.5,M,-32.4,M,,*4E
MSG 0 38282.119 $GPGSA,A,3,,14,16,20,22,,25,29,30,31,32,,1.8,0.9,1.5*3A
MSG 0 38282.238 $GPGSV,3,2,11,22,02,172,44,23,08,308,37,25,30,047,45,29,23,083,46*7D
MSG 0 38282.384 $PGRME,4.5,M,8.0,M,9.2,M*2C
MSG 0 38282.444 $PGRMB,0.0,200,,,,K,,N,N*31
MSG 0 38282.505 $PGRMM,WGS 84*06
MSG 0 38282.827 $GPRMC,143923,A,4302.8868,N,07038.3559,W,000.7,152.8,030712,016.1,W*7D
POS 0 38363.000 366489.240 4767461.635
QUA 0 38363.000 7 9.100 0.900 9.000 1.000 0.000 0.000 0.000
RAW 0 38363.000 4 430288.68000 -703835.59000 -19.90000 143923.00000
MSG 0 38282.977 $GPGGA,143923,4302.8868,N,07038.3559,W,1,09,0.9,12.5,M,-32.4,M,,*4D
MSG 0 38283.120 $GPGSA,A,3,,14,16,20,22,,25,29,30,31,32,,1.8,0.9,1.5*3A
MSG 0 38283.239 $GPGSV,3,3,11,30,51,206,49,31,72,013,47,32,47,271,48*4B
MSG 0 38283.358 $PGRME,4.5,M,8.1,M,9.3,M*2C
MSG 0 38283.418 $PGRMB,0.0,200,,,,K,,N,N*31
MSG 0 38283.478 $PGRMM,WGS 84*06
MSG 0 38283.838 $GPRMC,143924,A,4302.8868,N,07038.3558,W,000.4,139.6,030712,016.1,W*7B
POS 0 38364.000 366489.375 4767461.633
QUA 0 38364.000 7 9.100 0.900 9.000 1.000 0.000 0.000 0.000
RAW 0 38364.000 4 430288.68000 -703835.58000 -20.10000 143924.00000
MSG 0 38283.988 $GPGGA,143924,4302.8868,N,07038.3558,W,1,09,0.9,12.3,M,-32.4,M,,*4D
MSG 0 38284.132 $GPGSA,A,3,,14,16,20,22,,25,29,30,31,32,,1.8,0.9,1.5*3A
MSG 0 38284.250 $GPGSV,3,1,11,11,00,247,34,14,39,121,45,16,23,206,41,20,29,299,49*70
MSG 0 38284.396 $PGRME,4.5,M,8.0,M,9.2,M*2C
MSG 0 38284.456 $PGRMB,0.0,200,,,,K,,N,N*31
MSG 0 38284.517 $PGRMM,WGS 84*06
MSG 0 38284.826 $GPRMC,143925,A,4302.8866,N,07038.3556,W,000.7,136.0,030712,016.1,W*70
POS 0 38365.000 366489.640 4767461.257
QUA 0 38365.000 7 9.100 0.900 9.000 1.000 0.000 0.000 0.000
RAW 0 38365.000 4 430288.66000 -703835.56000 -20.00000 143925.00000
MSG 0 38284.976 $GPGGA,143925,4302.8866,N,07038.3556,W,1,09,0.9,12.4,M,-32.4,M,,*4B
MSG 0 38285.120 $GPGSA,A,3,,14,16,20,22,,25,29,30,31,32,,1.8,0.9,1.5*3A
MSG 0 38285.239 $GPGSV,3,2,11,22,02,172,43,23,08,308,37,25,30,047,45,29,23,082,46*7B
MSG 0 38285.384 $PGRME,4.5,M,8.0,M,9.2,M*2C
MSG 0 38285.445 $PGRMB,0.0,200,,,,K,,N,N*31
MSG 0 38285.505 $PGRMM,WGS 84*06
MSG 0 38285.837 $GPRMC,143926,A,4302.8864,N,07038.3555,W,000.6,151.6,030712,016.1,W*74
POS 0 38366.000 366489.768 4767460.884
QUA 0 38366.000 7 9.100 0.900 9.000 1.000 0.000 0.000 0.000
RAW 0 38366.000 4 430288.64000 -703835.55000 -19.70000 143926.00000
MSG 0 38285.987 $GPGGA,143926,4302.8864,N,07038.3555,W,1,09,0.9,12.7,M,-32.4,M,,*4A
MSG 0 38286.131 $GPGSA,A,3,,14,16,20,22,,25,29,30,31,32,,1.8,0.9,1.5*3A
MSG 0 38286.249 $GPGSV,3,3,11,30,51,206,49,31,72,013,46,32,47,271,49*4B
MSG 0 38286.368 $PGRME,4.5,M,8.0,M,9.2,M*2C
MSG 0 38286.428 $PGRMB,0.0,200,,,,K,,N,N*31
MSG 0 38286.489 $PGRMM,WGS 84*06
MSG 0 38286.831 $GPRMC,143927,A,4302.8864,N,07038.3556,W,000.3,176.5,030712,016.1,W*75
POS 0 38367.000 366489.632 4767460.887
QUA 0 38367.000 7 9.100 0.900 9.000 1.000 0.000 0.000 0.000
RAW 0 38367.000 4 430288.64000 -703835.56000 -19.60000 143927.00000
MSG 0 38286.980 $GPGGA,143927,4302.8864,N,07038.3556,W,1,09,0.9,12.8,M,-32.4,M,,*47
MSG 0 38287.124 $GPGSA,A,3,,14,16,20,22,,25,29,30,31,32,,1.8,0.9,1.5*3A
MSG 0 38287.243 $GPGSV,3,1,11,11,00,247,34,14,39,121,45,16,23,206,41,20,29,299,48*71
MSG 0 38287.389 $PGRME,4.5,M,8.0,M,9.2,M*2C
MSG 0 38287.449 $PGRMB,0.0,200,,,,K,,N,N*31
MSG 0 38287.509 $PGRMM,WGS 84*06
MSG 0 38287.827 $GPRMC,143928,A,4302.8862,N,07038.3556,W,000.5,181.8,030712,016.1,W*7F
POS 0 38368.000 366489.625 4767460.517
QUA 0 38368.000 7 9.100 0.900 9.000 1.000 0.000 0.000 0.000
RAW 0 38368.000 4 430288.62000 -703835.56000 -19.80000 143928.00000
MSG 0 38287.977 $GPGGA,143928,4302.8862,N,07038.3556,W,1,09,0.9,12.6,M,-32.4,M,,*40
MSG 0 38288.120 $GPGSA,A,3,,14,16,20,22,,25,29,30,31,32,,1.8,0.9,1.5*3A
MSG 0 38288.239 $GPGSV,3,2,11,22,02,172,44,23,08,308,37,25,30,047,46,29,23,082,46*7F
MSG 0 38288.385 $PGRME,4.5,M,8.0,M,9.2,M*2C
MSG 0 38288.445 $PGRMB,0.0,200,,,,K,,N,N*31
MSG 0 38288.505 $PGRMM,WGS 84*06
MSG 0 38288.826 $GPRMC,143929,A,4302.8860,N,07038.3555,W,000.7,163.2,030712,016.1,W*7B
POS 0 38369.000 366489.754 4767460.144
QUA 0 38369.000 7 9.100 0.900 9.000 1.000 0.000 0.000 0.000
RAW 0 38369.000 4 430288.60000 -703835.55000 -19.90000 143929.00000
MSG 0 38288.976 $GPGGA,143929,4302.8860,N,07038.3555,W,1,09,0.9,12.5,M,-32.4,M,,*43
MSG 0 38289.120 $GPGSA,A,3,,14,16,20,22,,25,29,30,31,32,,1.8,0.9,1.5*3A
MSG 0 38289.238 $GPGSV,3,3,11,30,52,206,49,31,72,013,46,32,47,271,50*40
MSG 0 38289.357 $PGRME,4.5,M,8.0,M,9.2,M*2C
MSG 0 38289.417 $PGRMB,0.0,200,,,,K,,N,N*31
MSG 0 38289.478 $PGRMM,WGS 84*06
MSG 0 38289.825 $GPRMC,143930,A,4302.8860,N,07038.3555,W,000.3,155.2,030712,016.1,W*72
POS 0 38370.000 366489.754 4767460.144
QUA 0 38370.000 7 9.100 0.900 9.000 1.000 0.000 0.000 0.000
RAW 0 38370.000 4 430288.60000 -703835.55000 -20.00000 143930.00000
MSG 0 38289.974 $GPGGA,143930,4302.8860,N,07038.3555,W,1,09,0.9,12.4,M,-32.4,M,,*4A
MSG 0 38290.118 $GPGSA,A,3,,14,16,20,22,,25,29,30,31,32,,1.8,0.9,1.5*3A
MSG 0 38290.237 $GPGSV,3,1,11,11,00,247,34,14,39,121,45,16,23,206,41,20,29,299,47*7E
MSG 0 38290.383 $PGRME,4.5,M,8.0,M,9.2,M*2C
MSG 0 38290.443 $PGRMB,0.0,200,,,,K,,N,N*31
MSG 0 38290.503 $PGRMM,WGS 84*06
MSG 0 38290.826 $GPRMC,143931,A,4302.8857,N,07038.3553,W,000.7,158.2,030712,016.1,W*78
POS 0 38371.000 366490.014 4767459.583
QUA 0 38371.000 7 9.100 0.900 9.000 1.000 0.000 0.000 0.000
RAW 0 38371.000 4 430288.57000 -703835.53000 -20.00000 143931.00000
MSG 0 38290.976 $GPGGA,143931,4302.8857,N,07038.3553,W,1,09,0.9,12.4,M,-32.4,M,,*49
MSG 0 38291.120 $GPGSA,A,3,,14,16,20,22,,25,29,30,31,32,,1.8,0.9,1.5*3A
MSG 0 38291.239 $GPGSV,3,2,11,22,02,172,43,23,08,308,37,25,30,047,46,29,23,082,46*78
MSG 0 38291.384 $PGRME,4.5,M,8.0,M,9.2,M*2C
MSG 0 38291.445 $PGRMB,0.0,200,,,,K,,N,N*31
MSG 0 38291.505 $PGRMM,WGS 84*06
MSG 0 38291.827 $GPRMC,143932,A,4302.8856,N,07038.3550,W,000.7,130.3,030712,016.1,W*76
POS 0 38372.000 366490.418 4767459.390
QUA 0 38372.000 7 9.100 0.900 9.000 1.000 0.000 0.000 0.000
RAW 0 38372.000 4 430288.56000 -703835.50000 -20.00000 143932.00000
MSG 0 38291.977 $GPGGA,143932,4302.8856,N,07038.3550,W,1,09,0.9,12.4,M,-32.4,M,,*48
MSG 0 38292.121 $GPGSA,A,3,,14,16,20,22,,25,29,30,31,32,,1.8,0.9,1.5*3A
MSG 0 38292.239 $GPGSV,3,3,11,30,52,206,50,31,72,013,46,32,47,271,50*48
MSG 0 38292.358 $PGRME,4.5,M,8.0,M,9.2,M*2C
MSG 0 38292.418 $PGRMB,0.0,200,,,,K,,N,N*31
MSG 0 38292.479 $PGRMM,WGS 84*06
MSG 0 38292.826 $GPRMC,143933,A,4302.8855,N,07038.3550,W,000.5,146.0,030712,016.1,W*74
POS 0 38373.000 366490.414 4767459.205
QUA 0 38373.000 7 9.100 0.900 9.000 1.000 0.000 0.000 0.000
RAW 0 38373.000 4 430288.55000 -703835.50000 -19.80000 143933.00000
MSG 0 38292.976 $GPGGA,143933,4302.8855,N,07038.3550,W,1,09,0.9,12.6,M,-32.4,M,,*48
MSG 0 38293.119 $GPGSA,A,3,,14,16,20,22,,25,29,30,31,32,,1.8,0.9,1.5*3A
MSG 0 38293.238 $GPGSV,3,1,11,11,00,247,34,14,39,121,46,16,23,206,40,20,29,299,47*7C
MSG 0 38293.384 $PGRME,4.5,M,8.0,M,9.2,M*2C
MSG 0 38293.444 $PGRMB,0.0,200,,,,K,,N,N*31
MSG 0 38293.505 $PGRMM,WGS 84*06
MSG 0 38293.827 $GPRMC,143934,A,4302.8854,N,07038.3549,W,000.5,151.8,030712,016.1,W*74
POS 0 38374.000 366490.546 4767459.018
QUA 0 38374.000 7 9.100 0.900 9.000 1.000 0.000 0.000 0.000
RAW 0 38374.000 4 430288.54000 -703835.49000 -19.80000 143934.00000
MSG 0 38293.977 $GPGGA,143934,4302.8854,N,07038.3549,W,1,09,0.9,12.6,M,-32.4,M,,*46
MSG 0 38294.121 $GPGSA,A,3,,14,16,20,22,,25,29,30,31,32,,1.8,0.9,1.5*3A
MSG 0 38294.239 $GPGSV,3,2,11,22,02,172,44,23,08,308,37,25,30,047,47,29,23,082,46*7E
MSG 0 38294.385 $PGRME,4.5,M,8.0,M,9.2,M*2C
MSG 0 38294.446 $PGRMT,GPS 17-HVS Ver. 2.80,P,P,R,R,P,,39,R*01
MSG 0 38294.546 $PGRMB,0.0,200,,,,K,,N,N*31
MSG 0 38294.606 $PGRMM,WGS 84*06
MSG 0 38294.826 $GPRMC,143935,A,4302.8852,N,07038.3548,W,000.7,153.2,030712,016.1,W*78
POS 0 38375.000 366490.675 4767458.645
QUA 0 38375.000 7 9.100 0.900 9.000 1.000 0.000 0.000 0.000
RAW 0 38375.000 4 430288.52000 -703835.48000 -19.80000 143935.00000
MSG 0 38294.976 $GPGGA,143935,4302.8852,N,07038.3548,W,1,09,0.9,12.6,M,-32.4,M,,*40
MSG 0 38295.120 $GPGSA,A,3,,14,16,20,22,,25,29,30,31,32,,1.8,0.9,1.5*3A
MSG 0 38295.239 $GPGSV,3,3,11,30,52,206,49,31,72,016,46,32,47,271,49*4D
MSG 0 38295.357 $PGRME,4.5,M,8.0,M,9.2,M*2C
MSG 0 38295.418 $PGRMB,0.0,200,,,,K,,N,N*31
MSG 0 38295.478 $PGRMM,WGS 84*06
MSG 0 38295.826 $GPRMC,143936,A,4302.8851,N,07038.3547,W,000.5,157.3,030712,016.1,W*70
POS 0 38376.000 366490.807 4767458.457
QUA 0 38376.000 7 9.100 0.900 9.000 1.000 0.000 0.000 0.000
RAW 0 38376.000 4 430288.51000 -703835.47000 -19.90000 143936.00000
MSG 0 38295.976 $GPGGA,143936,4302.8851,N,07038.3547,W,1,09,0.9,12.5,M,-32.4,M,,*4C
MSG 0 38296.120 $GPGSA,A,3,,14,16,20,22,,25,29,30,31,32,,1.8,0.9,1.5*3A
MSG 0 38296.238 $GPGSV,3,1,11,11,00,247,34,14,39,121,45,16,23,206,39,20,29,299,47*71
MSG 0 38296.384 $PGRME,4.5,M,8.0,M,9.2,M*2C
MSG 0 38296.445 $PGRMB,0.0,200,,,,K,,N,N*31
MSG 0 38296.505 $PGRMM,WGS 84*06
MSG 0 38296.826 $GPRMC,143937,A,4302.8849,N,07038.3547,W,000.6,166.2,030712,016.1,W*78
POS 0 38377.000 366490.800 4767458.087
QUA 0 38377.000 7 9.100 0.900 9.000 1.000 0.000 0.000 0.000
RAW 0 38377.000 4 430288.49000 -703835.47000 -19.70000 143937.00000
MSG 0 38296.976 $GPGGA,143937,4302.8849,N,07038.3547,W,1,09,0.9,12.7,M,-32.4,M,,*46
MSG 0 38297.120 $GPGSA,A,3,,14,16,20,22,,25,29,30,31,32,,1.8,0.9,1.5*3A
MSG 0 38297.238 $GPGSV,3,2,11,22,02,172,45,23,08,308,37,25,30,047,47,29,23,082,45*7C
MSG 0 38297.384 $PGRME,4.5,M,8.0,M,9.2,M*2C
MSG 0 38297.444 $PGRMB,0.0,200,,,,K,,N,N*31
MSG 0 38297.505 $PGRMM,WGS 84*06
MSG 0 38297.836 $GPRMC,143938,A,4302.8847,N,07038.3546,W,000.6,157.5,030712,016.1,W*7D
POS 0 38378.000 366490.928 4767457.714
QUA 0 38378.000 7 9.100 0.900 9.000 1.000 0.000 0.000 0.000
RAW 0 38378.000 4 430288.47000 -703835.46000 -19.70000 143938.00000
MSG 0 38297.986 $GPGGA,143938,4302.8847,N,07038.3546,W,1,09,0.9,12.7,M,-32.4,M,,*46
MSG 0 38298.130 $GPGSA,A,3,,14,16,20,22,,25,29,30,31,32,,1.8,0.9,1.5*3A
MSG 0 38298.249 $GPGSV,3,3,11,30,52,206,49,31,72,016,46,32,47,270,48*4D
MSG 0 38298.367 $PGRME,4.5,M,8.0,M,9.2,M*2C
MSG 0 38298.428 $PGRMB,0.0,200,,,,K,,N,N*31
MSG 0 38298.488 $PGRMM,WGS 84*06
MSG 0 38298.839 $GPRMC,143939,A,4302.8846,N,07038.3545,W,000.5,159.8,030712,016.1,W*7E
POS 0 38379.000 366491.060 4767457.526
QUA 0 38379.000 7 9.100 0.900 9.000 1.000 0.000 0.000 0.000
RAW 0 38379.000 4 430288.46000 -703835.45000 -19.60000 143939.00000
MSG 0 38298.989 $GPGGA,143939,4302.8846,N,07038.3545,W,1,09,0.9,12.8,M,-32.4,M,,*4A
MSG 0 38299.133 $GPGSA,A,3,,14,16,20,22,,25,29,30,31,32,,1.8,0.9,1.5*3A
MSG 0 38299.251 $GPGSV,3,1,11,11,00,247,34,14,39,121,45,16,23,206,38,20,29,299,48*7F
MSG 0 38299.397 $PGRME,4.5,M,8.0,M,9.2,M*2C
MSG 0 38299.457 $PGRMB,0.0,200,,,,K,,N,N*31
MSG 0 38299.518 $PGRMM,WGS 84*06
MSG 0 38299.864 $GPRMC,143940,A,4302.8844,N,07038.3544,W,000.6,153.3,030712,016.1,W*71
POS 0 38380.000 366491.189 4767457.153
QUA 0 38380.000 7 9.100 0.900 9.000 1.000 0.000 0.000 0.000
RAW 0 38380.000 4 430288.44000 -703835.44000 -19.90000 143940.00000
MSG 0 38300.014 $GPGGA,143940,4302.8844,N,07038.3544,W,1,09,0.9,12.5,M,-32.4,M,,*4A
MSG 0 38300.158 $GPGSA,A,3,,14,16,20,22,,25,29,30,31,32,,1.8,0.9,1.5*3A
MSG 0 38300.276 $GPGSV,3,2,11,22,02,172,44,23,08,308,36,25,30,047,46,29,23,082,43*7B
MSG 0 38300.422 $PGRME,4.5,M,8.0,M,9.2,M*2C
MSG 0 38300.483 $PGRMB,0.0,200,,,,K,,N,N*31
MSG 0 38300.543 $PGRMM,WGS 84*06
MSG 0 38300.826 $GPRMC,143941,A,4302.8842,N,07038.3540,W,000.9,139.6,030712,016.1,W*74
POS 0 38381.000 366491.725 4767456.773
QUA 0 38381.000 7 9.100 0.900 9.000 1.000 0.000 0.000 0.000
RAW 0 38381.000 4 430288.42000 -703835.40000 -19.90000 143941.00000
MSG 0 38300.976 $GPGGA,143941,4302.8842,N,07038.3540,W,1,09,0.9,12.5,M,-32.4,M,,*49
MSG 0 38301.119 $GPGSA,A,3,,14,16,20,22,,25,29,30,31,32,,1.8,0.9,1.5*3A
MSG 0 38301.238 $GPGSV,3,3,11,30,52,206,49,31,72,016,46,32,47,270,48*4D
MSG 0 38301.357 $PGRME,4.5,M,8.0,M,9.2,M*2C
MSG 0 38301.417 $PGRMB,0.0,200,,,,K,,N,N*31
MSG 0 38301.478 $PGRMM,WGS 84*06
MSG 0 38301.825 $GPRMC,143942,A,4302.8840,N,07038.3540,W,000.7,147.7,030712,016.1,W*73
POS 0 38382.000 366491.717 4767456.402
QUA 0 38382.000 7 9.100 0.900 9.000 1.000 0.000 0.000 0.000
RAW 0 38382.000 4 430288.40000 -703835.40000 -19.90000 143942.00000
MSG 0 38301.975 $GPGGA,143942,4302.8840,N,07038.3540,W,1,09,0.9,12.5,M,-32.4,M,,*48
MSG 0 38302.119 $GPGSA,A,3,,14,16,20,22,,25,29,30,31,32,,1.8,0.9,1.5*3A
MSG 0 38302.237 $GPGSV,3,1,11,11,00,247,34,14,39,121,44,16,23,206,39,20,29,299,48*7F
MSG 0 38302.383 $PGRME,4.5,M,8.0,M,9.2,M*2C
MSG 0 38302.444 $PGRMB,0.0,200,,,,K,,N,N*31
MSG 0 38302.504 $PGRMM,WGS 84*06
MSG 0 38302.828 $GPRMC,143943,A,4302.8839,N,07038.3540,W,000.4,164.9,030712,016.1,W*70
POS 0 38383.000 366491.714 4767456.217
QUA 0 38383.000 7 9.100 0.900 9.000 1.000 0.000 0.000 0.000
RAW 0 38383.000 4 430288.39000 -703835.40000 -19.90000 143943.00000
MSG 0 38302.978 $GPGGA,143943,4302.8839,N,07038.3540,W,1,09,0.9,12.5,M,-32.4,M,,*47
MSG 0 38303.122 $GPGSA,A,3,,14,16,20,22,,25,29,30,31,32,,1.8,0.9,1.5*3A
MSG 0 38303.241 $GPGSV,3,2,11,22,02,172,42,23,08,308,37,25,30,047,46,29,23,082,43*7C
MSG 0 38303.386 $PGRME,4.5,M,8.0,M,9.2,M*2C
MSG 0 38303.447 $PGRMB,0.0,200,,,,K,,N,N*31
MSG 0 38303.507 $PGRMM,WGS 84*06
MSG 0 38303.826 $GPRMC,143944,A,4302.8836,N,07038.3535,W,001.1,134.9,030712,016.1,W*7B
POS 0 38384.000 366492.382 4767455.649
QUA 0 38384.000 7 9.100 0.900 9.000 1.000 0.000 0.000 0.000
RAW 0 38384.000 4 430288.36000 -703835.35000 -19.50000 143944.00000
MSG 0 38303.976 $GPGGA,143944,4302.8836,N,07038.3535,W,1,09,0.9,12.9,M,-32.4,M,,*41
MSG 0 38304.119 $GPGSA,A,3,,14,16,20,22,,25,29,30,31,32,,1.8,0.9,1.5*3A
MSG 0 38304.238 $GPGSV,3,3,11,30,52,206,49,31,72,016,45,32,47,270,48*4E
MSG 0 38304.356 $PGRME,4.5,M,8.0,M,9.2,M*2C
MSG 0 38304.417 $PGRMB,0.0,200,,,,K,,N,N*31
MSG 0 38304.477 $PGRMM,WGS 84*06
MSG 0 38304.837 $GPRMC,143945,A,4302.8836,N,07038.3536,W,000.5,145.9,030712,016.1,W*7A
POS 0 38385.000 366492.246 4767455.652
QUA 0 38385.000 7 9.100 0.900 9.000 1.000 0.000 0.000 0.000
RAW 0 38385.000 4 430288.36000 -703835.36000 -19.50000 143945.00000
MSG 0 38304.987 $GPGGA,143945,4302.8836,N,07038.3536,W,1,09,0.9,12.9,M,-32.4,M,,*43
MSG 0 38305.131 $GPGSA,A,3,,14,16,20,22,,25,29,30,31,32,,1.8,0.9,1.5*3A
MSG 0 38305.249 $GPGSV,3,1,11,11,00,247,33,14,39,121,44,16,23,206,41,20,29,299,49*76
MSG 0 38305.395 $PGRME,4.5,M,8.0,M,9.2,M*2C
MSG 0 38305.455 $PGRMB,0.0,200,,,,K,,N,N*31
MSG 0 38305.516 $PGRMM,WGS 84*06
MSG 0 38305.826 $GPRMC,143946,A,4302.8836,N,07038.3539,W,000.3,239.0,030712,016.1,W*71
POS 0 38386.000 366491.839 4767455.659
QUA 0 38386.000 7 9.100 0.900 9.000 1.000 0.000 0.000 0.000
RAW 0 38386.000 4 430288.36000 -703835.39000 -19.50000 143946.00000
MSG 0 38305.976 $GPGGA,143946,4302.8836,N,07038.3539,W,1,09,0.9,12.9,M,-32.4,M,,*4F
MSG 0 38306.119 $GPGSA,A,3,,14,16,20,22,,25,29,30,31,32,,1.8,0.9,1.5*3A
MSG 0 38306.238 $GPGSV,3,2,11,22,02,172,42,23,08,308,37,25,30,047,46,29,23,082,43*7C
MSG 0 38306.384 $PGRME,4.5,M,8.0,M,9.2,M*2C
MSG 0 38306.444 $PGRMB,0.0,200,,,,K,,N,N*31
MSG 0 38306.504 $PGRMM,WGS 84*06
MSG 0 38306.826 $GPRMC,143947,A,4302.8833,N,07038.3535,W,000.7,149.4,030712,016.1,W*7D
POS 0 38387.000 366492.371 4767455.094
QUA 0 38387.000 7 9.100 0.900 9.000 1.000 0.000 0.000 0.000
RAW 0 38387.000 4 430288.33000 -703835.35000 -19.50000 143947.00000
MSG 0 38306.976 $GPGGA,143947,4302.8833,N,07038.3535,W,1,09,0.9,12.9,M,-32.4,M,,*47
MSG 0 38307.120 $GPGSA,A,3,,14,16,20,22,,25,29,30,31,32,,1.8,0.9,1.5*3A
MSG 0 38307.239 $GPGSV,3,3,11,30,52,206,49,31,72,016,45,32,47,270,48*4E
MSG 0 38307.357 $PGRME,4.5,M,8.0,M,9.2,M*2C
MSG 0 38307.418 $PGRMB,0.0,200,,,,K,,N,N*31
MSG 0 38307.478 $PGRMM,WGS 84*06
MSG 0 38307.827 $GPRMC,143948,A,4302.8830,N,07038.3531,W,001.1,137.4,030712,016.1,W*7B
POS 0 38388.000 366492.903 4767454.528
QUA 0 38388.000 7 9.100 0.900 9.000 1.000 0.000 0.000 0.000
RAW 0 38388.000 4 430288.30000 -703835.31000 -19.60000 143948.00000
MSG 0 38307.977 $GPGGA,143948,4302.8830,N,07038.3531,W,1,09,0.9,12.8,M,-32.4,M,,*4E
MSG 0 38308.121 $GPGSA,A,3,,14,16,20,22,,25,29,30,31,32,,1.8,0.9,1.5*3A
MSG 0 38308.239 $GPGSV,3,1,11,11,00,247,33,14,39,121,45,16,23,206,42,20,29,299,49*74
MSG 0 38308.385 $PGRME,4.5,M,8.0,M,9.2,M*2C
MSG 0 38308.445 $PGRMB,0.0,200,,,,K,,N,N*31
MSG 0 38308.506 $PGRMM,WGS 84*06
MSG 0 38308.828 $GPRMC,143949,A,4302.8829,N,07038.3534,W,000.5,193.9,030712,016.1,W*71
POS 0 38389.000 366492.492 4767454.351
QUA 0 38389.000 7 9.100 0.900 9.000 1.000 0.000 0.000 0.000
RAW 0 38389.000 4 430288.29000 -703835.34000 -19.90000 143949.00000
MSG 0 38308.978 $GPGGA,143949,4302.8829,N,07038.3534,W,1,09,0.9,12.5,M,-32.4,M,,*4F
MSG 0 38309.122 $GPGSA,A,3,,14,16,20,22,,25,29,30,31,32,,1.8,0.9,1.5*3A
MSG 0 38309.240 $GPGSV,3,2,11,22,02,172,41,23,08,308,37,25,30,047,46,29,23,082,43*7F
MSG 0 38309.386 $PGRME,4.5,M,8.0,M,9.2,M*2C
MSG 0 38309.446 $PGRMB,0.0,200,,,,K,,N,N*31
MSG 0 38309.507 $PGRMM,WGS 84*06
MSG 0 38309.827 $GPRMC,143950,A,4302.8828,N,07038.3533,W,000.5,160.1,030712,016.1,W*7B
POS 0 38390.000 366492.624 4767454.163
QUA 0 38390.000 7 9.100 0.900 9.000 1.000 0.000 0.000 0.000
RAW 0 38390.000 4 430288.28000 -703835.33000 -19.80000 143950.00000
MSG 0 38309.977 $GPGGA,143950,4302.8828,N,07038.3533,W,1,09,0.9,12.6,M,-32.4,M,,*42
MSG 0 38310.120 $GPGSA,A,3,,14,16,20,22,,25,29,30,31,32,,1.8,0.9,1.5*3A
MSG 0 38310.239 $GPGSV,3,3,11,30,52,206,49,31,72,016,45,32,47,270,48*4E
MSG 0 38310.358 $PGRME,4.5,M,8.0,M,9.2,M*2C
MSG 0 38310.418 $PGRMB,0.0,200,,,,K,,N,N*31
MSG 0 38310.478 $PGRMM,WGS 84*06
MSG 0 38310.825 $GPRMC,143951,A,4302.8825,N,07038.3527,W,001.1,129.0,030712,016.1,W*7B
POS 0 38391.000 366493.428 4767453.592
QUA 0 38391.000 7 9.100 0.900 9.000 1.000 0.000 0.000 0.000
RAW 0 38391.000 4 430288.25000 -703835.27000 -19.30000 143951.00000
MSG 0 38310.975 $GPGGA,143951,4302.8825,N,07038.3527,W,1,09,0.9,13.1,M,-32.4,M,,*4D
MSG 0 38311.119 $GPGSA,A,3,,14,16,20,22,,25,29,30,31,32,,1.8,0.9,1.5*3A
MSG 0 38311.237 $GPGSV,3,1,11,11,00,247,34,14,39,121,45,16,23,206,42,20,29,299,49*73
MSG 0 38311.383 $PGRME,4.5,M,8.0,M,9.2,M*2C
MSG 0 38311.443 $PGRMB,0.0,200,,,,K,,N,N*31
MSG 0 38311.504 $PGRMM,WGS 84*06
MSG 0 38311.825 $GPRMC,143952,A,4302.8825,N,07038.3528,W,000.5,154.9,030712,016.1,W*71
POS 0 38392.000 366493.292 4767453.594
QUA 0 38392.000 7 9.100 0.900 9.000 1.000 0.000 0.000 0.000
RAW 0 38392.000 4 430288.25000 -703835.28000 -19.30000 143952.00000
MSG 0 38311.975 $GPGGA,143952,4302.8825,N,07038.3528,W,1,09,0.9,13.1,M,-32.4,M,,*41
MSG 0 38312.119 $GPGSA,A,3,,14,16,20,22,,25,29,30,31,32,,1.8,0.9,1.5*3A
MSG 0 38312.238 $GPGSV,3,2,11,22,02,172,41,23,08,308,37,25,30,047,46,29,23,082,44*78
MSG 0 38312.383 $PGRME,4.5,M,8.0,M,9.2,M*2C
MSG 0 38312.444 $PGRMB,0.0,200,,,,K,,N,N*31
MSG 0 38312.504 $PGRMM,WGS 84*06
MSG 0 38312.836 $GPRMC,143953,A,4302.8825,N,07038.3530,W,000.2,214.0,030712,016.1,W*70
POS 0 38393.000 366493.021 4767453.600
QUA 0 38393.000 7 9.100 0.900 9.000 1.000 0.000 0.000 0.000
RAW 0 38393.000 4 430288.25000 -703835.30000 -19.60000 143953.00000
MSG 0 38312.986 $GPGGA,143953,4302.8825,N,07038.3530,W,1,09,0.9,12.8,M,-32.4,M,,*41
MSG 0 38313.130 $GPGSA,A,3,,14,16,20,22,,25,29,30,31,32,,1.8,0.9,1.5*3A
MSG 0 38313.248 $GPGSV,3,3,11,30,52,206,49,31,72,016,45,32,47,270,47*41
MSG 0 38313.367 $PGRME,4.5,M,8.0,M,9.2,M*2C
MSG 0 38313.427 $PGRMB,0.0,200,,,,K,,N,N*31
MSG 0 38313.488 $PGRMM,WGS 84*06
MSG 0 38313.836 $GPRMC,143954,A,4302.8822,N,07038.3527,W,000.6,142.0,030712,016.1,W*72
POS 0 38394.000 366493.417 4767453.036
QUA 0 38394.000 7 9.100 0.900 9.000 1.000 0.000 0.000 0.000
RAW 0 38394.000 4 430288.22000 -703835.27000 -19.60000 143954.00000
MSG 0 38313.986 $GPGGA,143954,4302.8822,N,07038.3527,W,1,09,0.9,12.8,M,-32.4,M,,*47
MSG 0 38314.130 $GPGSA,A,3,,14,16,20,22,,25,29,30,31,32,,1.8,0.9,1.5*3A
MSG 0 38314.248 $GPGSV,3,1,11,11,00,247,34,14,39,121,44,16,23,206,43,20,29,299,49*73
MSG 0 38314.394 $PGRME,4.5,M,8.0,M,9.2,M*2C
MSG 0 38314.454 $PGRMB,0.0,200,,,,K,,N,N*31
MSG 0 38314.515 $PGRMM,WGS 84*06
MSG 0 38314.826 $GPRMC,143955,A,4302.8820,N,07038.3523,W,000.9,131.1,030712,016.1,W*7F
POS 0 38395.000 366493.953 4767452.656
QUA 0 38395.000 7 9.100 0.900 9.000 1.000 0.000 0.000 0.000
RAW 0 38395.000 4 430288.20000 -703835.23000 -19.20000 143955.00000
MSG 0 38314.976 $GPGGA,143955,4302.8820,N,07038.3523,W,1,09,0.9,13.2,M,-32.4,M,,*4B
MSG 0 38315.120 $GPGSA,A,3,,14,16,20,22,,25,29,30,31,32,,1.8,0.9,1.5*3A
MSG 0 38315.239 $GPGSV,3,2,11,22,02,172,42,23,08,308,37,25,30,047,46,29,23,082,43*7C
MSG 0 38315.384 $PGRME,4.5,M,8.0,M,9.2,M*2C
MSG 0 38315.445 $PGRMB,0.0,200,,,,K,,N,N*31
MSG 0 38315.505 $PGRMM,WGS 84*06
MSG 0 38315.827 $GPRMC,143956,A,4302.8819,N,07038.3526,W,000.5,192.8,030712,016.1,W*7F
POS 0 38396.000 366493.542 4767452.479
QUA 0 38396.000 7 9.100 0.900 9.000 1.000 0.000 0.000 0.000
RAW 0 38396.000 4 430288.19000 -703835.26000 -19.50000 143956.00000
MSG 0 38315.977 $GPGGA,143956,4302.8819,N,07038.3526,W,1,09,0.9,12.9,M,-32.4,M,,*4D
MSG 0 38316.120 $GPGSA,A,3,,14,16,20,22,,25,29,30,31,32,,1.8,0.9,1.5*3A
MSG 0 38316.239 $GPGSV,3,3,11,30,52,206,49,31,72,016,45,32,47,270,47*41
MSG 0 38316.358 $PGRME,4.5,M,8.0,M,9.2,M*2C
MSG 0 38316.418 $PGRMB,0.0,200,,,,K,,N,N*31
MSG 0 38316.478 $PGRMM,WGS 84*06
MSG 0 38316.826 $GPRMC,143957,A,4302.8819,N,07038.3525,W,000.4,160.2,030712,016.1,W*7B
POS 0 38397.000 366493.678 4767452.476
QUA 0 38397.000 7 9.100 0.900 9.000 1.000 0.000 0.000 0.000
RAW 0 38397.000 4 430288.19000 -703835.25000 -19.60000 143957.00000
MSG 0 38316.976 $GPGGA,143957,4302.8819,N,07038.3525,W,1,09,0.9,12.8,M,-32.4,M,,*4E
MSG 0 38317.119 $GPGSA,A,3,,14,16,20,22,,25,29,30,31,32,,1.8,0.9,1.5*3A
MSG 0 38317.238 $GPGSV,3,1,11,11,00,247,34,14,39,121,44,16,23,206,43,20,29,299,49*73
MSG 0 38317.384 $PGRME,4.5,M,8.0,M,9.2,M*2C
MSG 0 38317.444 $PGRMB,0.0,200,,,,K,,N,N*31
MSG 0 38317.504 $PGRMM,WGS 84*06
MSG 0 38317.827 $GPRMC,143958,A,4302.8815,N,07038.3520,W,001.1,136.2,030712,016.1,W*7A
POS 0 38398.000 366494.342 4767451.722
QUA 0 38398.000 7 9.100 0.900 9.000 1.000 0.000 0.000 0.000
RAW 0 38398.000 4 430288.15000 -703835.20000 -19.40000 143958.00000
MSG 0 38317.977 $GPGGA,143958,4302.8815,N,07038.3520,W,1,09,0.9,13.0,M,-32.4,M,,*41
MSG 0 38318.120 $GPGSA,A,3,,14,16,20,22,,25,29,30,31,32,,1.8,0.9,1.5*3A
MSG 0 38318.239 $GPGSV,3,2,11,22,02,172,42,23,08,308,37,25,30,047,46,29,23,082,44*7B
MSG 0 38318.385 $PGRME,4.5,M,8.0,M,9.2,M*2C
MSG 0 38318.445 $PGRMB,0.0,200,,,,K,,N,N*31
MSG 0 38318.505 $PGRMM,WGS 84*06
MSG 0 38318.837 $GPRMC,143959,A,4302.8815,N,07038.3519,W,000.5,126.1,030712,016.1,W*76
POS 0 38399.000 366494.478 4767451.720
QUA 0 38399.000 7 9.100 0.900 9.000 1.000 0.000 0.000 0.000
RAW 0 38399.000 4 430288.15000 -703835.19000 -19.40000 143959.00000
MSG 0 38318.987 $GPGGA,143959,4302.8815,N,07038.3519,W,1,09,0.9,13.0,M,-32.4,M,,*4A
MSG 0 38319.131 $GPGSA,A,3,,14,16,20,22,,25,29,30,31,32,,1.8,0.9,1.5*3A
MSG 0 38319.250 $GPGSV,3,3,11,30,52,206,49,31,72,016,46,32,47,270,47*42
MSG 0 38319.368 $PGRME,4.5,M,8.0,M,9.2,M*2C
MSG 0 38319.429 $PGRMB,0.0,200,,,,K,,N,N*31
MSG 0 38319.489 $PGRMM,WGS 84*06
MSG 0 38319.826 $GPRMC,144000,A,4302.8815,N,07038.3521,W,000.3,198.5,030712,016.1,W*78
POS 0 38400.000 366494.206 4767451.725
QUA 0 38400.000 7 9.100 0.900 9.000 1.000 0.000 0.000 0.000
RAW 0 38400.000 4 430288.15000 -703835.21000 -19.50000 144000.00000
MSG 0 38319.976 $GPGGA,144000,4302.8815,N,07038.3521,W,1,09,0.9,12.9,M,-32.4,M,,*4B
MSG 0 38320.120 $GPGSA,A,3,,14,16,20,22,,25,29,30,31,32,,1.8,0.9,1.5*3A
MSG 0 38320.238 $GPGSV,3,1,11,11,00,247,34,14,39,121,44,16,23,206,43,20,29,299,49*73
MSG 0 38320.384 $PGRME,4.5,M,8.0,M,9.2,M*2C
MSG 0 38320.445 $PGRMB,0.0,200,,,,K,,N,N*31
MSG 0 38320.505 $PGRMM,WGS 84*06
MSG 0 38320.826 $GPRMC,144001,A,4302.8813,N,07038.3518,W,000.7,141.2,030712,016.1,W*72
POS 0 38401.000 366494.606 4767451.347
QUA 0 38401.000 7 9.100 0.900 9.000 1.000 0.000 0.000 0.000
RAW 0 38401.000 4 430288.13000 -703835.18000 -19.50000 144001.00000
MSG 0 38320.976 $GPGGA,144001,4302.8813,N,07038.3518,W,1,09,0.9,12.9,M,-32.4,M,,*46
MSG 0 38321.119 $GPGSA,A,3,,14,16,20,22,,25,29,30,31,32,,1.8,0.9,1.5*3A
MSG 0 38321.238 $GPGSV,3,2,11,22,02,172,41,23,08,308,37,25,30,047,47,29,23,082,44*79
MSG 0 38321.384 $PGRME,4.5,M,8.0,M,9.2,M*2C
MSG 0 38321.444 $PGRMB,0.0,200,,,,K,,N,N*31
MSG 0 38321.504 $PGRMM,WGS 84*06
MSG 0 38321.825 $GPRMC,144002,A,4302.8812,N,07038.3515,W,000.8,124.1,030712,016.1,W*72
POS 0 38402.000 366495.010 4767451.154
QUA 0 38402.000 7 9.100 0.900 9.000 1.000 0.000 0.000 0.000
RAW 0 38402.000 4 430288.12000 -703835.15000 -19.30000 144002.00000
MSG 0 38321.975 $GPGGA,144002,4302.8812,N,07038.3515,W,1,09,0.9,13.1,M,-32.4,M,,*40
MSG 0 38322.119 $GPGSA,A,3,,14,16,20,22,,25,29,30,31,32,,1.8,0.9,1.5*3A
MSG 0 38322.237 $GPGSV,3,3,11,30,52,206,49,31,72,016,46,32,47,270,48*4D
MSG 0 38322.356 $PGRME,4.5,M,8.0,M,9.2,M*2C
MSG 0 38322.417 $PGRMB,0.0,200,,,,K,,N,N*31
MSG 0 38322.477 $PGRMM,WGS 84*06
MSG 0 38322.838 $GPRMC,144003,A,4302.8810,N,07038.3518,W,000.5,192.5,030712,016.1,W*78
POS 0 38403.000 366494.595 4767450.792
QUA 0 38403.000 7 9.100 0.900 9.000 1.000 0.000 0.000 0.000
RAW 0 38403.000 4 430288.10000 -703835.18000 -19.40000 144003.00000
MSG 0 38322.987 $GPGGA,144003,4302.8810,N,07038.3518,W,1,09,0.9,13.0,M,-32.4,M,,*4F
MSG 0 38323.131 $GPGSA,A,3,,14,16,20,22,,25,29,30,31,32,,1.8,0.9,1.5*3A
MSG 0 38323.250 $GPGSV,3,1,11,11,00,247,34,14,39,121,45,16,23,206,42,20,29,299,48*72
MSG 0 38323.396 $PGRME,4.5,M,8.0,M,9.2,M*2C
MSG 0 38323.456 $PGRMB,0.0,200,,,,K,,N,N*31
MSG 0 38323.516 $PGRMM,WGS 84*06
MSG 0 38323.838 $GPRMC,144004,A,4302.8809,N,07038.3517,W,000.4,167.9,030712,016.1,W*7F
POS 0 38404.000 366494.727 4767450.604
QUA 0 38404.000 7 9.100 0.900 9.000 1.000 0.000 0.000 0.000
RAW 0 38404.000 4 430288.09000 -703835.17000 -19.60000 144004.00000
MSG 0 38323.988 $GPGGA,144004,4302.8809,N,07038.3517,W,1,09,0.9,12.8,M,-32.4,M,,*46
MSG 0 38324.132 $GPGSA,A,3,,14,16,20,22,,25,29,30,31,32,,1.8,0.9,1.5*3A
MSG 0 38324.250 $GPGSV,3,2,11,22,02,172,40,23,08,308,37,25,30,047,48,29,23,082,44*77
MSG 0 38324.396 $PGRME,4.5,M,8.0,M,9.2,M*2C
MSG 0 38324.456 $PGRMB,0.0,200,,,,K,,N,N*31
MSG 0 38324.517 $PGRMM,WGS 84*06
MSG 0 38324.856 $GPRMC,144005,A,4302.8807,N,07038.3512,W,000.8,131.7,030712,016.1,W*74
POS 0 38405.000 366495.399 4767450.220
QUA 0 38405.000 7 9.100 0.900 9.000 1.000 0.000 0.000 0.000
RAW 0 38405.000 4 430288.07000 -703835.12000 -19.40000 144005.00000
MSG 0 38325.006 $GPGGA,144005,4302.8807,N,07038.3512,W,1,09,0.9,13.0,M,-32.4,M,,*45
MSG 0 38325.150 $GPGSA,A,3,,14,16,20,22,,25,29,30,31,32,,1.8,0.9,1.5*3A
MSG 0 38325.269 $GPGSV,3,3,11,30,52,206,49,31,72,016,45,32,47,270,48*4E
MSG 0 38325.387 $PGRME,4.5,M,8.0,M,9.2,M*2C
MSG 0 38325.448 $PGRMB,0.0,200,,,,K,,N,N*31
MSG 0 38325.508 $PGRMM,WGS 84*06
MSG 0 38325.836 $GPRMC,144006,A,4302.8806,N,07038.3512,W,000.6,135.8,030712,016.1,W*73
POS 0 38406.000 366495.395 4767450.035
QUA 0 38406.000 7 9.100 0.900 9.000 1.000 0.000 0.000 0.000
RAW 0 38406.000 4 430288.06000 -703835.12000 -19.40000 144006.00000
MSG 0 38325.986 $GPGGA,144006,4302.8806,N,07038.3512,W,1,09,0.9,13.0,M,-32.4,M,,*47
MSG 0 38326.130 $GPGSA,A,3,,14,16,20,22,,25,29,30,31,32,,1.8,0.9,1.5*3A
MSG 0 38326.249 $GPGSV,3,1,11,11,00,247,34,14,39,121,46,16,23,206,41,20,29,299,48*72
MSG 0 38326.394 $PGRME,4.5,M,8.0,M,9.2,M*2C
MSG 0 38326.455 $PGRMB,0.0,200,,,,K,,N,N*31
MSG 0 38326.515 $PGRMM,WGS 84*06
MSG 0 38326.826 $GPRMC,144007,A,4302.8805,N,07038.3513,W,000.5,172.0,030712,016.1,W*78
POS 0 38407.000 366495.256 4767449.853
QUA 0 38407.000 7 9.100 0.900 9.000 1.000 0.000 0.000 0.000
RAW 0 38407.000 4 430288.05000 -703835.13000 -19.60000 144007.00000
MSG 0 38326.976 $GPGGA,144007,4302.8805,N,07038.3513,W,1,09,0.9,12.8,M,-32.4,M,,*4D
MSG 0 38327.120 $GPGSA,A,3,,14,16,20,22,,25,29,30,31,32,,1.8,0.9,1.5*3A
MSG 0 38327.239 $GPGSV,3,2,11,22,02,172,39,23,08,308,37,25,30,047,48,29,23,082,44*79
MSG 0 38327.384 $PGRME,4.5,M,8.0,M,9.2,M*2C
MSG 0 38327.445 $PGRMB,0.0,200,,,,K,,N,N*31
MSG 0 38327.505 $PGRMM,WGS 84*06
MSG 0 38327.825 $GPRMC,144008,A,4302.8804,N,07038.3510,W,000.5,135.4,030712,016.1,W*72
POS 0 38408.000 366495.660 4767449.660
QUA 0 38408.000 7 9.100 0.900 9.000 1.000 0.000 0.000 0.000
RAW 0 38408.000 4 430288.04000 -703835.10000 -19.50000 144008.00000
MSG 0 38327.975 $GPGGA,144008,4302.8804,N,07038.3510,W,1,09,0.9,12.9,M,-32.4,M,,*41
MSG 0 38328.119 $GPGSA,A,3,,14,16,20,22,,25,29,30,31,32,,1.8,0.9,1.5*3A
MSG 0 38328.237 $GPGSV,3,3,11,30,52,206,50,31,72,016,46,32,47,270,48*45
MSG 0 38328.356 $PGRME,4.5,M,8.0,M,9.2,M*2C
MSG 0 38328.417 $PGRMB,0.0,200,,,,K,,N,N*31
MSG 0 38328.477 $PGRMM,WGS 84*06
MSG 0 38328.837 $GPRMC,144009,A,4302.8802,N,07038.3507,W,000.8,127.3,030712,016.1,W*7A
POS 0 38409.000 366496.060 4767449.282
QUA 0 38409.000 7 9.100 0.900 9.000 1.000 0.000 0.000 0.000
RAW 0 38409.000 4 430288.02000 -703835.07000 -19.40000 144009.00000
MSG 0 38328.987 $GPGGA,144009,4302.8802,N,07038.3507,W,1,09,0.9,13.0,M,-32.4,M,,*48
MSG 0 38329.130 $GPGSA,A,3,,14,16,20,22,,25,29,30,31,32,,1.8,0.9,1.5*3A
MSG 0 38329.249 $GPGSV,3,1,11,11,00,247,34,14,39,121,46,16,23,206,42,20,29,299,48*71
MSG 0 38329.395 $PGRME,4.5,M,8.0,M,9.2,M*2C
MSG 0 38329.455 $PGRMB,0.0,200,,,,K,,N,N*31
MSG 0 38329.516 $PGRMM,WGS 84*06
