FTP NEW 2
VER 11.0.6.21
INF "" "" "" "" 0.000000 0.000000 0.000000
ELL WGS-84 6378137.000 298.257223563
PRO TME -69.000000 0.999600 0.000000 0.000000 0.000000 500000.0000 0.0000
DTM 0.00 0.00 0.00 0.00000 0.00000 0.00000 0.00000
GEO ??? 0.000
HVU 1.0000000000 1.0000000000
TND 11:07:21 07/03/2012 240
DEV 0 32869 "Garmin GPS" 49156 C:\HYPACK 2011\devices\GPS.dll 11.0.10.6
OFF 0 0.000000 0.000000 0.000000 0.000000 0.000000 0.000000 0.000000
DDT 0 SYN 
DEV 1 0 "Disabled" 0 Odom CV3 MK3 Disabled Unknown
USR "NOAA Joint Hydrographic Center" "HYPACK Inc." 0x8 15681181
EOH 0001FFFFFFFFFFFFFFFFFFFFFFFFFFFFFFFFFFFFFFFFFFFFFFFFFFFFFFFFFFFFFFFFFFFFFFFFFFFFFFFFFFFFFFFFFFFFFFFFFFFFFFFFFFFFFFFFFFFFFFFFFFFFFFFFFFFFFFFFFFFFFFFFFFFFFFFFFFFFFFFFFFFFFFFFFFFFFFFFFFFF003021300906052B0E03021A05000414548C759F27F8F0F40BDDDAFF719D1CF10DD5EA8F
MSG 0 40038.875 $GPRMC,150839,A,4303.3373,N,07037.4135,W,000.0,111.9,030712,016.1,W*79
POS 0 40119.000 367784.635 4768270.583
QUA 0 40119.000 7 9.000 1.000 9.000 1.000 0.000 0.000 0.000
RAW 0 40119.000 4 430333.73000 -703741.35000 -25.30000 150839.00000
MSG 0 40039.025 $GPGGA,150839,4303.3373,N,07037.4135,W,1,09,1.0,7.1,M,-32.4,M,,*70
MSG 0 40039.166 $GPGSA,A,3,06,,14,16,20,,25,29,30,31,32,,1.7,1.0,1.4*3A
MSG 0 40039.285 $GPGSV,3,1,11,06,02,175,43,11,00,242,34,14,27,130,48,16,37,211,44*77
MSG 0 40039.431 $PGRME,5.0,M,7.8,M,9.3,M*2E
MSG 0 40039.491 $PGRMB,0.0,200,,,,K,,N,N*31
MSG 0 40039.552 $PGRMM,WGS 84*06
MSG 0 40039.882 $GPRMC,150840,A,4303.3372,N,07037.4134,W,000.5,127.5,030712,016.1,W*7B
POS 0 40120.000 367784.767 4768270.395
QUA 0 40120.000 7 9.000 1.000 9.000 1.000 0.000 0.000 0.000
RAW 0 40120.000 4 430333.72000 -703741.34000 -25.40000 150840.00000
MSG 0 40040.032 $GPGGA,150840,4303.3372,N,07037.4134,W,1,09,1.0,7.0,M,-32.4,M,,*7F
MSG 0 40040.174 $GPGSA,A,3,06,,14,16,20,,25,29,30,31,32,,1.7,1.0,1.4*3A
MSG 0 40040.293 $GPGSV,3,2,11,20,31,286,47,23,19,311,37,25,19,046,43,29,25,069,48*7C
MSG 0 40040.438 $PGRME,5.0,M,7.8,M,9.3,M*2E
MSG 0 40040.499 $PGRMB,0.0,200,,,,K,,N,N*31
MSG 0 40040.559 $PGRMM,WGS 84*06
FIX 99 40041.130 70 367784.767 4768270.395
MSG 0 40040.881 $GPRMC,150841,A,4303.3370,N,07037.4131,W,000.5,133.1,030712,016.1,W*7C
POS 0 40121.000 367785.167 4768270.017
QUA 0 40121.000 7 9.000 1.000 9.000 1.000 0.000 0.000 0.000
RAW 0 40121.000 4 430333.70000 -703741.31000 -25.50000 150841.00000
MSG 0 40041.031 $GPGGA,150841,4303.3370,N,07037.4131,W,1,09,1.0,6.9,M,-32.4,M,,*71
MSG 0 40041.172 $GPGSA,A,3,06,,14,16,20,,25,29,30,31,32,,1.7,1.0,1.4*3A
MSG 0 40041.291 $GPGSV,3,3,11,30,66,211,46,31,64,044,49,32,43,252,48*48
MSG 0 40041.409 $PGRME,5.0,M,7.7,M,9.2,M*20
MSG 0 40041.470 $PGRMB,0.0,200,,,,K,,N,N*31
MSG 0 40041.530 $PGRMM,WGS 84*06
MSG 0 40041.882 $GPRMC,150842,A,4303.3371,N,07037.4131,W,000.2,133.1,030712,016.1,W*79
POS 0 40122.000 367785.170 4768270.202
QUA 0 40122.000 7 9.000 1.000 9.000 1.000 0.000 0.000 0.000
RAW 0 40122.000 4 430333.71000 -703741.31000 -25.30000 150842.00000
MSG 0 40042.032 $GPGGA,150842,4303.3371,N,07037.4131,W,1,09,1.0,7.1,M,-32.4,M,,*7A
MSG 0 40042.173 $GPGSA,A,3,06,,14,16,20,,25,29,30,31,32,,1.7,1.0,1.5*3B
MSG 0 40042.292 $GPGSV,3,1,11,06,02,175,43,11,00,242,34,14,27,130,49,16,37,211,44*76
MSG 0 40042.438 $PGRME,5.0,M,7.7,M,9.2,M*20
MSG 0 40042.498 $PGRMB,0.0,200,,,,K,,N,N*31
MSG 0 40042.558 $PGRMM,WGS 84*06
MSG 0 40042.882 $GPRMC,150843,A,4303.3370,N,07037.4129,W,000.4,116.0,030712,016.1,W*70
POS 0 40123.000 367785.438 4768270.012
QUA 0 40123.000 7 9.000 1.000 9.000 1.000 0.000 0.000 0.000
RAW 0 40123.000 4 430333.70000 -703741.29000 -25.20000 150843.00000
MSG 0 40043.032 $GPGGA,150843,4303.3370,N,07037.4129,W,1,09,1.0,7.2,M,-32.4,M,,*70
MSG 0 40043.173 $GPGSA,A,3,06,,14,16,20,,25,29,30,31,32,,1.7,1.0,1.5*3B
MSG 0 40043.292 $GPGSV,3,2,11,20,31,286,47,23,19,311,37,25,19,046,41,29,25,069,48*7E
MSG 0 40043.438 $PGRME,5.0,M,7.7,M,9.2,M*20
MSG 0 40043.498 $PGRMB,0.0,200,,,,K,,N,N*31
MSG 0 40043.559 $PGRMM,WGS 84*06
MSG 0 40043.882 $GPRMC,150844,A,4303.3370,N,07037.4128,W,000.3,103.0,030712,016.1,W*75
POS 0 40124.000 367785.574 4768270.009
QUA 0 40124.000 7 9.000 1.000 9.000 1.000 0.000 0.000 0.000
RAW 0 40124.000 4 430333.70000 -703741.28000 -25.40000 150844.00000
MSG 0 40044.032 $GPGGA,150844,4303.3370,N,07037.4128,W,1,09,1.0,7.0,M,-32.4,M,,*74
MSG 0 40044.174 $GPGSA,A,3,06,,14,16,20,,25,29,30,31,32,,1.7,1.0,1.4*3A
MSG 0 40044.292 $GPGSV,3,3,11,30,66,211,46,31,64,044,49,32,43,252,48*48
MSG 0 40044.411 $PGRME,5.0,M,7.7,M,9.2,M*20
MSG 0 40044.471 $PGRMB,0.0,200,,,,K,,N,N*31
MSG 0 40044.532 $PGRMM,WGS 84*06
MSG 0 40044.881 $GPRMC,150845,A,4303.3369,N,07037.4127,W,000.4,120.7,030712,016.1,W*72
POS 0 40125.000 367785.706 4768269.822
QUA 0 40125.000 7 9.000 1.000 9.000 1.000 0.000 0.000 0.000
RAW 0 40125.000 4 430333.69000 -703741.27000 -25.50000 150845.00000
MSG 0 40045.030 $GPGGA,150845,4303.3369,N,07037.4127,W,1,09,1.0,6.9,M,-32.4,M,,*7A
MSG 0 40045.172 $GPGSA,A,3,06,,14,16,20,,25,29,30,31,32,,1.7,1.0,1.4*3A
MSG 0 40045.291 $GPGSV,3,1,11,06,02,175,42,11,00,242,34,14,27,130,49,16,37,211,44*77
MSG 0 40045.436 $PGRME,5.0,M,7.7,M,9.2,M*20
MSG 0 40045.497 $PGRMB,0.0,200,,,,K,,N,N*31
MSG 0 40045.557 $PGRMM,WGS 84*06
MSG 0 40045.882 $GPRMC,150846,A,4303.3369,N,07037.4127,W,000.2,121.8,030712,016.1,W*79
POS 0 40126.000 367785.706 4768269.822
QUA 0 40126.000 7 9.000 1.000 9.000 1.000 0.000 0.000 0.000
RAW 0 40126.000 4 430333.69000 -703741.27000 -25.60000 150846.00000
MSG 0 40046.032 $GPGGA,150846,4303.3369,N,07037.4127,W,1,09,1.0,6.8,M,-32.4,M,,*78
MSG 0 40046.174 $GPGSA,A,3,06,,14,16,20,,25,29,30,31,32,,1.7,1.0,1.4*3A
MSG 0 40046.292 $GPGSV,3,2,11,20,31,286,47,23,19,311,37,25,19,046,40,29,25,069,48*7F
MSG 0 40046.438 $PGRME,5.0,M,7.7,M,9.2,M*20
MSG 0 40046.499 $PGRMB,0.0,200,,,,K,,N,N*31
MSG 0 40046.559 $PGRMM,WGS 84*06
MSG 0 40046.882 $GPRMC,150847,A,4303.3369,N,07037.4126,W,000.2,121.8,030712,016.1,W*79
POS 0 40127.000 367785.842 4768269.819
QUA 0 40127.000 7 9.000 1.000 9.000 1.000 0.000 0.000 0.000
RAW 0 40127.000 4 430333.69000 -703741.26000 -25.10000 150847.00000
MSG 0 40047.032 $GPGGA,150847,4303.3369,N,07037.4126,W,1,09,1.0,7.3,M,-32.4,M,,*72
MSG 0 40047.174 $GPGSA,A,3,06,,14,16,20,,25,29,30,31,32,,1.7,1.0,1.4*3A
MSG 0 40047.292 $GPGSV,3,3,11,30,66,211,46,31,64,044,49,32,43,252,49*49
MSG 0 40047.411 $PGRME,5.0,M,7.7,M,9.2,M*20
MSG 0 40047.471 $PGRMB,0.0,200,,,,K,,N,N*31
MSG 0 40047.532 $PGRMM,WGS 84*06
MSG 0 40047.882 $GPRMC,150848,A,4303.3368,N,07037.4125,W,000.3,122.0,030712,016.1,W*7E
POS 0 40128.000 367785.974 4768269.631
QUA 0 40128.000 7 9.000 1.000 9.000 1.000 0.000 0.000 0.000
RAW 0 40128.000 4 430333.68000 -703741.25000 -25.20000 150848.00000
MSG 0 40048.032 $GPGGA,150848,4303.3368,N,07037.4125,W,1,09,1.0,7.2,M,-32.4,M,,*7E
MSG 0 40048.174 $GPGSA,A,3,06,,14,16,20,,25,29,30,31,32,,1.7,1.0,1.4*3A
MSG 0 40048.292 $GPGSV,3,1,11,06,02,175,43,11,00,242,34,14,27,130,49,16,37,211,45*77
MSG 0 40048.438 $PGRME,5.0,M,7.7,M,9.2,M*20
MSG 0 40048.499 $PGRMB,0.0,200,,,,K,,N,N*31
MSG 0 40048.559 $PGRMM,WGS 84*06
MSG 0 40048.882 $GPRMC,150849,A,4303.3368,N,07037.4126,W,000.1,122.0,030712,016.1,W*7E
POS 0 40129.000 367785.838 4768269.634
QUA 0 40129.000 7 9.000 1.000 9.000 1.000 0.000 0.000 0.000
RAW 0 40129.000 4 430333.68000 -703741.26000 -25.50000 150849.00000
MSG 0 40049.032 $GPGGA,150849,4303.3368,N,07037.4126,W,1,09,1.0,6.9,M,-32.4,M,,*76
MSG 0 40049.174 $GPGSA,A,3,06,,14,16,20,,25,29,30,31,32,,1.7,1.0,1.4*3A
MSG 0 40049.292 $GPGSV,3,2,11,20,31,286,47,23,19,311,37,25,19,046,40,29,25,069,49*7E
MSG 0 40049.438 $PGRME,5.0,M,7.7,M,9.2,M*20
MSG 0 40049.498 $PGRMB,0.0,200,,,,K,,N,N*31
MSG 0 40049.559 $PGRMM,WGS 84*06
MSG 0 40049.880 $GPRMC,150850,A,4303.3368,N,07037.4123,W,000.4,120.5,030712,016.1,W*71
POS 0 40130.000 367786.246 4768269.626
QUA 0 40130.000 7 9.000 1.000 9.000 1.000 0.000 0.000 0.000
RAW 0 40130.000 4 430333.68000 -703741.23000 -25.70000 150850.00000
MSG 0 40050.030 $GPGGA,150850,4303.3368,N,07037.4123,W,1,09,1.0,6.7,M,-32.4,M,,*75
MSG 0 40050.172 $GPGSA,A,3,06,,14,16,20,,25,29,30,31,32,,1.7,1.0,1.4*3A
MSG 0 40050.290 $GPGSV,3,3,11,30,66,211,45,31,64,044,49,32,43,252,49*4A
MSG 0 40050.409 $PGRME,5.0,M,7.7,M,9.2,M*20
MSG 0 40050.469 $PGRMB,0.0,200,,,,K,,N,N*31
MSG 0 40050.530 $PGRMM,WGS 84*06
MSG 0 40050.881 $GPRMC,150851,A,4303.3368,N,07037.4123,W,000.2,133.1,030712,016.1,W*70
POS 0 40131.000 367786.246 4768269.626
QUA 0 40131.000 7 9.000 1.000 9.000 1.000 0.000 0.000 0.000
RAW 0 40131.000 4 430333.68000 -703741.23000 -25.50000 150851.00000
MSG 0 40051.031 $GPGGA,150851,4303.3368,N,07037.4123,W,1,09,1.0,6.9,M,-32.4,M,,*7A
MSG 0 40051.173 $GPGSA,A,3,06,,14,16,20,,25,29,30,31,32,,1.7,1.0,1.4*3A
MSG 0 40051.291 $GPGSV,3,1,11,06,02,175,44,11,00,242,34,14,27,130,48,16,37,211,45*71
MSG 0 40051.437 $PGRME,5.0,M,7.7,M,9.2,M*20
MSG 0 40051.498 $PGRMB,0.0,200,,,,K,,N,N*31
MSG 0 40051.558 $PGRMM,WGS 84*06
MSG 0 40051.882 $GPRMC,150852,A,4303.3367,N,07037.4121,W,000.4,112.6,030712,016.1,W*7C
POS 0 40132.000 367786.513 4768269.436
QUA 0 40132.000 7 9.000 1.000 9.000 1.000 0.000 0.000 0.000
RAW 0 40132.000 4 430333.67000 -703741.21000 -25.40000 150852.00000
MSG 0 40052.032 $GPGGA,150852,4303.3367,N,07037.4121,W,1,09,1.0,7.0,M,-32.4,M,,*7C
MSG 0 40052.173 $GPGSA,A,3,06,,14,16,20,,25,29,30,31,32,,1.7,1.0,1.4*3A
MSG 0 40052.292 $GPGSV,3,2,11,20,31,286,47,23,19,311,37,25,19,046,39,29,25,069,48*71
MSG 0 40052.438 $PGRME,5.0,M,7.7,M,9.2,M*20
MSG 0 40052.498 $PGRMB,0.0,200,,,,K,,N,N*31
MSG 0 40052.558 $PGRMM,WGS 84*06
MSG 0 40052.893 $GPRMC,150853,A,4303.3367,N,07037.4120,W,000.4,120.9,030712,016.1,W*72
POS 0 40133.000 367786.649 4768269.433
QUA 0 40133.000 7 9.000 1.000 9.000 1.000 0.000 0.000 0.000
RAW 0 40133.000 4 430333.67000 -703741.20000 -25.50000 150853.00000
MSG 0 40053.043 $GPGGA,150853,4303.3367,N,07037.4120,W,1,09,1.0,6.9,M,-32.4,M,,*74
MSG 0 40053.184 $GPGSA,A,3,06,,14,16,20,,25,29,30,31,32,,1.7,1.0,1.4*3A
MSG 0 40053.303 $GPGSV,3,3,11,30,66,211,45,31,64,044,49,32,43,252,49*4A
MSG 0 40053.421 $PGRME,5.0,M,7.7,M,9.2,M*20
MSG 0 40053.482 $PGRMB,0.0,200,,,,K,,N,N*31
MSG 0 40053.542 $PGRMM,WGS 84*06
MSG 0 40053.882 $GPRMC,150854,A,4303.3366,N,07037.4120,W,000.3,142.4,030712,016.1,W*7A
POS 0 40134.000 367786.646 4768269.248
QUA 0 40134.000 7 9.000 1.000 9.000 1.000 0.000 0.000 0.000
RAW 0 40134.000 4 430333.66000 -703741.20000 -25.20000 150854.00000
MSG 0 40054.032 $GPGGA,150854,4303.3366,N,07037.4120,W,1,09,1.0,7.2,M,-32.4,M,,*78
MSG 0 40054.173 $GPGSA,A,3,06,,14,16,20,,25,29,30,31,32,,1.7,1.0,1.4*3A
MSG 0 40054.292 $GPGSV,3,1,11,06,02,175,43,11,00,242,34,14,27,130,49,16,37,211,45*77
MSG 0 40054.438 $PGRME,5.0,M,7.7,M,9.2,M*20
MSG 0 40054.498 $PGRMB,0.0,200,,,,K,,N,N*31
MSG 0 40054.558 $PGRMM,WGS 84*06
MSG 0 40054.881 $GPRMC,150855,A,4303.3367,N,07037.4121,W,000.2,142.4,030712,016.1,W*7A
POS 0 40135.000 367786.513 4768269.436
QUA 0 40135.000 7 9.000 1.000 9.000 1.000 0.000 0.000 0.000
RAW 0 40135.000 4 430333.67000 -703741.21000 -25.30000 150855.00000
MSG 0 40055.031 $GPGGA,150855,4303.3367,N,07037.4121,W,1,09,1.0,7.1,M,-32.4,M,,*7A
MSG 0 40055.173 $GPGSA,A,3,06,,14,16,20,,25,29,30,31,32,,1.7,1.0,1.4*3A
MSG 0 40055.292 $GPGSV,3,2,11,20,31,285,47,23,19,311,37,25,19,046,39,29,25,069,48*72
MSG 0 40055.437 $PGRME,5.0,M,7.7,M,9.2,M*20
MSG 0 40055.498 $PGRMB,0.0,200,,,,K,,N,N*31
MSG 0 40055.558 $PGRMM,WGS 84*06
MSG 0 40055.895 $GPRMC,150856,A,4303.3365,N,07037.4118,W,000.4,134.1,030712,016.1,W*73
POS 0 40136.000 367786.913 4768269.058
QUA 0 40136.000 7 9.000 1.000 9.000 1.000 0.000 0.000 0.000
RAW 0 40136.000 4 430333.65000 -703741.18000 -25.40000 150856.00000
MSG 0 40056.044 $GPGGA,150856,4303.3365,N,07037.4118,W,1,09,1.0,7.0,M,-32.4,M,,*70
MSG 0 40056.186 $GPGSA,A,3,06,,14,16,20,,25,29,30,31,32,,1.7,1.0,1.4*3A
MSG 0 40056.305 $GPGSV,3,3,11,30,66,211,45,31,64,044,48,32,43,252,49*4B
MSG 0 40056.423 $PGRME,5.0,M,7.7,M,9.2,M*20
MSG 0 40056.484 $PGRMB,0.0,200,,,,K,,N,N*31
MSG 0 40056.544 $PGRMM,WGS 84*06
MSG 0 40056.880 $GPRMC,150857,A,4303.3365,N,07037.4118,W,000.4,150.3,030712,016.1,W*72
POS 0 40137.000 367786.913 4768269.058
QUA 0 40137.000 7 9.000 1.000 9.000 1.000 0.000 0.000 0.000
RAW 0 40137.000 4 430333.65000 -703741.18000 -25.60000 150857.00000
MSG 0 40057.030 $GPGGA,150857,4303.3365,N,07037.4118,W,1,09,1.0,6.8,M,-32.4,M,,*78
MSG 0 40057.171 $GPGSA,A,3,06,,14,16,20,,25,29,30,31,32,,1.7,1.0,1.4*3A
MSG 0 40057.290 $GPGSV,3,1,11,06,02,175,44,11,00,242,34,14,27,130,48,16,37,211,45*71
MSG 0 40057.436 $PGRME,5.0,M,7.7,M,9.2,M*20
MSG 0 40057.496 $PGRMB,0.0,200,,,,K,,N,N*31
MSG 0 40057.556 $PGRMM,WGS 84*06
MSG 0 40057.874 $GPRMC,150858,A,4303.3366,N,07037.4119,W,000.0,150.3,030712,016.1,W*7B
POS 0 40138.000 367786.781 4768269.245
QUA 0 40138.000 7 9.000 1.000 9.000 1.000 0.000 0.000 0.000
RAW 0 40138.000 4 430333.66000 -703741.19000 -25.50000 150858.00000
MSG 0 40058.024 $GPGGA,150858,4303.3366,N,07037.4119,W,1,09,1.0,6.9,M,-32.4,M,,*74
MSG 0 40058.166 $GPGSA,A,3,06,,14,16,20,,25,29,30,31,32,,1.7,1.0,1.4*3A
MSG 0 40058.284 $GPGSV,3,2,11,20,31,285,47,23,19,311,37,25,19,046,39,29,25,069,49*73
MSG 0 40058.430 $PGRME,5.0,M,7.7,M,9.2,M*20
MSG 0 40058.491 $PGRMB,0.0,200,,,,K,,N,N*31
MSG 0 40058.551 $PGRMM,WGS 84*06
MSG 0 40058.880 $GPRMC,150859,A,4303.3365,N,07037.4118,W,000.3,121.9,030712,016.1,W*77
POS 0 40139.000 367786.913 4768269.058
QUA 0 40139.000 7 9.000 1.000 9.000 1.000 0.000 0.000 0.000
RAW 0 40139.000 4 430333.65000 -703741.18000 -25.50000 150859.00000
MSG 0 40059.030 $GPGGA,150859,4303.3365,N,07037.4118,W,1,09,1.0,6.9,M,-32.4,M,,*77
MSG 0 40059.171 $GPGSA,A,3,06,,14,16,20,,25,29,30,31,32,,1.7,1.0,1.4*3A
MSG 0 40059.290 $GPGSV,3,3,11,30,66,211,45,31,64,044,49,32,43,252,49*4A
MSG 0 40059.409 $PGRME,5.0,M,7.7,M,9.2,M*20
MSG 0 40059.469 $PGRMB,0.0,200,,,,K,,N,N*31
MSG 0 40059.529 $PGRMM,WGS 84*06
MSG 0 40059.894 $GPRMC,150900,A,4303.3365,N,07037.4115,W,000.4,116.8,030712,016.1,W*75
POS 0 40140.000 367787.321 4768269.050
QUA 0 40140.000 7 9.000 1.000 9.000 1.000 0.000 0.000 0.000
RAW 0 40140.000 4 430333.65000 -703741.15000 -25.70000 150900.00000
MSG 0 40060.044 $GPGGA,150900,4303.3365,N,07037.4115,W,1,09,1.0,6.7,M,-32.4,M,,*79
MSG 0 40060.186 $GPGSA,A,3,06,,14,16,20,,25,29,30,31,32,,1.7,1.0,1.4*3A
MSG 0 40060.305 $GPGSV,3,1,11,06,02,175,44,11,00,242,34,14,27,130,48,16,37,211,46*72
MSG 0 40060.450 $PGRME,5.0,M,7.7,M,9.2,M*20
MSG 0 40060.511 $PGRMB,0.0,200,,,,K,,N,N*31
MSG 0 40060.571 $PGRMM,WGS 84*06
MSG 0 40060.882 $GPRMC,150901,A,4303.3365,N,07037.4115,W,000.3,121.2,030712,016.1,W*7D
POS 0 40141.000 367787.321 4768269.050
QUA 0 40141.000 7 9.000 1.000 9.000 1.000 0.000 0.000 0.000
RAW 0 40141.000 4 430333.65000 -703741.15000 -25.40000 150901.00000
MSG 0 40061.032 $GPGGA,150901,4303.3365,N,07037.4115,W,1,09,1.0,7.0,M,-32.4,M,,*7E
MSG 0 40061.173 $GPGSA,A,3,06,,14,16,20,,25,29,30,31,32,,1.7,1.0,1.4*3A
MSG 0 40061.292 $GPGSV,3,2,11,20,31,285,47,23,19,311,37,25,19,046,39,29,25,069,48*72
MSG 0 40061.438 $PGRME,5.0,M,7.7,M,9.2,M*20
MSG 0 40061.498 $PGRMB,0.0,200,,,,K,,N,N*31
MSG 0 40061.558 $PGRMM,WGS 84*06
MSG 0 40061.874 $GPRMC,150902,A,4303.3365,N,07037.4116,W,000.0,121.2,030712,016.1,W*7E
POS 0 40142.000 367787.185 4768269.052
QUA 0 40142.000 7 9.000 1.000 9.000 1.000 0.000 0.000 0.000
RAW 0 40142.000 4 430333.65000 -703741.16000 -25.50000 150902.00000
MSG 0 40062.024 $GPGGA,150902,4303.3365,N,07037.4116,W,1,09,1.0,6.9,M,-32.4,M,,*76
MSG 0 40062.166 $GPGSA,A,3,06,,14,16,20,,25,29,30,31,32,,1.7,1.0,1.4*3A
MSG 0 40062.284 $GPGSV,3,3,11,30,66,211,46,31,64,044,49,32,43,252,49*49
MSG 0 40062.403 $PGRME,5.0,M,7.7,M,9.2,M*20
MSG 0 40062.463 $PGRMB,0.0,200,,,,K,,N,N*31
MSG 0 40062.524 $PGRMM,WGS 84*06
MSG 0 40062.880 $GPRMC,150903,A,4303.3364,N,07037.4115,W,000.6,140.7,030712,016.1,W*79
POS 0 40143.000 367787.317 4768268.865
QUA 0 40143.000 7 9.000 1.000 9.000 1.000 0.000 0.000 0.000
RAW 0 40143.000 4 430333.64000 -703741.15000 -25.60000 150903.00000
MSG 0 40063.030 $GPGGA,150903,4303.3364,N,07037.4115,W,1,09,1.0,6.8,M,-32.4,M,,*74
MSG 0 40063.171 $GPGSA,A,3,06,,14,16,20,,25,29,30,31,32,,1.7,1.0,1.4*3A
MSG 0 40063.290 $GPGSV,3,1,11,06,02,175,44,11,00,242,31,14,27,130,49,16,37,211,46*76
MSG 0 40063.436 $PGRME,5.0,M,7.7,M,9.2,M*20
MSG 0 40063.496 $PGRMB,0.0,200,,,,K,,N,N*31
MSG 0 40063.556 $PGRMM,WGS 84*06
MSG 0 40063.881 $GPRMC,150904,A,4303.3363,N,07037.4112,W,000.4,133.4,030712,016.1,W*7B
POS 0 40144.000 367787.721 4768268.672
QUA 0 40144.000 7 9.000 1.000 9.000 1.000 0.000 0.000 0.000
RAW 0 40144.000 4 430333.63000 -703741.12000 -25.80000 150904.00000
MSG 0 40064.031 $GPGGA,150904,4303.3363,N,07037.4112,W,1,09,1.0,6.6,M,-32.4,M,,*7D
MSG 0 40064.173 $GPGSA,A,3,06,,14,16,20,,25,29,30,31,32,,1.7,1.0,1.4*3A
MSG 0 40064.291 $GPGSV,3,2,11,20,31,285,47,23,19,311,37,25,19,046,40,29,25,069,49*7D
MSG 0 40064.437 $PGRME,5.0,M,7.7,M,9.2,M*20
MSG 0 40064.498 $PGRMB,0.0,200,,,,K,,N,N*31
MSG 0 40064.558 $PGRMM,WGS 84*06
MSG 0 40064.874 $GPRMC,150905,A,4303.3363,N,07037.4114,W,000.0,133.4,030712,016.1,W*78
POS 0 40145.000 367787.449 4768268.677
QUA 0 40145.000 7 9.000 1.000 9.000 1.000 0.000 0.000 0.000
RAW 0 40145.000 4 430333.63000 -703741.14000 -25.50000 150905.00000
MSG 0 40065.024 $GPGGA,150905,4303.3363,N,07037.4114,W,1,09,1.0,6.9,M,-32.4,M,,*75
MSG 0 40065.165 $GPGSA,A,3,06,,14,16,20,,25,29,30,31,32,,1.7,1.0,1.4*3A
MSG 0 40065.284 $GPGSV,3,3,11,30,66,211,46,31,64,044,49,32,43,252,49*49
MSG 0 40065.403 $PGRME,5.0,M,7.7,M,9.2,M*20
MSG 0 40065.463 $PGRMB,0.0,200,,,,K,,N,N*31
MSG 0 40065.524 $PGRMM,WGS 84*06
MSG 0 40065.881 $GPRMC,150906,A,4303.3363,N,07037.4112,W,000.3,107.1,030712,016.1,W*7C
POS 0 40146.000 367787.721 4768268.672
QUA 0 40146.000 7 9.000 1.000 9.000 1.000 0.000 0.000 0.000
RAW 0 40146.000 4 430333.63000 -703741.12000 -25.80000 150906.00000
MSG 0 40066.031 $GPGGA,150906,4303.3363,N,07037.4112,W,1,09,1.0,6.6,M,-32.4,M,,*7F
MSG 0 40066.172 $GPGSA,A,3,06,,14,16,20,,25,29,30,31,32,,1.7,1.0,1.4*3A
MSG 0 40066.291 $GPGSV,3,1,11,06,02,175,44,11,00,242,30,14,27,130,48,16,37,211,45*75
MSG 0 40066.437 $PGRME,5.0,M,7.7,M,9.2,M*20
MSG 0 40066.497 $PGRMB,0.0,200,,,,K,,N,N*31
MSG 0 40066.558 $PGRMM,WGS 84*06
MSG 0 40066.881 $GPRMC,150907,A,4303.3361,N,07037.4110,W,000.6,142.3,030712,016.1,W*7B
POS 0 40147.000 367787.985 4768268.296
QUA 0 40147.000 7 9.000 1.000 9.000 1.000 0.000 0.000 0.000
RAW 0 40147.000 4 430333.61000 -703741.10000 -25.70000 150907.00000
MSG 0 40067.031 $GPGGA,150907,4303.3361,N,07037.4110,W,1,09,1.0,6.7,M,-32.4,M,,*7F
MSG 0 40067.172 $GPGSA,A,3,06,,14,16,20,,25,29,30,31,32,,1.7,1.0,1.4*3A
MSG 0 40067.291 $GPGSV,3,2,11,20,31,285,47,23,19,311,37,25,19,046,39,29,25,069,49*73
MSG 0 40067.437 $PGRME,5.0,M,7.7,M,9.2,M*20
MSG 0 40067.497 $PGRMB,0.0,200,,,,K,,N,N*31
MSG 0 40067.557 $PGRMM,WGS 84*06
MSG 0 40067.874 $GPRMC,150908,A,4303.3362,N,07037.4112,W,000.0,142.3,030712,016.1,W*73
POS 0 40148.000 367787.717 4768268.487
QUA 0 40148.000 7 9.000 1.000 9.000 1.000 0.000 0.000 0.000
RAW 0 40148.000 4 430333.62000 -703741.12000 -25.60000 150908.00000
MSG 0 40068.024 $GPGGA,150908,4303.3362,N,07037.4112,W,1,09,1.0,6.8,M,-32.4,M,,*7E
MSG 0 40068.166 $GPGSA,A,3,06,,14,16,20,,25,29,30,31,32,,1.7,1.0,1.4*3A
MSG 0 40068.285 $GPGSV,3,3,11,30,66,211,46,31,64,044,49,32,43,252,49*49
MSG 0 40068.403 $PGRME,5.0,M,7.7,M,9.2,M*20
MSG 0 40068.464 $PGRMB,0.0,200,,,,K,,N,N*31
MSG 0 40068.524 $PGRMM,WGS 84*06
MSG 0 40068.880 $GPRMC,150909,A,4303.3361,N,07037.4111,W,000.3,168.1,030712,016.1,W*7B
POS 0 40149.000 367787.849 4768268.299
QUA 0 40149.000 7 9.000 1.000 9.000 1.000 0.000 0.000 0.000
RAW 0 40149.000 4 430333.61000 -703741.11000 -25.60000 150909.00000
MSG 0 40069.030 $GPGGA,150909,4303.3361,N,07037.4111,W,1,09,1.0,6.8,M,-32.4,M,,*7F
MSG 0 40069.171 $GPGSA,A,3,06,,14,16,20,,25,29,30,31,32,,1.7,1.0,1.4*3A
MSG 0 40069.290 $GPGSV,3,1,11,06,02,175,43,11,00,242,31,14,27,130,49,16,37,211,44*73
MSG 0 40069.436 $PGRME,5.0,M,7.7,M,9.2,M*20
MSG 0 40069.496 $PGRMB,0.0,200,,,,K,,N,N*31
MSG 0 40069.556 $PGRMM,WGS 84*06
MSG 0 40069.882 $GPRMC,150910,A,4303.3359,N,07037.4108,W,000.5,138.1,030712,016.1,W*73
POS 0 40150.000 367788.249 4768267.921
QUA 0 40150.000 7 9.000 1.000 9.000 1.000 0.000 0.000 0.000
RAW 0 40150.000 4 430333.59000 -703741.08000 -26.10000 150910.00000
MSG 0 40070.032 $GPGGA,150910,4303.3359,N,07037.4108,W,1,09,1.0,6.3,M,-32.4,M,,*7F
MSG 0 40070.173 $GPGSA,A,3,06,,14,16,20,,25,29,30,31,32,,1.7,1.0,1.4*3A
MSG 0 40070.292 $GPGSV,3,2,11,20,31,285,47,23,19,311,37,25,19,046,41,29,25,069,48*7D
MSG 0 40070.438 $PGRME,5.0,M,7.7,M,9.2,M*20
MSG 0 40070.498 $PGRMB,0.0,200,,,,K,,N,N*31
MSG 0 40070.558 $PGRMM,WGS 84*06
MSG 0 40070.881 $GPRMC,150911,A,4303.3359,N,07037.4108,W,000.3,137.9,030712,016.1,W*73
POS 0 40151.000 367788.249 4768267.921
QUA 0 40151.000 7 9.000 1.000 9.000 1.000 0.000 0.000 0.000
RAW 0 40151.000 4 430333.59000 -703741.08000 -25.60000 150911.00000
MSG 0 40071.031 $GPGGA,150911,4303.3359,N,07037.4108,W,1,09,1.0,6.8,M,-32.4,M,,*75
MSG 0 40071.173 $GPGSA,A,3,06,,14,16,20,,25,29,30,31,32,,1.7,1.0,1.4*3A
MSG 0 40071.291 $GPGSV,3,3,11,30,66,211,46,31,64,044,49,32,43,252,49*49
MSG 0 40071.410 $PGRME,5.0,M,7.7,M,9.2,M*20
MSG 0 40071.470 $PGRMB,0.0,200,,,,K,,N,N*31
MSG 0 40071.531 $PGRMM,WGS 84*06
MSG 0 40071.881 $GPRMC,150912,A,4303.3360,N,07037.4111,W,000.4,309.2,030712,016.1,W*71
POS 0 40152.000 367787.846 4768268.114
QUA 0 40152.000 7 9.000 1.000 9.000 1.000 0.000 0.000 0.000
RAW 0 40152.000 4 430333.60000 -703741.11000 -25.50000 150912.00000
MSG 0 40072.031 $GPGGA,150912,4303.3360,N,07037.4111,W,1,09,1.0,6.9,M,-32.4,M,,*75
MSG 0 40072.172 $GPGSA,A,3,06,,14,16,20,,25,29,30,31,32,,1.7,1.0,1.4*3A
MSG 0 40072.291 $GPGSV,3,1,11,06,02,175,43,11,00,242,32,14,27,130,48,16,37,211,45*70
MSG 0 40072.437 $PGRME,5.0,M,7.7,M,9.2,M*20
MSG 0 40072.497 $PGRMB,0.0,200,,,,K,,N,N*31
MSG 0 40072.558 $PGRMM,WGS 84*06
MSG 0 40072.889 $GPRMC,150913,A,4303.3358,N,07037.4106,W,000.6,130.9,030712,016.1,W*7C
POS 0 40153.000 367788.517 4768267.730
QUA 0 40153.000 7 9.000 1.000 9.000 1.000 0.000 0.000 0.000
RAW 0 40153.000 4 430333.58000 -703741.06000 -25.70000 150913.00000
MSG 0 40073.039 $GPGGA,150913,4303.3358,N,07037.4106,W,1,09,1.0,6.7,M,-32.4,M,,*77
MSG 0 40073.180 $GPGSA,A,3,06,,14,16,20,,25,29,30,31,32,,1.7,1.0,1.4*3A
MSG 0 40073.299 $GPGSV,3,2,11,20,31,285,46,23,19,311,37,25,18,046,42,29,25,069,47*71
MSG 0 40073.445 $PGRME,5.0,M,7.7,M,9.2,M*20
MSG 0 40073.505 $PGRMB,0.0,200,,,,K,,N,N*31
MSG 0 40073.565 $PGRMM,WGS 84*06
MSG 0 40073.892 $GPRMC,150914,A,4303.3356,N,07037.4105,W,000.6,141.0,030712,016.1,W*79
POS 0 40154.000 367788.646 4768267.358
QUA 0 40154.000 7 9.000 1.000 9.000 1.000 0.000 0.000 0.000
RAW 0 40154.000 4 430333.56000 -703741.05000 -26.20000 150914.00000
MSG 0 40074.042 $GPGGA,150914,4303.3356,N,07037.4105,W,1,09,1.0,6.2,M,-32.4,M,,*78
MSG 0 40074.184 $GPGSA,A,3,06,,14,16,20,,25,29,30,31,32,,1.7,1.0,1.4*3A
MSG 0 40074.303 $GPGSV,3,3,11,30,66,211,46,31,64,044,49,32,43,252,49*49
MSG 0 40074.421 $PGRME,5.0,M,7.7,M,9.2,M*20
MSG 0 40074.482 $PGRMB,0.0,200,,,,K,,N,N*31
MSG 0 40074.542 $PGRMM,WGS 84*06
MSG 0 40074.888 $GPRMC,150915,A,4303.3357,N,07037.4107,W,000.0,141.0,030712,016.1,W*7D
POS 0 40155.000 367788.378 4768267.548
QUA 0 40155.000 7 9.000 1.000 9.000 1.000 0.000 0.000 0.000
RAW 0 40155.000 4 430333.57000 -703741.07000 -25.90000 150915.00000
MSG 0 40075.038 $GPGGA,150915,4303.3357,N,07037.4107,W,1,09,1.0,6.5,M,-32.4,M,,*7D
MSG 0 40075.179 $GPGSA,A,3,06,,14,16,20,,25,29,30,31,32,,1.7,1.0,1.4*3A
MSG 0 40075.298 $GPGSV,3,1,11,06,02,175,43,11,00,242,32,14,27,130,48,16,37,211,45*70
MSG 0 40075.444 $PGRME,5.0,M,7.7,M,9.2,M*20
MSG 0 40075.504 $PGRMB,0.0,200,,,,K,,N,N*31
MSG 0 40075.564 $PGRMM,WGS 84*06
MSG 0 40075.880 $GPRMC,150916,A,4303.3356,N,07037.4106,W,000.4,144.8,030712,016.1,W*77
POS 0 40156.000 367788.510 4768267.360
QUA 0 40156.000 7 9.000 1.000 9.000 1.000 0.000 0.000 0.000
RAW 0 40156.000 4 430333.56000 -703741.06000 -25.60000 150916.00000
MSG 0 40076.030 $GPGGA,150916,4303.3356,N,07037.4106,W,1,09,1.0,6.8,M,-32.4,M,,*73
MSG 0 40076.172 $GPGSA,A,3,06,,14,16,20,,25,29,30,31,32,,1.7,1.0,1.4*3A
MSG 0 40076.291 $GPGSV,3,2,11,20,31,285,46,23,19,311,37,25,18,046,42,29,25,069,48*7E
MSG 0 40076.436 $PGRME,5.0,M,7.7,M,9.2,M*20
MSG 0 40076.497 $PGRMB,0.0,200,,,,K,,N,N*31
MSG 0 40076.557 $PGRMM,WGS 84*06
MSG 0 40076.892 $GPRMC,150917,A,4303.3355,N,07037.4104,W,000.4,134.9,030712,016.1,W*71
POS 0 40157.000 367788.778 4768267.170
QUA 0 40157.000 7 9.000 1.000 9.000 1.000 0.000 0.000 0.000
RAW 0 40157.000 4 430333.55000 -703741.04000 -25.30000 150917.00000
MSG 0 40077.042 $GPGGA,150917,4303.3355,N,07037.4104,W,1,09,1.0,7.1,M,-32.4,M,,*7B
MSG 0 40077.184 $GPGSA,A,3,06,,14,16,20,,25,29,30,31,32,,1.7,1.0,1.4*3A
MSG 0 40077.303 $GPGSV,3,3,11,30,66,211,46,31,64,044,49,32,43,252,48*48
MSG 0 40077.421 $PGRME,5.0,M,7.7,M,9.2,M*20
MSG 0 40077.482 $PGRMB,0.0,200,,,,K,,N,N*31
MSG 0 40077.542 $PGRMM,WGS 84*06
MSG 0 40077.893 $GPRMC,150918,A,4303.3356,N,07037.4106,W,000.2,134.9,030712,016.1,W*79
POS 0 40158.000 367788.510 4768267.360
QUA 0 40158.000 7 9.000 1.000 9.000 1.000 0.000 0.000 0.000
RAW 0 40158.000 4 430333.56000 -703741.06000 -25.60000 150918.00000
MSG 0 40078.043 $GPGGA,150918,4303.3356,N,07037.4106,W,1,09,1.0,6.8,M,-32.4,M,,*7D
MSG 0 40078.184 $GPGSA,A,3,06,,14,16,20,,25,29,30,31,32,,1.7,1.0,1.4*3A
MSG 0 40078.303 $GPGSV,3,1,11,06,02,175,43,11,00,242,32,14,27,130,48,16,37,211,45*70
MSG 0 40078.449 $PGRME,5.0,M,7.7,M,9.2,M*20
MSG 0 40078.509 $PGRMB,0.0,200,,,,K,,N,N*31
MSG 0 40078.570 $PGRMM,WGS 84*06
MSG 0 40078.881 $GPRMC,150919,A,4303.3353,N,07037.4104,W,000.5,156.5,030712,016.1,W*70
POS 0 40159.000 367788.771 4768266.800
QUA 0 40159.000 7 9.000 1.000 9.000 1.000 0.000 0.000 0.000
RAW 0 40159.000 4 430333.53000 -703741.04000 -26.00000 150919.00000
MSG 0 40079.031 $GPGGA,150919,4303.3353,N,07037.4104,W,1,09,1.0,6.4,M,-32.4,M,,*77
MSG 0 40079.172 $GPGSA,A,3,06,,14,16,20,,25,29,30,31,32,,1.7,1.0,1.4*3A
MSG 0 40079.291 $GPGSV,3,2,11,20,31,285,47,23,19,311,37,25,18,046,42,29,25,069,47*70
MSG 0 40079.437 $PGRME,5.0,M,7.7,M,9.2,M*20
MSG 0 40079.497 $PGRMB,0.0,200,,,,K,,N,N*31
MSG 0 40079.557 $PGRMM,WGS 84*06
MSG 0 40079.880 $GPRMC,150920,A,4303.3353,N,07037.4104,W,000.3,162.4,030712,016.1,W*7A
POS 0 40160.000 367788.771 4768266.800
QUA 0 40160.000 7 9.000 1.000 9.000 1.000 0.000 0.000 0.000
RAW 0 40160.000 4 430333.53000 -703741.04000 -26.30000 150920.00000
MSG 0 40080.030 $GPGGA,150920,4303.3353,N,07037.4104,W,1,09,1.0,6.1,M,-32.4,M,,*78
MSG 0 40080.172 $GPGSA,A,3,06,,14,16,20,,25,29,30,31,32,,1.7,1.0,1.4*3A
MSG 0 40080.291 $GPGSV,3,3,11,30,66,211,46,31,64,044,49,32,43,252,48*48
MSG 0 40080.409 $PGRME,5.0,M,7.7,M,9.2,M*20
MSG 0 40080.470 $PGRMB,0.0,200,,,,K,,N,N*31
MSG 0 40080.530 $PGRMM,WGS 84*06
MSG 0 40080.879 $GPRMC,150921,A,4303.3351,N,07037.4102,W,000.5,151.4,030712,016.1,W*79
POS 0 40161.000 367789.035 4768266.424
QUA 0 40161.000 7 9.000 1.000 9.000 1.000 0.000 0.000 0.000
RAW 0 40161.000 4 430333.51000 -703741.02000 -25.70000 150921.00000
MSG 0 40081.029 $GPGGA,150921,4303.3351,N,07037.4102,W,1,09,1.0,6.7,M,-32.4,M,,*7B
MSG 0 40081.171 $GPGSA,A,3,06,,14,16,20,,25,29,30,31,32,,1.7,1.0,1.4*3A
MSG 0 40081.289 $GPGSV,3,1,11,06,02,175,44,11,00,242,33,14,27,130,48,16,37,211,45*76
MSG 0 40081.435 $PGRME,5.0,M,7.7,M,9.2,M*20
MSG 0 40081.495 $PGRMB,0.0,200,,,,K,,N,N*31
MSG 0 40081.556 $PGRMM,WGS 84*06
MSG 0 40081.878 $GPRMC,150922,A,4303.3351,N,07037.4102,W,000.3,155.2,030712,016.1,W*7E
POS 0 40162.000 367789.035 4768266.424
QUA 0 40162.000 7 9.000 1.000 9.000 1.000 0.000 0.000 0.000
RAW 0 40162.000 4 430333.51000 -703741.02000 -25.80000 150922.00000
MSG 0 40082.028 $GPGGA,150922,4303.3351,N,07037.4102,W,1,09,1.0,6.6,M,-32.4,M,,*79
MSG 0 40082.170 $GPGSA,A,3,06,,14,16,20,,25,29,30,31,32,,1.7,1.0,1.4*3A
MSG 0 40082.288 $GPGSV,3,2,11,20,31,285,47,23,19,311,37,25,18,046,42,29,25,069,47*70
MSG 0 40082.434 $PGRME,5.0,M,7.7,M,9.2,M*20
MSG 0 40082.495 $PGRMB,0.0,200,,,,K,,N,N*31
MSG 0 40082.555 $PGRMM,WGS 84*06
MSG 0 40082.880 $GPRMC,150923,A,4303.3350,N,07037.4099,W,000.5,120.5,030712,016.1,W*7E
POS 0 40163.000 367789.439 4768266.231
QUA 0 40163.000 7 9.000 1.000 9.000 1.000 0.000 0.000 0.000
RAW 0 40163.000 4 430333.50000 -703740.99000 -25.60000 150923.00000
MSG 0 40083.030 $GPGGA,150923,4303.3350,N,07037.4099,W,1,09,1.0,6.8,M,-32.4,M,,*74
MSG 0 40083.172 $GPGSA,A,3,06,,14,16,20,,25,29,30,31,32,,1.7,1.0,1.4*3A
MSG 0 40083.290 $GPGSV,3,3,11,30,66,211,46,31,64,044,49,32,43,252,48*48
MSG 0 40083.409 $PGRME,5.0,M,7.7,M,9.2,M*20
MSG 0 40083.470 $PGRMB,0.0,200,,,,K,,N,N*31
MSG 0 40083.530 $PGRMM,WGS 84*06
MSG 0 40083.881 $GPRMC,150924,A,4303.3350,N,07037.4100,W,000.2,120.5,030712,016.1,W*7F
POS 0 40164.000 367789.303 4768266.234
QUA 0 40164.000 7 9.000 1.000 9.000 1.000 0.000 0.000 0.000
RAW 0 40164.000 4 430333.50000 -703741.00000 -25.80000 150924.00000
MSG 0 40084.031 $GPGGA,150924,4303.3350,N,07037.4100,W,1,09,1.0,6.6,M,-32.4,M,,*7C
MSG 0 40084.172 $GPGSA,A,3,06,,14,16,20,,25,29,30,31,32,,1.7,1.0,1.4*3A
MSG 0 40084.291 $GPGSV,3,1,11,06,02,175,44,11,00,242,33,14,27,130,48,16,37,211,46*75
MSG 0 40084.437 $PGRME,5.0,M,7.7,M,9.2,M*20
MSG 0 40084.497 $PGRMB,0.0,200,,,,K,,N,N*31
MSG 0 40084.557 $PGRMM,WGS 84*06
MSG 0 40084.881 $GPRMC,150925,A,4303.3349,N,07037.4098,W,000.4,131.0,030712,016.1,W*75
POS 0 40165.000 367789.571 4768266.044
QUA 0 40165.000 7 9.000 1.000 9.000 1.000 0.000 0.000 0.000
RAW 0 40165.000 4 430333.49000 -703740.98000 -26.00000 150925.00000
MSG 0 40085.031 $GPGGA,150925,4303.3349,N,07037.4098,W,1,09,1.0,6.4,M,-32.4,M,,*77
MSG 0 40085.172 $GPGSA,A,3,06,,14,16,20,,25,29,30,31,32,,1.7,1.0,1.4*3A
MSG 0 40085.291 $GPGSV,3,2,11,20,31,285,47,23,19,311,37,25,18,046,42,29,25,069,46*71
MSG 0 40085.437 $PGRME,5.0,M,7.7,M,9.2,M*20
MSG 0 40085.497 $PGRMB,0.0,200,,,,K,,N,N*31
MSG 0 40085.557 $PGRMM,WGS 84*06
MSG 0 40085.892 $GPRMC,150926,A,4303.3347,N,07037.4097,W,000.6,154.6,030712,016.1,W*70
POS 0 40166.000 367789.699 4768265.671
QUA 0 40166.000 7 9.000 1.000 9.000 1.000 0.000 0.000 0.000
RAW 0 40166.000 4 430333.47000 -703740.97000 -26.00000 150926.00000
MSG 0 40086.042 $GPGGA,150926,4303.3347,N,07037.4097,W,1,09,1.0,6.4,M,-32.4,M,,*75
MSG 0 40086.184 $GPGSA,A,3,06,,14,16,20,,25,29,30,31,32,,1.7,1.0,1.4*3A
MSG 0 40086.302 $GPGSV,3,3,11,30,66,211,46,31,64,044,49,32,43,252,48*48
MSG 0 40086.421 $PGRME,5.0,M,7.7,M,9.2,M*20
MSG 0 40086.482 $PGRMB,0.0,200,,,,K,,N,N*31
MSG 0 40086.542 $PGRMM,WGS 84*06
MSG 0 40086.892 $GPRMC,150927,A,4303.3347,N,07037.4097,W,000.3,145.1,030712,016.1,W*73
POS 0 40167.000 367789.699 4768265.671
QUA 0 40167.000 7 9.000 1.000 9.000 1.000 0.000 0.000 0.000
RAW 0 40167.000 4 430333.47000 -703740.97000 -25.60000 150927.00000
MSG 0 40087.042 $GPGGA,150927,4303.3347,N,07037.4097,W,1,09,1.0,6.8,M,-32.4,M,,*78
MSG 0 40087.183 $GPGSA,A,3,06,,14,16,20,,25,29,30,31,32,,1.7,1.0,1.4*3A
MSG 0 40087.302 $GPGSV,3,1,11,06,02,175,44,11,00,242,33,14,27,130,48,16,37,211,46*75
MSG 0 40087.448 $PGRME,5.0,M,7.7,M,9.2,M*20
MSG 0 40087.508 $PGRMB,0.0,200,,,,K,,N,N*31
MSG 0 40087.568 $PGRMM,WGS 84*06
MSG 0 40087.880 $GPRMC,150928,A,4303.3347,N,07037.4098,W,000.3,188.9,030712,016.1,W*7A
POS 0 40168.000 367789.564 4768265.673
QUA 0 40168.000 7 9.000 1.000 9.000 1.000 0.000 0.000 0.000
RAW 0 40168.000 4 430333.47000 -703740.98000 -25.40000 150928.00000
MSG 0 40088.030 $GPGGA,150928,4303.3347,N,07037.4098,W,1,09,1.0,7.0,M,-32.4,M,,*71
MSG 0 40088.172 $GPGSA,A,3,06,,14,16,20,,25,29,30,31,32,,1.7,1.0,1.4*3A
MSG 0 40088.291 $GPGSV,3,2,11,20,31,285,46,23,19,311,37,25,18,046,42,29,25,068,46*71
MSG 0 40088.436 $PGRME,5.0,M,7.7,M,9.2,M*20
MSG 0 40088.497 $PGRMB,0.0,200,,,,K,,N,N*31
MSG 0 40088.557 $PGRMM,WGS 84*06
MSG 0 40088.885 $GPRMC,150929,A,4303.3347,N,07037.4097,W,000.0,188.9,030712,016.1,W*77
POS 0 40169.000 367789.699 4768265.671
QUA 0 40169.000 7 9.000 1.000 9.000 1.000 0.000 0.000 0.000
RAW 0 40169.000 4 430333.47000 -703740.97000 -25.50000 150929.00000
MSG 0 40089.035 $GPGGA,150929,4303.3347,N,07037.4097,W,1,09,1.0,6.9,M,-32.4,M,,*77
MSG 0 40089.176 $GPGSA,A,3,06,,14,16,20,,25,29,30,31,32,,1.7,1.0,1.4*3A
MSG 0 40089.295 $GPGSV,3,3,11,30,66,211,46,31,64,044,49,32,43,252,48*48
MSG 0 40089.413 $PGRME,5.0,M,7.7,M,9.2,M*20
MSG 0 40089.474 $PGRMB,0.0,200,,,,K,,N,N*31
MSG 0 40089.534 $PGRMM,WGS 84*06
MSG 0 40089.880 $GPRMC,150930,A,4303.3346,N,07037.4097,W,000.4,165.4,030712,016.1,W*74
POS 0 40170.000 367789.696 4768265.486
QUA 0 40170.000 7 9.000 1.000 9.000 1.000 0.000 0.000 0.000
RAW 0 40170.000 4 430333.46000 -703740.97000 -26.00000 150930.00000
MSG 0 40090.030 $GPGGA,150930,4303.3346,N,07037.4097,W,1,09,1.0,6.4,M,-32.4,M,,*73
MSG 0 40090.171 $GPGSA,A,3,06,,14,16,20,,25,29,30,31,32,,1.7,1.0,1.4*3A
MSG 0 40090.290 $GPGSV,3,1,11,06,02,175,43,11,00,242,33,14,27,130,48,16,37,211,46*72
MSG 0 40090.436 $PGRME,5.0,M,7.7,M,9.2,M*20
MSG 0 40090.496 $PGRMB,0.0,200,,,,K,,N,N*31
MSG 0 40090.557 $PGRMM,WGS 84*06
MSG 0 40090.882 $GPRMC,150931,A,4303.3345,N,07037.4095,W,000.3,134.0,030712,016.1,W*73
POS 0 40171.000 367789.964 4768265.295
QUA 0 40171.000 7 9.000 1.000 9.000 1.000 0.000 0.000 0.000
RAW 0 40171.000 4 430333.45000 -703740.95000 -26.20000 150931.00000
MSG 0 40091.032 $GPGGA,150931,4303.3345,N,07037.4095,W,1,09,1.0,6.2,M,-32.4,M,,*75
MSG 0 40091.174 $GPGSA,A,3,06,,14,16,20,,25,29,30,31,32,,1.7,1.0,1.4*3A
MSG 0 40091.292 $GPGSV,3,2,11,20,31,285,46,23,19,311,37,25,18,046,42,29,25,068,45*72
MSG 0 40091.438 $PGRME,5.0,M,7.7,M,9.2,M*20
MSG 0 40091.498 $PGRMB,0.0,200,,,,K,,N,N*31
MSG 0 40091.559 $PGRMM,WGS 84*06
MSG 0 40091.882 $GPRMC,150932,A,4303.3342,N,07037.4094,W,000.7,162.7,030712,016.1,W*76
POS 0 40172.000 367790.089 4768264.738
QUA 0 40172.000 7 9.000 1.000 9.000 1.000 0.000 0.000 0.000
RAW 0 40172.000 4 430333.42000 -703740.94000 -26.20000 150932.00000
MSG 0 40092.032 $GPGGA,150932,4303.3342,N,07037.4094,W,1,09,1.0,6.2,M,-32.4,M,,*70
MSG 0 40092.174 $GPGSA,A,3,06,,14,16,20,,25,29,30,31,32,,1.7,1.0,1.4*3A
MSG 0 40092.292 $GPGSV,3,3,11,30,67,212,46,31,64,044,49,32,43,252,48*4A
MSG 0 40092.411 $PGRME,5.0,M,7.7,M,9.2,M*20
MSG 0 40092.471 $PGRMB,0.0,200,,,,K,,N,N*31
MSG 0 40092.532 $PGRMM,WGS 84*06
MSG 0 40092.879 $GPRMC,150933,A,4303.3341,N,07037.4091,W,000.7,141.0,030712,016.1,W*77
POS 0 40173.000 367790.492 4768264.545
QUA 0 40173.000 7 9.000 1.000 9.000 1.000 0.000 0.000 0.000
RAW 0 40173.000 4 430333.41000 -703740.91000 -26.00000 150933.00000
MSG 0 40093.028 $GPGGA,150933,4303.3341,N,07037.4091,W,1,09,1.0,6.4,M,-32.4,M,,*71
MSG 0 40093.170 $GPGSA,A,3,06,,14,16,20,,25,29,30,31,32,,1.7,1.0,1.4*3A
MSG 0 40093.289 $GPGSV,3,1,11,06,02,175,44,11,00,242,33,14,27,130,48,16,37,211,46*75
MSG 0 40093.434 $PGRME,5.0,M,7.7,M,9.2,M*20
MSG 0 40093.495 $PGRMB,0.0,200,,,,K,,N,N*31
MSG 0 40093.555 $PGRMM,WGS 84*06
MSG 0 40093.881 $GPRMC,150934,A,4303.3341,N,07037.4093,W,000.4,172.8,030712,016.1,W*79
POS 0 40174.000 367790.221 4768264.550
QUA 0 40174.000 7 9.000 1.000 9.000 1.000 0.000 0.000 0.000
RAW 0 40174.000 4 430333.41000 -703740.93000 -25.60000 150934.00000
MSG 0 40094.031 $GPGGA,150934,4303.3341,N,07037.4093,W,1,09,1.0,6.8,M,-32.4,M,,*78
FIX 99 40094.258 71 367790.221 4768264.550
