FTP NEW 2
VER 11.0.6.21
INF "" "" "" "" 0.000 0.000 0.000
ELL WGS-84 6378137.000 298.257223563
PRO TME -69.000000 0.999600 0.000000 0.000000 0.000000 500000.0000 0.0000
DTM 0.00 0.00 0.00 0.00000 0.00000 0.00000 0.00000
GEO ??? 0.000
HVU 1.0000000000 1.0000000000
TND 11:24:52 07/03/2012 240
DEV 0 32869 "Garmin GPS" 49156 C:\HYPACK 2011\devices\GPS.dll 11.0.10.6
OFF 0 0.000 0.000 0.000 0.000 0.000 0.000 0.000
DDT 0 SYN 
DEV 1 0 "Disabled" 0 Odom CV3 MK3 Disabled Unknown
USR "NOAA Joint Hydrographic Center" "HYPACK Inc." 0x8 15681181
EOH 0001FFFFFFFFFFFFFFFFFFFFFFFFFFFFFFFFFFFFFFFFFFFFFFFFFFFFFFFFFFFFFFFFFFFFFFFFFFFFFFFFFFFFFFFFFFFFFFFFFFFFFFFFFFFFFFFFFFFFFFFFFFFFFFFFFFFFFFFFFFFFFFFFFFFFFFFFFFFFFFFFFFFFFFFFFFFFFFFFFFFF003021300906052B0E03021A05000414A7FD3F1310DB61AC6E8FC492DE1EB9B594E5D5AA
POS 0 41170.000 366529.999 4768185.733
QUA 0 41170.000 7 9.000 1.000 9.000 1.000 0.000 0.000 0.000
RAW 0 41170.000 4 430327.83000 -703833.63000 -23.40000 152610.00000
MSG 0 41090.007 $GPGGA,152610,4303.2783,N,07038.3363,W,1,09,1.0,9.0,M,-32.4,M,,*7B
MSG 0 41090.148 $GPGSA,A,3,,06,,14,16,20,,25,29,30,31,32,1.7,1.0,1.4*3A
MSG 0 41090.267 $GPGSV,3,2,12,16,45,214,48,20,31,276,46,23,26,312,37,25,12,046,44*70
MSG 0 41090.413 $PGRME,5.0,M,6.5,M,8.2,M*22
MSG 0 41090.473 $PGRMB,0.0,200,,,,K,,N,N*31
MSG 0 41090.534 $PGRMM,WGS 84*06
MSG 0 41090.858 $GPRMC,152611,A,4303.2783,N,07038.3363,W,000.0,058.9,030712,016.1,W*70
POS 0 41171.000 366529.999 4768185.733
QUA 0 41171.000 7 9.000 1.000 9.000 1.000 0.000 0.000 0.000
RAW 0 41171.000 4 430327.83000 -703833.63000 -23.30000 152611.00000
MSG 0 41091.008 $GPGGA,152611,4303.2783,N,07038.3363,W,1,09,1.0,9.1,M,-32.4,M,,*7B
MSG 0 41091.149 $GPGSA,A,3,,06,,14,16,20,,25,29,30,31,32,1.7,1.0,1.4*3A
MSG 0 41091.268 $GPGSV,3,3,12,29,25,060,49,30,75,216,48,31,59,057,50,32,38,243,44*73
MSG 0 41091.414 $PGRME,5.0,M,6.5,M,8.2,M*22
MSG 0 41091.474 $PGRMB,0.0,200,,,,K,,N,N*31
MSG 0 41091.535 $PGRMM,WGS 84*06
MSG 0 41091.865 $GPRMC,152612,A,4303.2783,N,07038.3363,W,000.2,043.3,030712,016.1,W*71
FIX 99 41092.164 74 366529.999 4768185.733
POS 0 41172.000 366529.999 4768185.733
QUA 0 41172.000 7 9.000 1.000 9.000 1.000 0.000 0.000 0.000
RAW 0 41172.000 4 430327.83000 -703833.63000 -23.30000 152612.00000
MSG 0 41092.015 $GPGGA,152612,4303.2783,N,07038.3363,W,1,09,1.0,9.1,M,-32.4,M,,*78
MSG 0 41092.157 $GPGSA,A,3,,06,,14,16,20,,25,29,30,31,32,1.7,1.0,1.4*3A
MSG 0 41092.275 $GPGSV,3,1,12,03,00,186,33,06,08,172,41,11,00,235,33,14,20,134,43*79
MSG 0 41092.421 $PGRME,5.0,M,6.5,M,8.2,M*22
MSG 0 41092.481 $PGRMB,0.0,200,,,,K,,N,N*31
MSG 0 41092.542 $PGRMM,WGS 84*06
MSG 0 41092.860 $GPRMC,152613,A,4303.2783,N,07038.3360,W,000.3,099.6,030712,016.1,W*70
POS 0 41173.000 366530.406 4768185.725
QUA 0 41173.000 7 9.000 1.000 9.000 1.000 0.000 0.000 0.000
RAW 0 41173.000 4 430327.83000 -703833.60000 -23.30000 152613.00000
MSG 0 41093.010 $GPGGA,152613,4303.2783,N,07038.3360,W,1,09,1.0,9.1,M,-32.4,M,,*7A
MSG 0 41093.152 $GPGSA,A,3,,06,,14,16,20,,25,29,30,31,32,1.7,1.0,1.4*3A
MSG 0 41093.270 $GPGSV,3,2,12,16,45,214,49,20,31,276,47,23,26,312,36,25,12,046,44*71
MSG 0 41093.416 $PGRME,5.0,M,6.5,M,8.2,M*22
MSG 0 41093.476 $PGRMB,0.0,200,,,,K,,N,N*31
MSG 0 41093.537 $PGRMM,WGS 84*06
MSG 0 41093.870 $GPRMC,152614,A,4303.2783,N,07038.3361,W,000.0,099.6,030712,016.1,W*75
POS 0 41174.000 366530.271 4768185.728
QUA 0 41174.000 7 9.000 1.000 9.000 1.000 0.000 0.000 0.000
RAW 0 41174.000 4 430327.83000 -703833.61000 -23.40000 152614.00000
MSG 0 41094.020 $GPGGA,152614,4303.2783,N,07038.3361,W,1,09,1.0,9.0,M,-32.4,M,,*7D
MSG 0 41094.161 $GPGSA,A,3,,06,,14,16,20,,25,29,30,31,32,1.7,1.0,1.4*3A
MSG 0 41094.280 $GPGSV,3,3,12,29,25,060,50,30,75,216,48,31,59,057,49,32,38,243,45*72
MSG 0 41094.426 $PGRME,5.0,M,6.5,M,8.2,M*22
MSG 0 41094.486 $PGRMB,0.0,200,,,,K,,N,N*31
MSG 0 41094.546 $PGRMM,WGS 84*06
MSG 0 41094.849 $GPRMC,152615,A,4303.2783,N,07038.3360,W,000.4,101.8,030712,016.1,W*7F
POS 0 41175.000 366530.406 4768185.725
QUA 0 41175.000 7 9.000 1.000 9.000 1.000 0.000 0.000 0.000
RAW 0 41175.000 4 430327.83000 -703833.60000 -23.10000 152615.00000
MSG 0 41094.999 $GPGGA,152615,4303.2783,N,07038.3360,W,1,09,1.0,9.3,M,-32.4,M,,*7E
MSG 0 41095.141 $GPGSA,A,3,,06,,14,16,20,,25,29,30,31,32,1.7,1.0,1.4*3A
MSG 0 41095.260 $GPGSV,3,1,12,03,00,186,33,06,08,172,40,11,00,235,33,14,20,134,43*78
MSG 0 41095.405 $PGRME,5.0,M,6.5,M,8.2,M*22
MSG 0 41095.466 $PGRMB,0.0,200,,,,K,,N,N*31
MSG 0 41095.526 $PGRMM,WGS 84*06
MSG 0 41095.855 $GPRMC,152616,A,4303.2782,N,07038.3360,W,000.0,101.8,030712,016.1,W*79
POS 0 41176.000 366530.403 4768185.540
QUA 0 41176.000 7 9.000 1.000 9.000 1.000 0.000 0.000 0.000
RAW 0 41176.000 4 430327.82000 -703833.60000 -22.90000 152616.00000
MSG 0 41096.005 $GPGGA,152616,4303.2782,N,07038.3360,W,1,09,1.0,9.5,M,-32.4,M,,*7A
MSG 0 41096.146 $GPGSA,A,3,,06,,14,16,20,,25,29,30,31,32,1.7,1.0,1.4*3A
MSG 0 41096.265 $GPGSV,3,2,12,16,45,214,49,20,31,276,46,23,26,312,36,25,12,046,43*77
MSG 0 41096.411 $PGRME,5.0,M,6.5,M,8.2,M*22
MSG 0 41096.471 $PGRMB,0.0,200,,,,K,,N,N*31
MSG 0 41096.531 $PGRMM,WGS 84*06
MSG 0 41096.849 $GPRMC,152617,A,4303.2782,N,07038.3360,W,000.1,101.8,030712,016.1,W*79
POS 0 41177.000 366530.403 4768185.540
QUA 0 41177.000 7 9.000 1.000 9.000 1.000 0.000 0.000 0.000
RAW 0 41177.000 4 430327.82000 -703833.60000 -22.90000 152617.00000
MSG 0 41096.999 $GPGGA,152617,4303.2782,N,07038.3360,W,1,09,1.0,9.5,M,-32.4,M,,*7B
MSG 0 41097.141 $GPGSA,A,3,,06,,14,16,20,,25,29,30,31,32,1.7,1.0,1.4*3A
MSG 0 41097.259 $GPGSV,3,3,12,29,25,060,50,30,75,216,48,31,59,057,49,32,38,243,45*72
MSG 0 41097.405 $PGRME,5.0,M,6.5,M,8.2,M*22
MSG 0 41097.466 $PGRMB,0.0,200,,,,K,,N,N*31
MSG 0 41097.526 $PGRMM,WGS 84*06
MSG 0 41097.863 $GPRMC,152618,A,4303.2782,N,07038.3360,W,000.1,101.8,030712,016.1,W*76
POS 0 41178.000 366530.403 4768185.540
QUA 0 41178.000 7 9.000 1.000 9.000 1.000 0.000 0.000 0.000
RAW 0 41178.000 4 430327.82000 -703833.60000 -22.90000 152618.00000
MSG 0 41098.013 $GPGGA,152618,4303.2782,N,07038.3360,W,1,09,1.0,9.5,M,-32.4,M,,*74
MSG 0 41098.155 $GPGSA,A,3,,06,,14,16,20,,25,29,30,31,32,1.7,1.0,1.4*3A
MSG 0 41098.274 $GPGSV,3,1,12,03,00,186,33,06,08,172,40,11,00,235,33,14,20,134,43*78
MSG 0 41098.419 $PGRME,5.0,M,6.5,M,8.2,M*22
MSG 0 41098.480 $PGRMB,0.0,200,,,,K,,N,N*31
MSG 0 41098.540 $PGRMM,WGS 84*06
MSG 0 41098.875 $GPRMC,152619,A,4303.2782,N,07038.3358,W,000.2,108.5,030712,016.1,W*7B
POS 0 41179.000 366530.674 4768185.535
QUA 0 41179.000 7 9.000 1.000 9.000 1.000 0.000 0.000 0.000
RAW 0 41179.000 4 430327.82000 -703833.58000 -22.90000 152619.00000
MSG 0 41099.025 $GPGGA,152619,4303.2782,N,07038.3358,W,1,09,1.0,9.5,M,-32.4,M,,*7E
MSG 0 41099.167 $GPGSA,A,3,,06,,14,16,20,,25,29,30,31,32,1.7,1.0,1.4*3A
MSG 0 41099.286 $GPGSV,3,2,12,16,45,214,49,20,31,276,46,23,26,312,37,25,12,046,43*76
MSG 0 41099.431 $PGRME,5.0,M,6.5,M,8.2,M*22
MSG 0 41099.492 $PGRMB,0.0,200,,,,K,,N,N*31
MSG 0 41099.552 $PGRMM,WGS 84*06
MSG 0 41099.860 $GPRMC,152620,A,4303.2782,N,07038.3356,W,000.4,105.2,030712,016.1,W*73
POS 0 41180.000 366530.946 4768185.529
QUA 0 41180.000 7 9.000 1.000 9.000 1.000 0.000 0.000 0.000
RAW 0 41180.000 4 430327.82000 -703833.56000 -23.30000 152620.00000
MSG 0 41100.010 $GPGGA,152620,4303.2782,N,07038.3356,W,1,09,1.0,9.1,M,-32.4,M,,*7E
MSG 0 41100.152 $GPGSA,A,3,,06,,14,16,20,,25,29,30,31,32,1.7,1.0,1.4*3A
MSG 0 41100.270 $GPGSV,3,3,12,29,25,060,49,30,75,216,47,31,59,057,50,32,38,243,43*7B
MSG 0 41100.416 $PGRME,5.0,M,6.5,M,8.2,M*22
MSG 0 41100.476 $PGRMB,0.0,200,,,,K,,N,N*31
MSG 0 41100.537 $PGRMM,WGS 84*06
MSG 0 41100.864 $GPRMC,152621,A,4303.2780,N,07038.3354,W,000.5,123.2,030712,016.1,W*77
POS 0 41181.000 366531.210 4768185.154
QUA 0 41181.000 7 9.000 1.000 9.000 1.000 0.000 0.000 0.000
RAW 0 41181.000 4 430327.80000 -703833.54000 -23.20000 152621.00000
MSG 0 41101.014 $GPGGA,152621,4303.2780,N,07038.3354,W,1,09,1.0,9.2,M,-32.4,M,,*7C
MSG 0 41101.156 $GPGSA,A,3,,06,,14,16,20,,25,29,30,31,32,1.7,1.0,1.4*3A
MSG 0 41101.274 $GPGSV,3,1,12,03,00,186,33,06,08,172,39,11,00,235,34,14,20,134,43*71
MSG 0 41101.420 $PGRME,5.0,M,6.5,M,8.2,M*22
MSG 0 41101.481 $PGRMB,0.0,200,,,,K,,N,N*31
MSG 0 41101.541 $PGRMM,WGS 84*06
MSG 0 41101.849 $GPRMC,152622,A,4303.2781,N,07038.3352,W,000.5,091.0,030712,016.1,W*79
POS 0 41182.000 366531.485 4768185.334
QUA 0 41182.000 7 9.000 1.000 9.000 1.000 0.000 0.000 0.000
RAW 0 41182.000 4 430327.81000 -703833.52000 -22.90000 152622.00000
MSG 0 41101.999 $GPGGA,152622,4303.2781,N,07038.3352,W,1,09,1.0,9.5,M,-32.4,M,,*7F
MSG 0 41102.141 $GPGSA,A,3,,06,,14,16,20,,25,29,30,31,32,1.7,1.0,1.4*3A
MSG 0 41102.260 $GPGSV,3,2,12,16,45,214,48,20,31,276,47,23,26,312,36,25,12,046,41*75
MSG 0 41102.405 $PGRME,5.0,M,6.5,M,8.2,M*22
MSG 0 41102.466 $PGRMB,0.0,200,,,,K,,N,N*31
MSG 0 41102.526 $PGRMM,WGS 84*06
MSG 0 41102.849 $GPRMC,152623,A,4303.2781,N,07038.3351,W,000.4,103.4,030712,016.1,W*74
POS 0 41183.000 366531.621 4768185.331
QUA 0 41183.000 7 9.000 1.000 9.000 1.000 0.000 0.000 0.000
RAW 0 41183.000 4 430327.81000 -703833.51000 -22.60000 152623.00000
MSG 0 41102.999 $GPGGA,152623,4303.2781,N,07038.3351,W,1,09,1.0,9.8,M,-32.4,M,,*70
MSG 0 41103.140 $GPGSA,A,3,,06,,14,16,20,,25,29,30,31,32,1.7,1.0,1.4*3A
MSG 0 41103.259 $GPGSV,3,3,12,29,25,060,48,30,75,216,48,31,59,057,50,32,38,243,44*72
MSG 0 41103.405 $PGRME,5.0,M,6.5,M,8.2,M*22
MSG 0 41103.465 $PGRMB,0.0,200,,,,K,,N,N*31
MSG 0 41103.526 $PGRMM,WGS 84*06
MSG 0 41103.852 $GPRMC,152624,A,4303.2782,N,07038.3354,W,000.2,289.2,030712,016.1,W*74
POS 0 41184.000 366531.217 4768185.524
QUA 0 41184.000 7 9.000 1.000 9.000 1.000 0.000 0.000 0.000
RAW 0 41184.000 4 430327.82000 -703833.54000 -22.20000 152624.00000
MSG 0 41104.002 $GPGGA,152624,4303.2782,N,07038.3354,W,1,09,1.0,10.2,M,-32.4,M,,*43
MSG 0 41104.145 $GPGSA,A,3,,06,,14,16,20,,25,29,30,31,32,1.7,1.0,1.4*3A
MSG 0 41104.264 $GPGSV,3,1,12,03,00,186,33,06,08,172,40,11,00,235,33,14,20,134,43*78
MSG 0 41104.410 $PGRME,5.0,M,6.5,M,8.2,M*22
MSG 0 41104.470 $PGRMB,0.0,200,,,,K,,N,N*31
MSG 0 41104.530 $PGRMM,WGS 84*06
MSG 0 41104.841 $GPRMC,152625,A,4303.2781,N,07038.3354,W,000.0,289.2,030712,016.1,W*74
POS 0 41185.000 366531.214 4768185.339
QUA 0 41185.000 7 9.000 1.000 9.000 1.000 0.000 0.000 0.000
RAW 0 41185.000 4 430327.81000 -703833.54000 -22.50000 152625.00000
MSG 0 41104.991 $GPGGA,152625,4303.2781,N,07038.3354,W,1,09,1.0,9.9,M,-32.4,M,,*72
MSG 0 41105.133 $GPGSA,A,3,,06,,14,16,20,,25,29,30,31,32,1.7,1.0,1.4*3A
MSG 0 41105.251 $GPGSV,3,2,12,16,45,214,47,20,31,276,47,23,26,312,37,25,12,046,44*7E
MSG 0 41105.397 $PGRME,5.0,M,6.5,M,8.2,M*22
MSG 0 41105.458 $PGRMB,0.0,200,,,,K,,N,N*31
MSG 0 41105.518 $PGRMM,WGS 84*06
MSG 0 41105.843 $GPRMC,152626,A,4303.2781,N,07038.3353,W,000.0,289.2,030712,016.1,W*70
POS 0 41186.000 366531.349 4768185.336
QUA 0 41186.000 7 9.000 1.000 9.000 1.000 0.000 0.000 0.000
RAW 0 41186.000 4 430327.81000 -703833.53000 -23.10000 152626.00000
MSG 0 41105.993 $GPGGA,152626,4303.2781,N,07038.3353,W,1,09,1.0,9.3,M,-32.4,M,,*7C
MSG 0 41106.135 $GPGSA,A,3,,06,,14,16,20,,25,29,30,31,32,1.7,1.0,1.4*3A
MSG 0 41106.253 $GPGSV,3,3,12,29,25,060,49,30,75,216,47,31,59,057,50,32,38,243,43*7B
MSG 0 41106.399 $PGRME,5.0,M,6.5,M,8.2,M*22
MSG 0 41106.459 $PGRMB,0.0,200,,,,K,,N,N*31
MSG 0 41106.520 $PGRMM,WGS 84*06
MSG 0 41106.863 $GPRMC,152627,A,4303.2780,N,07038.3352,W,000.5,124.7,030712,016.1,W*75
POS 0 41187.000 366531.481 4768185.149
QUA 0 41187.000 7 9.000 1.000 9.000 1.000 0.000 0.000 0.000
RAW 0 41187.000 4 430327.80000 -703833.52000 -23.10000 152627.00000
MSG 0 41107.013 $GPGGA,152627,4303.2780,N,07038.3352,W,1,09,1.0,9.3,M,-32.4,M,,*7D
MSG 0 41107.154 $GPGSA,A,3,,06,,14,16,20,,25,29,30,31,32,1.7,1.0,1.4*3A
MSG 0 41107.273 $GPGSV,3,1,12,03,00,186,33,06,08,172,41,11,00,235,33,14,20,134,43*79
MSG 0 41107.419 $PGRME,5.0,M,6.5,M,8.2,M*22
MSG 0 41107.479 $PGRMB,0.0,200,,,,K,,N,N*31
MSG 0 41107.540 $PGRMM,WGS 84*06
MSG 0 41107.849 $GPRMC,152628,A,4303.2778,N,07038.3348,W,000.6,131.1,030712,016.1,W*77
POS 0 41188.000 366532.017 4768184.768
QUA 0 41188.000 7 9.000 1.000 9.000 1.000 0.000 0.000 0.000
RAW 0 41188.000 4 430327.78000 -703833.48000 -23.10000 152628.00000
MSG 0 41107.999 $GPGGA,152628,4303.2778,N,07038.3348,W,1,09,1.0,9.3,M,-32.4,M,,*7E
MSG 0 41108.141 $GPGSA,A,3,,06,,14,16,20,,25,29,30,31,32,1.7,1.0,1.4*3A
MSG 0 41108.259 $GPGSV,3,2,12,16,45,214,46,20,31,276,46,23,26,312,36,25,12,046,42*79
MSG 0 41108.405 $PGRME,5.0,M,6.5,M,8.2,M*22
MSG 0 41108.465 $PGRMB,0.0,200,,,,K,,N,N*31
MSG 0 41108.526 $PGRMM,WGS 84*06
MSG 0 41108.852 $GPRMC,152629,A,4303.2777,N,07038.3345,W,000.8,118.1,030712,016.1,W*71
POS 0 41189.000 366532.421 4768184.575
QUA 0 41189.000 7 9.000 1.000 9.000 1.000 0.000 0.000 0.000
RAW 0 41189.000 4 430327.77000 -703833.45000 -22.90000 152629.00000
MSG 0 41109.002 $GPGGA,152629,4303.2777,N,07038.3345,W,1,09,1.0,9.5,M,-32.4,M,,*7B
MSG 0 41109.143 $GPGSA,A,3,,06,,14,16,20,,25,29,30,31,32,1.7,1.0,1.4*3A
MSG 0 41109.262 $GPGSV,3,3,12,29,25,060,48,30,75,216,48,31,59,057,50,32,38,243,44*72
MSG 0 41109.408 $PGRME,5.0,M,6.5,M,8.2,M*22
MSG 0 41109.468 $PGRMB,0.0,200,,,,K,,N,N*31
MSG 0 41109.528 $PGRMM,WGS 84*06
MSG 0 41109.861 $GPRMC,152630,A,4303.2777,N,07038.3344,W,000.4,103.8,030712,016.1,W*77
POS 0 41190.000 366532.556 4768184.572
QUA 0 41190.000 7 9.000 1.000 9.000 1.000 0.000 0.000 0.000
RAW 0 41190.000 4 430327.77000 -703833.44000 -22.50000 152630.00000
MSG 0 41110.011 $GPGGA,152630,4303.2777,N,07038.3344,W,1,09,1.0,9.9,M,-32.4,M,,*7E
MSG 0 41110.153 $GPGSA,A,3,,06,,14,16,20,,25,29,30,31,32,1.7,1.0,1.4*3A
MSG 0 41110.271 $GPGSV,3,1,12,03,00,186,33,06,08,172,42,11,00,235,34,14,20,134,43*7D
MSG 0 41110.417 $PGRME,5.0,M,6.5,M,8.2,M*22
MSG 0 41110.478 $PGRMB,0.0,200,,,,K,,N,N*31
MSG 0 41110.538 $PGRMM,WGS 84*06
MSG 0 41110.843 $GPRMC,152631,A,4303.2778,N,07038.3345,W,000.0,103.8,030712,016.1,W*7C
POS 0 41191.000 366532.424 4768184.760
QUA 0 41191.000 7 9.000 1.000 9.000 1.000 0.000 0.000 0.000
RAW 0 41191.000 4 430327.78000 -703833.45000 -22.20000 152631.00000
MSG 0 41110.993 $GPGGA,152631,4303.2778,N,07038.3345,W,1,09,1.0,10.2,M,-32.4,M,,*42
MSG 0 41111.137 $GPGSA,A,3,,06,,14,16,20,,25,29,30,31,32,1.7,1.0,1.4*3A
MSG 0 41111.255 $GPGSV,3,2,12,16,45,214,46,20,31,276,46,23,26,312,37,25,12,046,41*7B
MSG 0 41111.401 $PGRME,5.0,M,6.5,M,8.2,M*22
MSG 0 41111.462 $PGRMB,0.0,200,,,,K,,N,N*31
MSG 0 41111.522 $PGRMM,WGS 84*06
MSG 0 41111.849 $GPRMC,152632,A,4303.2777,N,07038.3345,W,000.1,103.8,030712,016.1,W*71
POS 0 41192.000 366532.421 4768184.575
QUA 0 41192.000 7 9.000 1.000 9.000 1.000 0.000 0.000 0.000
RAW 0 41192.000 4 430327.77000 -703833.45000 -22.40000 152632.00000
MSG 0 41111.999 $GPGGA,152632,4303.2777,N,07038.3345,W,1,09,1.0,10.0,M,-32.4,M,,*4C
MSG 0 41112.143 $GPGSA,A,3,,06,,14,16,20,,25,29,30,31,32,1.7,1.0,1.4*3A
MSG 0 41112.261 $GPGSV,3,3,12,29,25,060,47,30,75,216,49,31,59,057,50,32,38,243,43*7B
MSG 0 41112.407 $PGRME,5.0,M,6.5,M,8.2,M*22
MSG 0 41112.467 $PGRMB,0.0,200,,,,K,,N,N*31
MSG 0 41112.528 $PGRMM,WGS 84*06
MSG 0 41112.861 $GPRMC,152633,A,4303.2778,N,07038.3344,W,000.2,103.8,030712,016.1,W*7D
POS 0 41193.000 366532.560 4768184.757
QUA 0 41193.000 7 9.000 1.000 9.000 1.000 0.000 0.000 0.000
RAW 0 41193.000 4 430327.78000 -703833.44000 -22.80000 152633.00000
MSG 0 41113.011 $GPGGA,152633,4303.2778,N,07038.3344,W,1,09,1.0,9.6,M,-32.4,M,,*7D
MSG 0 41113.153 $GPGSA,A,3,,06,,14,16,20,,25,29,30,31,32,1.7,1.0,1.4*3A
MSG 0 41113.271 $GPGSV,3,1,12,03,00,186,33,06,08,172,42,11,00,235,34,14,20,135,44*7B
MSG 0 41113.417 $PGRME,5.0,M,6.5,M,8.2,M*22
MSG 0 41113.478 $PGRMB,0.0,200,,,,K,,N,N*31
MSG 0 41113.538 $PGRMM,WGS 84*06
MSG 0 41113.847 $GPRMC,152634,A,4303.2776,N,07038.3342,W,000.5,131.3,030712,016.1,W*7F
POS 0 41194.000 366532.824 4768184.382
QUA 0 41194.000 7 9.000 1.000 9.000 1.000 0.000 0.000 0.000
RAW 0 41194.000 4 430327.76000 -703833.42000 -23.00000 152634.00000
MSG 0 41113.997 $GPGGA,152634,4303.2776,N,07038.3342,W,1,09,1.0,9.4,M,-32.4,M,,*70
MSG 0 41114.139 $GPGSA,A,3,,06,,14,16,20,,25,29,30,31,32,1.7,1.0,1.4*3A
MSG 0 41114.258 $GPGSV,3,2,12,16,45,214,47,20,31,276,46,23,26,312,37,25,12,046,43*78
MSG 0 41114.403 $PGRME,5.0,M,6.5,M,8.2,M*22
MSG 0 41114.464 $PGRMT,GPS 17-HVS Ver. 2.80,P,P,R,R,P,,38,R*00
MSG 0 41114.564 $PGRMB,0.0,200,,,,K,,N,N*31
MSG 0 41114.624 $PGRMM,WGS 84*06
MSG 0 41114.859 $GPRMC,152635,A,4303.2775,N,07038.3341,W,000.3,135.8,030712,016.1,W*77
POS 0 41195.000 366532.956 4768184.194
QUA 0 41195.000 7 9.000 1.000 9.000 1.000 0.000 0.000 0.000
RAW 0 41195.000 4 430327.75000 -703833.41000 -22.80000 152635.00000
MSG 0 41115.009 $GPGGA,152635,4303.2775,N,07038.3341,W,1,09,1.0,9.6,M,-32.4,M,,*73
MSG 0 41115.151 $GPGSA,A,3,,06,,14,16,20,,25,29,30,31,32,1.7,1.0,1.4*3A
MSG 0 41115.270 $GPGSV,3,3,12,29,25,060,48,30,75,216,49,31,59,057,50,32,38,243,43*74
MSG 0 41115.415 $PGRME,5.0,M,6.5,M,8.2,M*22
MSG 0 41115.476 $PGRMB,0.0,200,,,,K,,N,N*31
MSG 0 41115.536 $PGRMM,WGS 84*06
MSG 0 41115.849 $GPRMC,152636,A,4303.2774,N,07038.3339,W,000.6,126.2,030712,016.1,W*77
POS 0 41196.000 366533.224 4768184.004
QUA 0 41196.000 7 9.000 1.000 9.000 1.000 0.000 0.000 0.000
RAW 0 41196.000 4 430327.74000 -703833.39000 -22.70000 152636.00000
MSG 0 41115.999 $GPGGA,152636,4303.2774,N,07038.3339,W,1,09,1.0,9.7,M,-32.4,M,,*7F
MSG 0 41116.141 $GPGSA,A,3,,06,,14,16,20,,25,29,30,31,32,1.7,1.0,1.4*3A
MSG 0 41116.259 $GPGSV,3,1,12,03,00,186,32,06,08,172,42,11,00,235,34,14,20,135,44*7A
MSG 0 41116.405 $PGRME,5.0,M,6.5,M,8.2,M*22
MSG 0 41116.465 $PGRMB,0.0,200,,,,K,,N,N*31
MSG 0 41116.526 $PGRMM,WGS 84*06
MSG 0 41116.883 $GPRMC,152637,A,4303.2774,N,07038.3335,W,000.7,108.5,030712,016.1,W*70
POS 0 41197.000 366533.767 4768183.993
QUA 0 41197.000 7 9.000 1.000 9.000 1.000 0.000 0.000 0.000
RAW 0 41197.000 4 430327.74000 -703833.35000 -22.80000 152637.00000
MSG 0 41117.033 $GPGGA,152637,4303.2774,N,07038.3335,W,1,09,1.0,9.6,M,-32.4,M,,*73
MSG 0 41117.175 $GPGSA,A,3,,06,,14,16,20,,25,29,30,31,32,1.7,1.0,1.4*3A
MSG 0 41117.294 $GPGSV,3,2,12,16,45,214,49,20,31,276,46,23,26,312,37,25,12,046,42*77
MSG 0 41117.439 $PGRME,5.0,M,6.5,M,8.2,M*22
MSG 0 41117.500 $PGRMB,0.0,200,,,,K,,N,N*31
MSG 0 41117.560 $PGRMM,WGS 84*06
MSG 0 41117.843 $GPRMC,152638,A,4303.2774,N,07038.3337,W,000.0,108.5,030712,016.1,W*7A
POS 0 41198.000 366533.496 4768183.998
QUA 0 41198.000 7 9.000 1.000 9.000 1.000 0.000 0.000 0.000
RAW 0 41198.000 4 430327.74000 -703833.37000 -22.50000 152638.00000
MSG 0 41117.993 $GPGGA,152638,4303.2774,N,07038.3337,W,1,09,1.0,9.9,M,-32.4,M,,*71
MSG 0 41118.135 $GPGSA,A,3,,06,,14,16,20,,25,29,30,31,32,1.7,1.0,1.4*3A
MSG 0 41118.254 $GPGSV,3,3,12,29,25,060,48,30,75,216,49,31,59,057,50,32,38,243,44*73
MSG 0 41118.399 $PGRME,5.0,M,6.5,M,8.2,M*22
MSG 0 41118.460 $PGRMB,0.0,200,,,,K,,N,N*31
MSG 0 41118.520 $PGRMM,WGS 84*06
MSG 0 41118.871 $GPRMC,152639,A,4303.2773,N,07038.3336,W,000.3,141.7,030712,016.1,W*71
POS 0 41199.000 366533.628 4768183.810
QUA 0 41199.000 7 9.000 1.000 9.000 1.000 0.000 0.000 0.000
RAW 0 41199.000 4 430327.73000 -703833.36000 -22.40000 152639.00000
MSG 0 41119.021 $GPGGA,152639,4303.2773,N,07038.3336,W,1,09,1.0,10.0,M,-32.4,M,,*47
MSG 0 41119.165 $GPGSA,A,3,,06,,14,16,20,,25,29,30,31,32,1.7,1.0,1.4*3A
MSG 0 41119.284 $GPGSV,3,1,12,03,00,186,33,06,08,172,42,11,00,235,34,14,20,135,44*7B
MSG 0 41119.429 $PGRME,5.0,M,6.5,M,8.2,M*22
MSG 0 41119.490 $PGRMB,0.0,200,,,,K,,N,N*31
MSG 0 41119.550 $PGRMM,WGS 84*06
MSG 0 41119.861 $GPRMC,152640,A,4303.2773,N,07038.3333,W,000.4,095.3,030712,016.1,W*71
POS 0 41200.000 366534.035 4768183.803
QUA 0 41200.000 7 9.000 1.000 9.000 1.000 0.000 0.000 0.000
RAW 0 41200.000 4 430327.73000 -703833.33000 -22.60000 152640.00000
MSG 0 41120.011 $GPGGA,152640,4303.2773,N,07038.3333,W,1,09,1.0,9.8,M,-32.4,M,,*7C
MSG 0 41120.153 $GPGSA,A,3,,06,,14,16,20,,25,29,30,31,32,1.7,1.0,1.4*3A
MSG 0 41120.271 $GPGSV,3,2,12,16,46,215,49,20,31,276,46,23,26,312,37,25,12,046,41*76
MSG 0 41120.417 $PGRME,5.0,M,6.5,M,8.2,M*22
MSG 0 41120.477 $PGRMB,0.0,200,,,,K,,N,N*31
MSG 0 41120.538 $PGRMM,WGS 84*06
MSG 0 41120.861 $GPRMC,152641,A,4303.2772,N,07038.3333,W,000.3,140.2,030712,016.1,W*7E
POS 0 41201.000 366534.031 4768183.617
QUA 0 41201.000 7 9.000 1.000 9.000 1.000 0.000 0.000 0.000
RAW 0 41201.000 4 430327.72000 -703833.33000 -22.60000 152641.00000
MSG 0 41121.011 $GPGGA,152641,4303.2772,N,07038.3333,W,1,09,1.0,9.8,M,-32.4,M,,*7C
MSG 0 41121.152 $GPGSA,A,3,,06,,14,16,20,,25,29,30,31,32,1.7,1.0,1.4*3A
MSG 0 41121.271 $GPGSV,3,3,12,29,25,060,47,30,75,216,49,31,59,057,50,32,38,243,45*7D
MSG 0 41121.417 $PGRME,5.0,M,6.5,M,8.2,M*22
MSG 0 41121.477 $PGRMB,0.0,200,,,,K,,N,N*31
MSG 0 41121.538 $PGRMM,WGS 84*06
MSG 0 41121.849 $GPRMC,152642,A,4303.2772,N,07038.3333,W,000.2,134.0,030712,016.1,W*7D
POS 0 41202.000 366534.031 4768183.617
QUA 0 41202.000 7 9.000 1.000 9.000 1.000 0.000 0.000 0.000
RAW 0 41202.000 4 430327.72000 -703833.33000 -22.60000 152642.00000
MSG 0 41121.999 $GPGGA,152642,4303.2772,N,07038.3333,W,1,09,1.0,9.8,M,-32.4,M,,*7F
MSG 0 41122.140 $GPGSA,A,3,,06,,14,16,20,,25,29,30,31,32,1.7,1.0,1.4*3A
MSG 0 41122.259 $GPGSV,3,1,12,03,00,186,33,06,08,172,42,11,00,235,34,14,20,135,45*7A
MSG 0 41122.405 $PGRME,5.0,M,6.5,M,8.2,M*22
MSG 0 41122.465 $PGRMB,0.0,200,,,,K,,N,N*31
MSG 0 41122.526 $PGRMM,WGS 84*06
MSG 0 41122.849 $GPRMC,152643,A,4303.2771,N,07038.3327,W,000.8,111.0,030712,016.1,W*77
POS 0 41203.000 366534.842 4768183.416
QUA 0 41203.000 7 9.000 1.000 9.000 1.000 0.000 0.000 0.000
RAW 0 41203.000 4 430327.71000 -703833.27000 -22.90000 152643.00000
MSG 0 41122.999 $GPGGA,152643,4303.2771,N,07038.3327,W,1,09,1.0,9.5,M,-32.4,M,,*75
MSG 0 41123.140 $GPGSA,A,3,,06,,14,16,20,,25,29,30,31,32,1.7,1.0,1.4*3A
MSG 0 41123.259 $GPGSV,3,2,12,16,46,215,49,20,31,276,45,23,26,312,36,25,12,046,41*74
MSG 0 41123.405 $PGRME,5.0,M,6.5,M,8.2,M*22
MSG 0 41123.465 $PGRMB,0.0,200,,,,K,,N,N*31
MSG 0 41123.526 $PGRMM,WGS 84*06
MSG 0 41123.862 $GPRMC,152644,A,4303.2771,N,07038.3328,W,000.3,124.2,030712,016.1,W*70
POS 0 41204.000 366534.706 4768183.419
QUA 0 41204.000 7 9.000 1.000 9.000 1.000 0.000 0.000 0.000
RAW 0 41204.000 4 430327.71000 -703833.28000 -22.70000 152644.00000
MSG 0 41124.012 $GPGGA,152644,4303.2771,N,07038.3328,W,1,09,1.0,9.7,M,-32.4,M,,*7F
MSG 0 41124.154 $GPGSA,A,3,,06,,14,16,20,,25,29,30,31,32,1.7,1.0,1.4*3A
MSG 0 41124.272 $GPGSV,3,3,12,29,25,060,47,30,75,216,49,31,59,057,51,32,38,243,46*7F
MSG 0 41124.418 $PGRME,5.0,M,6.5,M,8.2,M*22
MSG 0 41124.479 $PGRMB,0.0,200,,,,K,,N,N*31
MSG 0 41124.539 $PGRMM,WGS 84*06
MSG 0 41124.848 $GPRMC,152645,A,4303.2771,N,07038.3327,W,000.3,107.2,030712,016.1,W*7F
POS 0 41205.000 366534.842 4768183.416
QUA 0 41205.000 7 9.000 1.000 9.000 1.000 0.000 0.000 0.000
RAW 0 41205.000 4 430327.71000 -703833.27000 -22.40000 152645.00000
MSG 0 41124.998 $GPGGA,152645,4303.2771,N,07038.3327,W,1,09,1.0,10.0,M,-32.4,M,,*4E
MSG 0 41125.142 $GPGSA,A,3,,06,,14,16,20,,25,29,30,31,32,1.7,1.0,1.4*3A
MSG 0 41125.260 $GPGSV,3,1,12,03,00,186,33,06,08,172,42,11,00,235,34,14,19,135,45*70
MSG 0 41125.406 $PGRME,5.0,M,6.5,M,8.2,M*22
MSG 0 41125.466 $PGRMB,0.0,200,,,,K,,N,N*31
MSG 0 41125.527 $PGRMM,WGS 84*06
MSG 0 41125.863 $GPRMC,152646,A,4303.2770,N,07038.3326,W,000.3,136.7,030712,016.1,W*7B
POS 0 41206.000 366534.974 4768183.229
QUA 0 41206.000 7 9.000 1.000 9.000 1.000 0.000 0.000 0.000
RAW 0 41206.000 4 430327.70000 -703833.26000 -22.40000 152646.00000
MSG 0 41126.013 $GPGGA,152646,4303.2770,N,07038.3326,W,1,09,1.0,10.0,M,-32.4,M,,*4D
MSG 0 41126.157 $GPGSA,A,3,,06,,14,16,20,,25,29,30,31,32,1.7,1.0,1.4*3A
MSG 0 41126.275 $GPGSV,3,2,12,16,46,215,49,20,31,276,46,23,26,312,37,25,12,046,39*79
MSG 0 41126.421 $PGRME,5.0,M,6.5,M,8.2,M*22
MSG 0 41126.482 $PGRMB,0.0,200,,,,K,,N,N*31
MSG 0 41126.542 $PGRMM,WGS 84*06
MSG 0 41126.848 $GPRMC,152647,A,4303.2770,N,07038.3324,W,000.4,096.0,030712,016.1,W*73
POS 0 41207.000 366535.246 4768183.223
QUA 0 41207.000 7 9.000 1.000 9.000 1.000 0.000 0.000 0.000
RAW 0 41207.000 4 430327.70000 -703833.24000 -22.60000 152647.00000
MSG 0 41126.998 $GPGGA,152647,4303.2770,N,07038.3324,W,1,09,1.0,9.8,M,-32.4,M,,*7E
MSG 0 41127.140 $GPGSA,A,3,,06,,14,16,20,,25,29,30,31,32,1.7,1.0,1.4*3A
MSG 0 41127.258 $GPGSV,3,3,12,29,25,060,47,30,75,216,49,31,59,057,51,32,38,243,46*7F
MSG 0 41127.404 $PGRME,5.0,M,6.5,M,8.2,M*22
MSG 0 41127.464 $PGRMB,0.0,200,,,,K,,N,N*31
MSG 0 41127.525 $PGRMM,WGS 84*06
MSG 0 41127.849 $GPRMC,152648,A,4303.2768,N,07038.3325,W,000.4,163.7,030712,016.1,W*78
POS 0 41208.000 366535.103 4768182.856
QUA 0 41208.000 7 9.000 1.000 9.000 1.000 0.000 0.000 0.000
RAW 0 41208.000 4 430327.68000 -703833.25000 -22.80000 152648.00000
MSG 0 41127.999 $GPGGA,152648,4303.2768,N,07038.3325,W,1,09,1.0,9.6,M,-32.4,M,,*77
MSG 0 41128.140 $GPGSA,A,3,,06,,14,16,20,,25,29,30,31,32,1.7,1.0,1.4*3A
MSG 0 41128.259 $GPGSV,3,1,12,03,00,186,33,06,08,172,42,11,00,235,34,14,19,135,43*76
MSG 0 41128.405 $PGRME,5.0,M,6.5,M,8.2,M*22
MSG 0 41128.465 $PGRMB,0.0,200,,,,K,,N,N*31
MSG 0 41128.525 $PGRMM,WGS 84*06
MSG 0 41128.861 $GPRMC,152649,A,4303.2768,N,07038.3322,W,000.5,106.7,030712,016.1,W*7C
POS 0 41209.000 366535.510 4768182.848
QUA 0 41209.000 7 9.000 1.000 9.000 1.000 0.000 0.000 0.000
RAW 0 41209.000 4 430327.68000 -703833.22000 -22.70000 152649.00000
MSG 0 41129.011 $GPGGA,152649,4303.2768,N,07038.3322,W,1,09,1.0,9.7,M,-32.4,M,,*70
MSG 0 41129.152 $GPGSA,A,3,,06,,14,16,20,,25,29,30,31,32,1.7,1.0,1.4*3A
MSG 0 41129.271 $GPGSV,3,2,12,16,46,215,48,20,31,276,47,23,26,312,36,25,12,046,40*76
MSG 0 41129.417 $PGRME,5.0,M,6.5,M,8.2,M*22
MSG 0 41129.477 $PGRMB,0.0,200,,,,K,,N,N*31
MSG 0 41129.538 $PGRMM,WGS 84*06
MSG 0 41129.848 $GPRMC,152650,A,4303.2766,N,07038.3320,W,000.7,131.9,030712,016.1,W*70
POS 0 41210.000 366535.774 4768182.472
QUA 0 41210.000 7 9.000 1.000 9.000 1.000 0.000 0.000 0.000
RAW 0 41210.000 4 430327.66000 -703833.20000 -22.80000 152650.00000
MSG 0 41129.998 $GPGGA,152650,4303.2766,N,07038.3320,W,1,09,1.0,9.6,M,-32.4,M,,*75
MSG 0 41130.139 $GPGSA,A,3,,06,,14,16,20,,25,29,30,31,32,1.7,1.0,1.4*3A
MSG 0 41130.258 $GPGSV,3,3,12,29,25,060,47,30,75,216,48,31,59,057,51,32,38,243,47*7F
MSG 0 41130.404 $PGRME,5.0,M,6.5,M,8.2,M*22
MSG 0 41130.464 $PGRMB,0.0,200,,,,K,,N,N*31
MSG 0 41130.525 $PGRMM,WGS 84*06
MSG 0 41130.870 $GPRMC,152651,A,4303.2767,N,07038.3317,W,000.5,104.9,030712,016.1,W*70
POS 0 41211.000 366536.185 4768182.650
QUA 0 41211.000 7 9.000 1.000 9.000 1.000 0.000 0.000 0.000
RAW 0 41211.000 4 430327.67000 -703833.17000 -22.60000 152651.00000
MSG 0 41131.020 $GPGGA,152651,4303.2767,N,07038.3317,W,1,09,1.0,9.8,M,-32.4,M,,*7F
MSG 0 41131.161 $GPGSA,A,3,,06,,14,16,20,,25,29,30,31,32,1.7,1.0,1.4*3A
MSG 0 41131.280 $GPGSV,3,1,12,03,00,186,33,06,08,172,43,11,00,235,34,14,19,135,45*71
MSG 0 41131.426 $PGRME,5.0,M,6.5,M,8.2,M*22
MSG 0 41131.486 $PGRMB,0.0,200,,,,K,,N,N*31
MSG 0 41131.547 $PGRMM,WGS 84*06
MSG 0 41131.868 $GPRMC,152652,A,4303.2767,N,07038.3318,W,000.1,104.9,030712,016.1,W*78
POS 0 41212.000 366536.049 4768182.652
QUA 0 41212.000 7 9.000 1.000 9.000 1.000 0.000 0.000 0.000
RAW 0 41212.000 4 430327.67000 -703833.18000 -22.50000 152652.00000
MSG 0 41132.018 $GPGGA,152652,4303.2767,N,07038.3318,W,1,09,1.0,9.9,M,-32.4,M,,*72
MSG 0 41132.159 $GPGSA,A,3,,06,,14,16,20,,25,29,30,31,32,1.7,1.0,1.4*3A
MSG 0 41132.278 $GPGSV,3,2,12,16,46,215,48,20,31,276,47,23,26,312,36,25,12,046,41*77
MSG 0 41132.424 $PGRME,5.0,M,6.5,M,8.2,M*22
MSG 0 41132.484 $PGRMB,0.0,200,,,,K,,N,N*31
MSG 0 41132.544 $PGRMM,WGS 84*06
MSG 0 41132.885 $GPRMC,152653,A,4303.2766,N,07038.3315,W,000.5,113.7,030712,016.1,W*79
POS 0 41213.000 366536.453 4768182.459
QUA 0 41213.000 7 9.000 1.000 9.000 1.000 0.000 0.000 0.000
RAW 0 41213.000 4 430327.66000 -703833.15000 -22.70000 152653.00000
MSG 0 41133.035 $GPGGA,152653,4303.2766,N,07038.3315,W,1,09,1.0,9.7,M,-32.4,M,,*71
MSG 0 41133.176 $GPGSA,A,3,,06,,14,16,20,,25,29,30,31,32,1.7,1.0,1.4*3A
MSG 0 41133.295 $GPGSV,3,3,12,29,25,060,47,30,75,216,48,31,59,057,52,32,38,243,47*7C
MSG 0 41133.441 $PGRME,5.0,M,6.5,M,8.2,M*22
MSG 0 41133.501 $PGRMB,0.0,200,,,,K,,N,N*31
MSG 0 41133.561 $PGRMM,WGS 84*06
MSG 0 41133.903 $GPRMC,152654,A,4303.2767,N,07038.3315,W,000.3,089.7,030712,016.1,W*7B
POS 0 41214.000 366536.456 4768182.644
QUA 0 41214.000 7 9.000 1.000 9.000 1.000 0.000 0.000 0.000
RAW 0 41214.000 4 430327.67000 -703833.15000 -22.70000 152654.00000
MSG 0 41134.053 $GPGGA,152654,4303.2767,N,07038.3315,W,1,09,1.0,9.7,M,-32.4,M,,*77
MSG 0 41134.194 $GPGSA,A,3,,06,,14,16,20,,25,29,30,31,32,1.7,1.0,1.4*3A
MSG 0 41134.313 $GPGSV,3,1,12,03,00,186,00,06,08,172,43,11,00,235,34,14,19,135,45*71
MSG 0 41134.459 $PGRME,5.0,M,6.5,M,8.2,M*22
MSG 0 41134.519 $PGRMB,0.0,200,,,,K,,N,N*31
MSG 0 41134.580 $PGRMM,WGS 84*06
MSG 0 41134.863 $GPRMC,152655,A,4303.2765,N,07038.3316,W,000.3,178.8,030712,016.1,W*7B
POS 0 41215.000 366536.313 4768182.277
QUA 0 41215.000 7 9.000 1.000 9.000 1.000 0.000 0.000 0.000
RAW 0 41215.000 4 430327.65000 -703833.16000 -22.70000 152655.00000
MSG 0 41135.013 $GPGGA,152655,4303.2765,N,07038.3316,W,1,09,1.0,9.7,M,-32.4,M,,*77
MSG 0 41135.154 $GPGSA,A,3,,06,,14,16,20,,25,29,30,31,32,1.7,1.0,1.4*3A
MSG 0 41135.273 $GPGSV,3,2,12,16,46,215,48,20,30,275,46,23,26,312,37,25,12,046,39*7A
MSG 0 41135.419 $PGRME,5.0,M,6.5,M,8.2,M*22
MSG 0 41135.479 $PGRMB,0.0,200,,,,K,,N,N*31
MSG 0 41135.539 $PGRMM,WGS 84*06
MSG 0 41135.865 $GPRMC,152656,A,4303.2765,N,07038.3313,W,000.4,101.6,030712,016.1,W*7A
POS 0 41216.000 366536.721 4768182.269
QUA 0 41216.000 7 9.000 1.000 9.000 1.000 0.000 0.000 0.000
RAW 0 41216.000 4 430327.65000 -703833.13000 -23.10000 152656.00000
MSG 0 41136.015 $GPGGA,152656,4303.2765,N,07038.3313,W,1,09,1.0,9.3,M,-32.4,M,,*75
MSG 0 41136.157 $GPGSA,A,3,,06,,14,16,20,,25,29,30,31,32,1.7,1.0,1.4*3A
MSG 0 41136.276 $GPGSV,3,3,12,29,25,060,48,30,75,216,48,31,59,057,51,32,38,243,46*71
MSG 0 41136.421 $PGRME,5.0,M,6.5,M,8.2,M*22
MSG 0 41136.482 $PGRMB,0.0,200,,,,K,,N,N*31
MSG 0 41136.542 $PGRMM,WGS 84*06
MSG 0 41136.861 $GPRMC,152657,A,4303.2763,N,07038.3308,W,000.9,121.4,030712,016.1,W*7A
POS 0 41217.000 366537.392 4768181.885
QUA 0 41217.000 7 9.000 1.000 9.000 1.000 0.000 0.000 0.000
RAW 0 41217.000 4 430327.63000 -703833.08000 -23.20000 152657.00000
MSG 0 41137.011 $GPGGA,152657,4303.2763,N,07038.3308,W,1,09,1.0,9.2,M,-32.4,M,,*79
MSG 0 41137.152 $GPGSA,A,3,,06,,14,16,20,,25,29,30,31,32,1.7,1.0,1.4*3A
MSG 0 41137.271 $GPGSV,3,1,12,03,00,186,32,06,08,172,42,11,00,235,34,14,19,135,44*70
MSG 0 41137.417 $PGRME,5.0,M,6.5,M,8.2,M*22
MSG 0 41137.477 $PGRMB,0.0,200,,,,K,,N,N*31
MSG 0 41137.538 $PGRMM,WGS 84*06
MSG 0 41137.860 $GPRMC,152658,A,4303.2763,N,07038.3309,W,000.3,120.6,030712,016.1,W*7D
POS 0 41218.000 366537.256 4768181.888
QUA 0 41218.000 7 9.000 1.000 9.000 1.000 0.000 0.000 0.000
RAW 0 41218.000 4 430327.63000 -703833.09000 -22.80000 152658.00000
MSG 0 41138.010 $GPGGA,152658,4303.2763,N,07038.3309,W,1,09,1.0,9.6,M,-32.4,M,,*73
MSG 0 41138.152 $GPGSA,A,3,,06,,14,16,20,,25,29,30,31,32,1.7,1.0,1.4*3A
MSG 0 41138.271 $GPGSV,3,2,12,16,46,215,49,20,30,275,46,23,26,312,36,25,12,046,40*74
MSG 0 41138.416 $PGRME,5.0,M,6.5,M,8.2,M*22
MSG 0 41138.477 $PGRMB,0.0,200,,,,K,,N,N*31
MSG 0 41138.537 $PGRMM,WGS 84*06
MSG 0 41138.852 $GPRMC,152659,A,4303.2763,N,07038.3308,W,000.4,131.9,030712,016.1,W*75
POS 0 41219.000 366537.392 4768181.885
QUA 0 41219.000 7 9.000 1.000 9.000 1.000 0.000 0.000 0.000
RAW 0 41219.000 4 430327.63000 -703833.08000 -22.50000 152659.00000
MSG 0 41139.002 $GPGGA,152659,4303.2763,N,07038.3308,W,1,09,1.0,9.9,M,-32.4,M,,*7C
MSG 0 41139.143 $GPGSA,A,3,,06,,14,16,20,,25,29,30,31,32,1.7,1.0,1.4*3A
MSG 0 41139.262 $GPGSV,3,3,12,29,25,060,49,30,75,216,48,31,59,057,51,32,38,243,46*70
MSG 0 41139.408 $PGRME,5.0,M,6.5,M,8.2,M*22
MSG 0 41139.468 $PGRMB,0.0,200,,,,K,,N,N*31
MSG 0 41139.528 $PGRMM,WGS 84*06
MSG 0 41139.885 $GPRMC,152700,A,4303.2762,N,07038.3305,W,000.6,105.7,030712,016.1,W*7F
POS 0 41220.000 366537.796 4768181.692
QUA 0 41220.000 7 9.000 1.000 9.000 1.000 0.000 0.000 0.000
RAW 0 41220.000 4 430327.62000 -703833.05000 -22.50000 152700.00000
MSG 0 41140.034 $GPGGA,152700,4303.2762,N,07038.3305,W,1,09,1.0,9.9,M,-32.4,M,,*7D
MSG 0 41140.176 $GPGSA,A,3,,06,,14,16,20,,25,29,30,31,32,1.7,1.0,1.4*3A
MSG 0 41140.295 $GPGSV,3,1,12,03,00,186,32,06,08,172,42,11,00,235,34,14,19,135,44*70
MSG 0 41140.440 $PGRME,5.0,M,6.5,M,8.2,M*22
MSG 0 41140.501 $PGRMB,0.0,200,,,,K,,N,N*31
MSG 0 41140.561 $PGRMM,WGS 84*06
MSG 0 41140.862 $GPRMC,152701,A,4303.2762,N,07038.3306,W,000.2,105.7,030712,016.1,W*79
POS 0 41221.000 366537.660 4768181.695
QUA 0 41221.000 7 9.000 1.000 9.000 1.000 0.000 0.000 0.000
RAW 0 41221.000 4 430327.62000 -703833.06000 -22.70000 152701.00000
MSG 0 41141.012 $GPGGA,152701,4303.2762,N,07038.3306,W,1,09,1.0,9.7,M,-32.4,M,,*71
MSG 0 41141.154 $GPGSA,A,3,,06,,14,16,20,,25,29,30,31,32,1.7,1.0,1.4*3A
MSG 0 41141.273 $GPGSV,3,2,12,16,46,215,49,20,30,275,47,23,26,312,37,25,12,046,39*7A
MSG 0 41141.418 $PGRME,5.0,M,6.5,M,8.2,M*22
MSG 0 41141.479 $PGRMB,0.0,200,,,,K,,N,N*31
MSG 0 41141.539 $PGRMM,WGS 84*06
MSG 0 41141.850 $GPRMC,152702,A,4303.2763,N,07038.3305,W,000.2,080.6,030712,016.1,W*75
POS 0 41222.000 366537.799 4768181.877
QUA 0 41222.000 7 9.000 1.000 9.000 1.000 0.000 0.000 0.000
RAW 0 41222.000 4 430327.63000 -703833.05000 -23.00000 152702.00000
MSG 0 41142.000 $GPGGA,152702,4303.2763,N,07038.3305,W,1,09,1.0,9.4,M,-32.4,M,,*73
MSG 0 41142.142 $GPGSA,A,3,,06,,14,16,20,,25,29,30,31,32,1.7,1.0,1.4*3A
MSG 0 41142.261 $GPGSV,3,3,12,29,25,060,48,30,75,216,48,31,59,057,50,32,38,243,45*73
MSG 0 41142.406 $PGRME,5.0,M,6.5,M,8.2,M*22
MSG 0 41142.467 $PGRMB,0.0,200,,,,K,,N,N*31
MSG 0 41142.527 $PGRMM,WGS 84*06
MSG 0 41142.852 $GPRMC,152703,A,4303.2760,N,07038.3301,W,000.7,122.7,030712,016.1,W*7E
POS 0 41223.000 366538.331 4768181.312
QUA 0 41223.000 7 9.000 1.000 9.000 1.000 0.000 0.000 0.000
RAW 0 41223.000 4 430327.60000 -703833.01000 -23.20000 152703.00000
MSG 0 41143.002 $GPGGA,152703,4303.2760,N,07038.3301,W,1,09,1.0,9.2,M,-32.4,M,,*73
MSG 0 41143.143 $GPGSA,A,3,,06,,14,16,20,,25,29,30,31,32,1.7,1.0,1.4*3A
MSG 0 41143.262 $GPGSV,3,1,12,03,00,186,33,06,08,172,41,11,00,235,34,14,19,135,45*73
MSG 0 41143.408 $PGRME,5.0,M,6.5,M,8.2,M*22
MSG 0 41143.468 $PGRMB,0.0,200,,,,K,,N,N*31
MSG 0 41143.529 $PGRMM,WGS 84*06
MSG 0 41143.860 $GPRMC,152704,A,4303.2760,N,07038.3300,W,000.5,121.0,030712,016.1,W*7E
POS 0 41224.000 366538.467 4768181.309
QUA 0 41224.000 7 9.000 1.000 9.000 1.000 0.000 0.000 0.000
RAW 0 41224.000 4 430327.60000 -703833.00000 -22.80000 152704.00000
MSG 0 41144.010 $GPGGA,152704,4303.2760,N,07038.3300,W,1,09,1.0,9.6,M,-32.4,M,,*71
MSG 0 41144.152 $GPGSA,A,3,,06,,14,16,20,,25,29,30,31,32,1.7,1.0,1.4*3A
MSG 0 41144.270 $GPGSV,3,2,12,16,46,215,48,20,30,275,47,23,26,312,37,25,12,046,40*75
MSG 0 41144.416 $PGRME,5.0,M,6.5,M,8.2,M*22
MSG 0 41144.477 $PGRMB,0.0,200,,,,K,,N,N*31
MSG 0 41144.537 $PGRMM,WGS 84*06
MSG 0 41144.847 $GPRMC,152705,A,4303.2760,N,07038.3299,W,000.4,113.4,030712,016.1,W*7A
POS 0 41225.000 366538.603 4768181.306
QUA 0 41225.000 7 9.000 1.000 9.000 1.000 0.000 0.000 0.000
RAW 0 41225.000 4 430327.60000 -703832.99000 -22.60000 152705.00000
MSG 0 41144.997 $GPGGA,152705,4303.2760,N,07038.3299,W,1,09,1.0,9.8,M,-32.4,M,,*7F
MSG 0 41145.138 $GPGSA,A,3,,06,,14,16,20,,25,29,30,31,32,1.7,1.0,1.4*3A
MSG 0 41145.257 $GPGSV,3,3,12,29,25,060,48,30,75,216,48,31,59,057,50,32,38,243,46*70
MSG 0 41145.403 $PGRME,5.0,M,6.5,M,8.2,M*22
MSG 0 41145.463 $PGRMB,0.0,200,,,,K,,N,N*31
MSG 0 41145.523 $PGRMM,WGS 84*06
MSG 0 41145.846 $GPRMC,152706,A,4303.2758,N,07038.3297,W,000.6,132.2,030712,016.1,W*7B
POS 0 41226.000 366538.867 4768180.931
QUA 0 41226.000 7 9.000 1.000 9.000 1.000 0.000 0.000 0.000
RAW 0 41226.000 4 430327.58000 -703832.97000 -22.90000 152706.00000
MSG 0 41145.996 $GPGGA,152706,4303.2758,N,07038.3297,W,1,09,1.0,9.5,M,-32.4,M,,*74
MSG 0 41146.138 $GPGSA,A,3,,06,,14,16,20,,25,29,30,31,32,1.7,1.0,1.4*3A
MSG 0 41146.256 $GPGSV,3,1,12,03,00,186,33,06,08,172,43,11,00,235,34,14,19,135,45*71
MSG 0 41146.402 $PGRME,5.0,M,6.5,M,8.2,M*22
MSG 0 41146.463 $PGRMB,0.0,200,,,,K,,N,N*31
MSG 0 41146.523 $PGRMM,WGS 84*06
MSG 0 41146.847 $GPRMC,152707,A,4303.2759,N,07038.3294,W,000.5,096.1,030712,016.1,W*77
POS 0 41227.000 366539.278 4768181.108
QUA 0 41227.000 7 9.000 1.000 9.000 1.000 0.000 0.000 0.000
RAW 0 41227.000 4 430327.59000 -703832.94000 -22.70000 152707.00000
MSG 0 41146.997 $GPGGA,152707,4303.2759,N,07038.3294,W,1,09,1.0,9.7,M,-32.4,M,,*75
MSG 0 41147.139 $GPGSA,A,3,,06,,14,16,20,,25,29,30,31,32,1.7,1.0,1.4*3A
MSG 0 41147.258 $GPGSV,3,2,12,16,46,215,48,20,30,275,46,23,27,312,37,25,12,046,38*7A
MSG 0 41147.403 $PGRME,5.0,M,6.5,M,8.2,M*22
MSG 0 41147.464 $PGRMB,0.0,200,,,,K,,N,N*31
MSG 0 41147.524 $PGRMM,WGS 84*06
MSG 0 41147.856 $GPRMC,152708,A,4303.2759,N,07038.3296,W,000.0,096.1,030712,016.1,W*7F
POS 0 41228.000 366539.006 4768181.113
QUA 0 41228.000 7 9.000 1.000 9.000 1.000 0.000 0.000 0.000
RAW 0 41228.000 4 430327.59000 -703832.96000 -22.80000 152708.00000
MSG 0 41148.006 $GPGGA,152708,4303.2759,N,07038.3296,W,1,09,1.0,9.6,M,-32.4,M,,*79
MSG 0 41148.147 $GPGSA,A,3,,06,,14,16,20,,25,29,30,31,32,1.7,1.0,1.4*3A
MSG 0 41148.266 $GPGSV,3,3,12,29,25,060,46,30,75,216,48,31,59,057,50,32,38,243,46*7E
MSG 0 41148.412 $PGRME,5.0,M,6.5,M,8.2,M*22
MSG 0 41148.472 $PGRMB,0.0,200,,,,K,,N,N*31
MSG 0 41148.532 $PGRMM,WGS 84*06
MSG 0 41148.847 $GPRMC,152709,A,4303.2758,N,07038.3294,W,000.7,109.9,030712,016.1,W*75
POS 0 41229.000 366539.274 4768180.923
QUA 0 41229.000 7 9.000 1.000 9.000 1.000 0.000 0.000 0.000
RAW 0 41229.000 4 430327.58000 -703832.94000 -22.90000 152709.00000
MSG 0 41148.997 $GPGGA,152709,4303.2758,N,07038.3294,W,1,09,1.0,9.5,M,-32.4,M,,*78
MSG 0 41149.138 $GPGSA,A,3,,06,,14,16,20,,25,29,30,31,32,1.7,1.0,1.4*3A
MSG 0 41149.257 $GPGSV,3,1,12,03,00,186,33,06,08,172,44,11,00,235,34,14,19,135,46*75
MSG 0 41149.403 $PGRME,5.0,M,6.5,M,8.2,M*22
MSG 0 41149.463 $PGRMB,0.0,200,,,,K,,N,N*31
MSG 0 41149.524 $PGRMM,WGS 84*06
MSG 0 41149.858 $GPRMC,152710,A,4303.2757,N,07038.3290,W,000.5,124.2,030712,016.1,W*70
POS 0 41230.000 366539.814 4768180.727
QUA 0 41230.000 7 9.000 1.000 9.000 1.000 0.000 0.000 0.000
RAW 0 41230.000 4 430327.57000 -703832.90000 -22.90000 152710.00000
MSG 0 41150.007 $GPGGA,152710,4303.2757,N,07038.3290,W,1,09,1.0,9.5,M,-32.4,M,,*7B
MSG 0 41150.149 $GPGSA,A,3,,06,,14,16,20,,25,29,30,31,32,1.7,1.0,1.4*3A
MSG 0 41150.268 $GPGSV,3,2,12,16,46,215,48,20,30,275,47,23,27,312,37,25,12,046,38*7B
MSG 0 41150.413 $PGRME,5.0,M,6.5,M,8.2,M*22
MSG 0 41150.474 $PGRMB,0.0,200,,,,K,,N,N*31
MSG 0 41150.534 $PGRMM,WGS 84*06
MSG 0 41150.858 $GPRMC,152711,A,4303.2757,N,07038.3290,W,000.3,110.4,030712,016.1,W*76
POS 0 41231.000 366539.814 4768180.727
QUA 0 41231.000 7 9.000 1.000 9.000 1.000 0.000 0.000 0.000
RAW 0 41231.000 4 430327.57000 -703832.90000 -22.70000 152711.00000
MSG 0 41151.008 $GPGGA,152711,4303.2757,N,07038.3290,W,1,09,1.0,9.7,M,-32.4,M,,*78
MSG 0 41151.150 $GPGSA,A,3,,06,,14,16,20,,25,29,30,31,32,1.7,1.0,1.4*3A
MSG 0 41151.268 $GPGSV,3,3,12,29,25,060,46,30,75,216,48,31,59,057,50,32,38,243,46*7E
MSG 0 41151.414 $PGRME,5.0,M,6.5,M,8.2,M*22
MSG 0 41151.475 $PGRMB,0.0,200,,,,K,,N,N*31
MSG 0 41151.535 $PGRMM,WGS 84*06
MSG 0 41151.846 $GPRMC,152712,A,4303.2755,N,07038.3287,W,000.6,125.0,030712,016.1,W*76
POS 0 41232.000 366540.214 4768180.349
QUA 0 41232.000 7 9.000 1.000 9.000 1.000 0.000 0.000 0.000
RAW 0 41232.000 4 430327.55000 -703832.87000 -22.80000 152712.00000
MSG 0 41151.996 $GPGGA,152712,4303.2755,N,07038.3287,W,1,09,1.0,9.6,M,-32.4,M,,*7E
MSG 0 41152.138 $GPGSA,A,3,,06,,14,16,20,,25,29,30,31,32,1.7,1.0,1.4*3A
MSG 0 41152.257 $GPGSV,3,1,12,03,00,186,33,06,08,172,44,11,00,235,00,14,19,135,46*72
MSG 0 41152.402 $PGRME,5.0,M,6.5,M,8.2,M*22
MSG 0 41152.463 $PGRMB,0.0,200,,,,K,,N,N*31
MSG 0 41152.523 $PGRMM,WGS 84*06
MSG 0 41152.847 $GPRMC,152713,A,4303.2755,N,07038.3283,W,000.8,110.5,030712,016.1,W*7E
POS 0 41233.000 366540.756 4768180.338
QUA 0 41233.000 7 9.000 1.000 9.000 1.000 0.000 0.000 0.000
RAW 0 41233.000 4 430327.55000 -703832.83000 -22.70000 152713.00000
MSG 0 41152.997 $GPGGA,152713,4303.2755,N,07038.3283,W,1,09,1.0,9.7,M,-32.4,M,,*7A
MSG 0 41153.138 $GPGSA,A,3,,06,,14,16,20,,25,29,30,31,32,1.7,1.0,1.4*3A
MSG 0 41153.257 $GPGSV,3,2,12,16,46,215,48,20,30,275,46,23,27,312,37,25,11,046,37*76
MSG 0 41153.403 $PGRME,5.0,M,6.5,M,8.2,M*22
MSG 0 41153.463 $PGRMB,0.0,200,,,,K,,N,N*31
MSG 0 41153.523 $PGRMM,WGS 84*06
MSG 0 41153.859 $GPRMC,152714,A,4303.2755,N,07038.3285,W,000.1,110.5,030712,016.1,W*76
POS 0 41234.000 366540.485 4768180.344
QUA 0 41234.000 7 9.000 1.000 9.000 1.000 0.000 0.000 0.000
RAW 0 41234.000 4 430327.55000 -703832.85000 -22.60000 152714.00000
MSG 0 41154.009 $GPGGA,152714,4303.2755,N,07038.3285,W,1,09,1.0,9.8,M,-32.4,M,,*74
MSG 0 41154.150 $GPGSA,A,3,,06,,14,16,20,,25,29,30,31,32,1.7,1.0,1.4*3A
MSG 0 41154.269 $GPGSV,3,3,12,29,25,060,45,30,75,216,49,31,59,057,50,32,38,243,46*7C
MSG 0 41154.415 $PGRME,5.0,M,6.5,M,8.2,M*22
MSG 0 41154.475 $PGRMB,0.0,200,,,,K,,N,N*31
MSG 0 41154.535 $PGRMM,WGS 84*06
MSG 0 41154.867 $GPRMC,152715,A,4303.2754,N,07038.3282,W,000.5,122.6,030712,016.1,W*77
POS 0 41235.000 366540.889 4768180.151
QUA 0 41235.000 7 9.000 1.000 9.000 1.000 0.000 0.000 0.000
RAW 0 41235.000 4 430327.54000 -703832.82000 -22.90000 152715.00000
MSG 0 41155.017 $GPGGA,152715,4303.2754,N,07038.3282,W,1,09,1.0,9.5,M,-32.4,M,,*7E
MSG 0 41155.159 $GPGSA,A,3,,06,,14,16,20,,25,29,30,31,32,1.7,1.0,1.4*3A
MSG 0 41155.277 $GPGSV,3,1,12,03,00,186,33,06,08,172,44,11,00,235,33,14,19,135,46*72
MSG 0 41155.423 $PGRME,5.0,M,6.5,M,8.2,M*22
MSG 0 41155.484 $PGRMB,0.0,200,,,,K,,N,N*31
MSG 0 41155.544 $PGRMM,WGS 84*06
MSG 0 41155.848 $GPRMC,152716,A,4303.2752,N,07038.3280,W,000.7,129.7,030712,016.1,W*78
POS 0 41236.000 366541.153 4768179.775
QUA 0 41236.000 7 9.000 1.000 9.000 1.000 0.000 0.000 0.000
RAW 0 41236.000 4 430327.52000 -703832.80000 -23.00000 152716.00000
MSG 0 41155.998 $GPGGA,152716,4303.2752,N,07038.3280,W,1,09,1.0,9.4,M,-32.4,M,,*78
MSG 0 41156.139 $GPGSA,A,3,,06,,14,16,20,,25,29,30,31,32,1.7,1.0,1.4*3A
MSG 0 41156.258 $GPGSV,3,2,12,16,46,215,48,20,30,275,47,23,27,312,36,25,11,046,37*76
MSG 0 41156.404 $PGRME,5.0,M,6.5,M,8.2,M*22
MSG 0 41156.464 $PGRMB,0.0,200,,,,K,,N,N*31
MSG 0 41156.524 $PGRMM,WGS 84*06
MSG 0 41156.878 $GPRMC,152717,A,4303.2753,N,07038.3280,W,000.3,108.4,030712,016.1,W*7C
POS 0 41237.000 366541.156 4768179.960
QUA 0 41237.000 7 9.000 1.000 9.000 1.000 0.000 0.000 0.000
RAW 0 41237.000 4 430327.53000 -703832.80000 -22.80000 152717.00000
MSG 0 41157.028 $GPGGA,152717,4303.2753,N,07038.3280,W,1,09,1.0,9.6,M,-32.4,M,,*7A
MSG 0 41157.169 $GPGSA,A,3,,06,,14,16,20,,25,29,30,31,32,1.7,1.0,1.4*3A
MSG 0 41157.288 $GPGSV,3,3,12,29,25,060,45,30,75,216,49,31,59,057,50,32,38,243,47*7D
MSG 0 41157.434 $PGRME,5.0,M,6.5,M,8.2,M*22
MSG 0 41157.494 $PGRMB,0.0,200,,,,K,,N,N*31
MSG 0 41157.555 $PGRMM,WGS 84*06
MSG 0 41157.847 $GPRMC,152718,A,4303.2753,N,07038.3279,W,000.2,108.1,030712,016.1,W*71
POS 0 41238.000 366541.292 4768179.958
QUA 0 41238.000 7 9.000 1.000 9.000 1.000 0.000 0.000 0.000
RAW 0 41238.000 4 430327.53000 -703832.79000 -22.80000 152718.00000
MSG 0 41157.996 $GPGGA,152718,4303.2753,N,07038.3279,W,1,09,1.0,9.6,M,-32.4,M,,*73
MSG 0 41158.138 $GPGSA,A,3,,06,,14,16,20,,25,29,30,31,32,1.7,1.0,1.4*3A
MSG 0 41158.257 $GPGSV,3,1,12,03,00,186,32,06,08,172,44,11,00,235,33,14,19,135,47*72
MSG 0 41158.402 $PGRME,5.0,M,6.5,M,8.2,M*22
MSG 0 41158.463 $PGRMB,0.0,200,,,,K,,N,N*31
MSG 0 41158.523 $PGRMM,WGS 84*06
MSG 0 41158.847 $GPRMC,152719,A,4303.2752,N,07038.3273,W,000.9,109.6,030712,016.1,W*76
POS 0 41239.000 366542.103 4768179.757
QUA 0 41239.000 7 9.000 1.000 9.000 1.000 0.000 0.000 0.000
RAW 0 41239.000 4 430327.52000 -703832.73000 -23.00000 152719.00000
MSG 0 41158.996 $GPGGA,152719,4303.2752,N,07038.3273,W,1,09,1.0,9.4,M,-32.4,M,,*7B
MSG 0 41159.138 $GPGSA,A,3,,06,,14,16,20,,25,29,30,31,32,1.7,1.0,1.4*3A
MSG 0 41159.257 $GPGSV,3,2,12,16,46,215,47,20,30,275,47,23,27,312,37,25,11,046,38*77
MSG 0 41159.402 $PGRME,5.0,M,6.5,M,8.2,M*22
MSG 0 41159.463 $PGRMB,0.0,200,,,,K,,N,N*31
MSG 0 41159.523 $PGRMM,WGS 84*06
MSG 0 41159.849 $GPRMC,152720,A,4303.2751,N,07038.3273,W,000.5,123.3,030712,016.1,W*7E
POS 0 41240.000 366542.099 4768179.572
QUA 0 41240.000 7 9.000 1.000 9.000 1.000 0.000 0.000 0.000
RAW 0 41240.000 4 430327.51000 -703832.73000 -22.90000 152720.00000
MSG 0 41159.999 $GPGGA,152720,4303.2751,N,07038.3273,W,1,09,1.0,9.5,M,-32.4,M,,*73
MSG 0 41160.141 $GPGSA,A,3,,06,,14,16,20,,25,29,30,31,32,1.7,1.0,1.4*3A
MSG 0 41160.259 $GPGSV,3,3,12,29,25,060,45,30,75,216,48,31,59,057,50,32,38,243,46*7D
MSG 0 41160.405 $PGRME,5.0,M,6.5,M,8.2,M*22
MSG 0 41160.466 $PGRMB,0.0,200,,,,K,,N,N*31
MSG 0 41160.526 $PGRMM,WGS 84*06
MSG 0 41160.847 $GPRMC,152721,A,4303.2752,N,07038.3273,W,000.3,074.2,030712,016.1,W*78
POS 0 41241.000 366542.103 4768179.757
QUA 0 41241.000 7 9.000 1.000 9.000 1.000 0.000 0.000 0.000
RAW 0 41241.000 4 430327.52000 -703832.73000 -22.60000 152721.00000
MSG 0 41160.996 $GPGGA,152721,4303.2752,N,07038.3273,W,1,09,1.0,9.8,M,-32.4,M,,*7C
MSG 0 41161.138 $GPGSA,A,3,,06,,14,16,20,,25,29,30,31,32,1.7,1.0,1.4*3A
MSG 0 41161.257 $GPGSV,3,1,12,03,00,186,32,06,08,172,44,11,00,235,33,14,19,135,46*73
MSG 0 41161.402 $PGRME,5.0,M,6.5,M,8.2,M*22
MSG 0 41161.463 $PGRMB,0.0,200,,,,K,,N,N*31
MSG 0 41161.523 $PGRMM,WGS 84*06
MSG 0 41161.846 $GPRMC,152722,A,4303.2749,N,07038.3270,W,000.7,136.0,030712,016.1,W*73
POS 0 41242.000 366542.499 4768179.193
QUA 0 41242.000 7 9.000 1.000 9.000 1.000 0.000 0.000 0.000
RAW 0 41242.000 4 430327.49000 -703832.70000 -23.10000 152722.00000
MSG 0 41161.996 $GPGGA,152722,4303.2749,N,07038.3270,W,1,09,1.0,9.3,M,-32.4,M,,*7D
MSG 0 41162.137 $GPGSA,A,3,,06,,14,16,20,,25,29,30,31,32,1.7,1.0,1.4*3A
MSG 0 41162.256 $GPGSV,3,2,12,16,46,215,47,20,30,275,46,23,27,312,37,25,11,046,39*77
MSG 0 41162.402 $PGRME,5.0,M,6.5,M,8.2,M*22
MSG 0 41162.462 $PGRMB,0.0,200,,,,K,,N,N*31
MSG 0 41162.523 $PGRMM,WGS 84*06
MSG 0 41162.846 $GPRMC,152723,A,4303.2748,N,07038.3267,W,000.8,119.0,030712,016.1,W*77
POS 0 41243.000 366542.903 4768179.000
QUA 0 41243.000 7 9.000 1.000 9.000 1.000 0.000 0.000 0.000
RAW 0 41243.000 4 430327.48000 -703832.67000 -23.00000 152723.00000
MSG 0 41162.996 $GPGGA,152723,4303.2748,N,07038.3267,W,1,09,1.0,9.4,M,-32.4,M,,*7C
MSG 0 41163.138 $GPGSA,A,3,,06,,14,16,20,,25,29,30,31,32,1.7,1.0,1.4*3A
MSG 0 41163.257 $GPGSV,3,3,12,29,25,060,44,30,75,216,49,31,59,057,49,32,38,243,47*74
MSG 0 41163.402 $PGRME,5.0,M,6.5,M,8.2,M*22
MSG 0 41163.463 $PGRMB,0.0,200,,,,K,,N,N*31
MSG 0 41163.523 $PGRMM,WGS 84*06
MSG 0 41163.842 $GPRMC,152724,A,4303.2749,N,07038.3270,W,000.0,119.0,030712,016.1,W*7F
POS 0 41244.000 366542.499 4768179.193
QUA 0 41244.000 7 9.000 1.000 9.000 1.000 0.000 0.000 0.000
RAW 0 41244.000 4 430327.49000 -703832.70000 -22.70000 152724.00000
MSG 0 41163.992 $GPGGA,152724,4303.2749,N,07038.3270,W,1,09,1.0,9.7,M,-32.4,M,,*7F
MSG 0 41164.134 $GPGSA,A,3,,06,,14,16,20,,25,29,30,31,32,1.7,1.0,1.4*3A
MSG 0 41164.252 $GPGSV,3,1,12,03,00,186,33,06,08,172,44,11,00,235,33,14,19,135,47*73
MSG 0 41164.398 $PGRME,5.0,M,6.5,M,8.2,M*22
MSG 0 41164.458 $PGRMB,0.0,200,,,,K,,N,N*31
MSG 0 41164.519 $PGRMM,WGS 84*06
MSG 0 41164.850 $GPRMC,152725,A,4303.2748,N,07038.3268,W,000.7,140.4,030712,016.1,W*79
POS 0 41245.000 366542.767 4768179.003
QUA 0 41245.000 7 9.000 1.000 9.000 1.000 0.000 0.000 0.000
RAW 0 41245.000 4 430327.48000 -703832.68000 -23.00000 152725.00000
MSG 0 41165.000 $GPGGA,152725,4303.2748,N,07038.3268,W,1,09,1.0,9.4,M,-32.4,M,,*75
MSG 0 41165.141 $GPGSA,A,3,,06,,14,16,20,,25,29,30,31,32,1.7,1.0,1.4*3A
MSG 0 41165.260 $GPGSV,3,2,12,16,46,215,47,20,30,275,46,23,27,312,37,25,11,046,39*77
MSG 0 41165.406 $PGRME,5.0,M,6.5,M,8.2,M*22
MSG 0 41165.466 $PGRMB,0.0,200,,,,K,,N,N*31
MSG 0 41165.526 $PGRMM,WGS 84*06
MSG 0 41165.856 $GPRMC,152726,A,4303.2746,N,07038.3262,W,000.9,112.8,030712,016.1,W*7B
POS 0 41246.000 366543.574 4768178.617
QUA 0 41246.000 7 9.000 1.000 9.000 1.000 0.000 0.000 0.000
RAW 0 41246.000 4 430327.46000 -703832.62000 -22.90000 152726.00000
MSG 0 41166.006 $GPGGA,152726,4303.2746,N,07038.3262,W,1,09,1.0,9.5,M,-32.4,M,,*73
MSG 0 41166.147 $GPGSA,A,3,,06,,14,16,20,,25,29,30,31,32,1.7,1.0,1.4*3A
MSG 0 41166.266 $GPGSV,3,3,12,29,25,060,46,30,75,216,49,31,59,057,49,32,38,243,46*77
MSG 0 41166.412 $PGRME,5.0,M,6.5,M,8.2,M*22
MSG 0 41166.472 $PGRMB,0.0,200,,,,K,,N,N*31
MSG 0 41166.532 $PGRMM,WGS 84*06
MSG 0 41166.850 $GPRMC,152727,A,4303.2746,N,07038.3266,W,000.1,112.8,030712,016.1,W*76
POS 0 41247.000 366543.031 4768178.628
QUA 0 41247.000 7 9.000 1.000 9.000 1.000 0.000 0.000 0.000
RAW 0 41247.000 4 430327.46000 -703832.66000 -22.60000 152727.00000
MSG 0 41167.000 $GPGGA,152727,4303.2746,N,07038.3266,W,1,09,1.0,9.8,M,-32.4,M,,*7B
MSG 0 41167.141 $GPGSA,A,3,,06,,14,16,20,,25,29,30,31,32,1.7,1.0,1.4*3A
MSG 0 41167.260 $GPGSV,3,1,12,03,00,186,33,06,08,172,43,11,00,235,33,14,19,135,47*74
MSG 0 41167.406 $PGRME,5.0,M,6.5,M,8.2,M*22
MSG 0 41167.466 $PGRMB,0.0,200,,,,K,,N,N*31
MSG 0 41167.526 $PGRMM,WGS 84*06
MSG 0 41167.859 $GPRMC,152728,A,4303.2745,N,07038.3263,W,000.4,123.3,030712,016.1,W*73
POS 0 41248.000 366543.435 4768178.434
QUA 0 41248.000 7 9.000 1.000 9.000 1.000 0.000 0.000 0.000
RAW 0 41248.000 4 430327.45000 -703832.63000 -22.70000 152728.00000
MSG 0 41168.009 $GPGGA,152728,4303.2745,N,07038.3263,W,1,09,1.0,9.7,M,-32.4,M,,*7D
MSG 0 41168.150 $GPGSA,A,3,,06,,14,16,20,,25,29,30,31,32,1.7,1.0,1.4*3A
MSG 0 41168.269 $GPGSV,3,2,12,16,46,215,48,20,30,275,46,23,27,312,37,25,11,046,39*78
MSG 0 41168.415 $PGRME,5.0,M,6.5,M,8.2,M*22
MSG 0 41168.475 $PGRMB,0.0,200,,,,K,,N,N*31
MSG 0 41168.535 $PGRMM,WGS 84*06
MSG 0 41168.862 $GPRMC,152729,A,4303.2743,N,07038.3258,W,000.9,124.1,030712,016.1,W*74
POS 0 41249.000 366544.106 4768178.051
QUA 0 41249.000 7 9.000 1.000 9.000 1.000 0.000 0.000 0.000
RAW 0 41249.000 4 430327.43000 -703832.58000 -23.10000 152729.00000
MSG 0 41169.012 $GPGGA,152729,4303.2743,N,07038.3258,W,1,09,1.0,9.3,M,-32.4,M,,*76
MSG 0 41169.154 $GPGSA,A,3,,06,,14,16,20,,25,29,30,31,32,1.7,1.0,1.4*3A
MSG 0 41169.273 $GPGSV,3,3,12,29,25,059,45,30,75,216,49,31,59,057,49,32,38,243,47*7F
MSG 0 41169.418 $PGRME,5.0,M,6.5,M,8.2,M*22
MSG 0 41169.479 $PGRMB,0.0,200,,,,K,,N,N*31
MSG 0 41169.539 $PGRMM,WGS 84*06
MSG 0 41169.877 $GPRMC,152730,A,4303.2743,N,07038.3257,W,000.6,129.9,030712,016.1,W*79
POS 0 41250.000 366544.242 4768178.048
QUA 0 41250.000 7 9.000 1.000 9.000 1.000 0.000 0.000 0.000
RAW 0 41250.000 4 430327.43000 -703832.57000 -23.20000 152730.00000
MSG 0 41170.027 $GPGGA,152730,4303.2743,N,07038.3257,W,1,09,1.0,9.2,M,-32.4,M,,*70
MSG 0 41170.169 $GPGSA,A,3,,06,,14,16,20,,25,29,30,31,32,1.7,1.0,1.4*3A
MSG 0 41170.287 $GPGSV,3,1,12,03,00,186,00,06,08,172,42,11,00,235,33,14,19,135,46*74
MSG 0 41170.433 $PGRME,5.0,M,6.5,M,8.2,M*22
MSG 0 41170.493 $PGRMB,0.0,200,,,,K,,N,N*31
MSG 0 41170.554 $PGRMM,WGS 84*06
MSG 0 41170.847 $GPRMC,152731,A,4303.2743,N,07038.3257,W,000.3,118.8,030712,016.1,W*7E
POS 0 41251.000 366544.242 4768178.048
QUA 0 41251.000 7 9.000 1.000 9.000 1.000 0.000 0.000 0.000
RAW 0 41251.000 4 430327.43000 -703832.57000 -22.80000 152731.00000
MSG 0 41170.996 $GPGGA,152731,4303.2743,N,07038.3257,W,1,09,1.0,9.6,M,-32.4,M,,*75
MSG 0 41171.138 $GPGSA,A,3,,06,,14,16,20,,25,29,30,31,32,1.7,1.0,1.4*3A
MSG 0 41171.257 $GPGSV,3,2,12,16,46,215,48,20,30,275,46,23,27,312,37,25,11,046,39*78
MSG 0 41171.402 $PGRME,5.0,M,6.5,M,8.2,M*22
MSG 0 41171.463 $PGRMB,0.0,200,,,,K,,N,N*31
MSG 0 41171.523 $PGRMM,WGS 84*06
MSG 0 41171.860 $GPRMC,152732,A,4303.2741,N,07038.3254,W,000.6,121.1,030712,016.1,W*7A
POS 0 41252.000 366544.642 4768177.670
QUA 0 41252.000 7 9.000 1.000 9.000 1.000 0.000 0.000 0.000
RAW 0 41252.000 4 430327.41000 -703832.54000 -22.70000 152732.00000
MSG 0 41172.010 $GPGGA,152732,4303.2741,N,07038.3254,W,1,09,1.0,9.7,M,-32.4,M,,*76
MSG 0 41172.152 $GPGSA,A,3,,06,,14,16,20,,25,29,30,31,32,1.7,1.0,1.4*3A
MSG 0 41172.271 $GPGSV,3,3,12,29,25,059,45,30,76,217,49,31,59,057,49,32,38,243,47*7D
MSG 0 41172.416 $PGRME,5.0,M,6.5,M,8.2,M*22
MSG 0 41172.477 $PGRMB,0.0,200,,,,K,,N,N*31
MSG 0 41172.537 $PGRMM,WGS 84*06
MSG 0 41172.846 $GPRMC,152733,A,4303.2741,N,07038.3253,W,000.5,113.6,030712,016.1,W*79
POS 0 41253.000 366544.778 4768177.668
QUA 0 41253.000 7 9.000 1.000 9.000 1.000 0.000 0.000 0.000
RAW 0 41253.000 4 430327.41000 -703832.53000 -23.00000 152733.00000
MSG 0 41172.996 $GPGGA,152733,4303.2741,N,07038.3253,W,1,09,1.0,9.4,M,-32.4,M,,*73
MSG 0 41173.137 $GPGSA,A,3,,06,,14,16,20,,25,29,30,31,32,1.7,1.0,1.4*3A
MSG 0 41173.256 $GPGSV,3,1,12,03,00,186,32,06,08,172,42,11,00,235,34,14,19,135,46*72
MSG 0 41173.402 $PGRME,5.0,M,6.4,M,8.2,M*23
MSG 0 41173.462 $PGRMB,0.0,200,,,,K,,N,N*31
MSG 0 41173.522 $PGRMM,WGS 84*06
MSG 0 41173.862 $GPRMC,152734,A,4303.2740,N,07038.3251,W,000.5,125.3,030712,016.1,W*7D
POS 0 41254.000 366545.046 4768177.477
QUA 0 41254.000 7 9.000 1.000 9.000 1.000 0.000 0.000 0.000
RAW 0 41254.000 4 430327.40000 -703832.51000 -23.30000 152734.00000
MSG 0 41174.012 $GPGGA,152734,4303.2740,N,07038.3251,W,1,09,1.0,9.1,M,-32.4,M,,*72
MSG 0 41174.154 $GPGSA,A,3,,06,,14,16,20,,25,29,30,31,32,1.7,1.0,1.4*3A
MSG 0 41174.272 $GPGSV,3,2,12,16,46,215,48,20,30,275,46,23,27,312,37,25,11,046,40*76
MSG 0 41174.418 $PGRME,5.0,M,6.4,M,8.2,M*23
MSG 0 41174.478 $PGRMT,GPS 17-HVS Ver. 2.80,P,P,R,R,P,,38,R*00
MSG 0 41174.578 $PGRMB,0.0,200,,,,K,,N,N*31
MSG 0 41174.639 $PGRMM,WGS 84*06
MSG 0 41174.855 $GPRMC,152735,A,4303.2740,N,07038.3250,W,000.4,122.6,030712,016.1,W*7E
POS 0 41255.000 366545.181 4768177.475
QUA 0 41255.000 7 9.000 1.000 9.000 1.000 0.000 0.000 0.000
RAW 0 41255.000 4 430327.40000 -703832.50000 -23.10000 152735.00000
MSG 0 41175.005 $GPGGA,152735,4303.2740,N,07038.3250,W,1,09,1.0,9.3,M,-32.4,M,,*70
MSG 0 41175.146 $GPGSA,A,3,,06,,14,16,20,,25,29,30,31,32,1.7,1.0,1.4*3A
MSG 0 41175.265 $GPGSV,3,3,12,29,25,059,45,30,76,217,49,31,59,057,49,32,38,243,47*7D
MSG 0 41175.411 $PGRME,5.0,M,6.4,M,8.2,M*23
MSG 0 41175.471 $PGRMB,0.0,200,,,,K,,N,N*31
MSG 0 41175.532 $PGRMM,WGS 84*06
MSG 0 41175.876 $GPRMC,152736,A,4303.2738,N,07038.3248,W,000.7,129.7,030712,016.1,W*72
POS 0 41256.000 366545.446 4768177.099
QUA 0 41256.000 7 9.000 1.000 9.000 1.000 0.000 0.000 0.000
RAW 0 41256.000 4 430327.38000 -703832.48000 -22.70000 152736.00000
MSG 0 41176.026 $GPGGA,152736,4303.2738,N,07038.3248,W,1,09,1.0,9.7,M,-32.4,M,,*71
MSG 0 41176.167 $GPGSA,A,3,,06,,14,16,20,,25,29,30,31,32,1.7,1.0,1.4*3A
MSG 0 41176.286 $GPGSV,3,1,12,03,00,186,00,06,08,172,43,11,00,235,34,14,19,135,46*72
MSG 0 41176.432 $PGRME,5.0,M,6.4,M,8.2,M*23
MSG 0 41176.492 $PGRMB,0.0,200,,,,K,,N,N*31
MSG 0 41176.553 $PGRMM,WGS 84*06
MSG 0 41176.859 $GPRMC,152737,A,4303.2736,N,07038.3246,W,000.7,135.2,030712,016.1,W*7B
POS 0 41257.000 366545.710 4768176.724
QUA 0 41257.000 7 9.000 1.000 9.000 1.000 0.000 0.000 0.000
RAW 0 41257.000 4 430327.36000 -703832.46000 -22.60000 152737.00000
MSG 0 41177.009 $GPGGA,152737,4303.2736,N,07038.3246,W,1,09,1.0,9.8,M,-32.4,M,,*7F
MSG 0 41177.151 $GPGSA,A,3,,06,,14,16,20,,25,29,30,31,32,1.7,1.0,1.4*3A
MSG 0 41177.269 $GPGSV,3,2,12,16,46,215,48,20,30,275,46,23,27,312,37,25,11,046,40*76
MSG 0 41177.415 $PGRME,5.0,M,6.4,M,8.2,M*23
MSG 0 41177.476 $PGRMB,0.0,200,,,,K,,N,N*31
MSG 0 41177.536 $PGRMM,WGS 84*06
MSG 0 41177.857 $GPRMC,152738,A,4303.2736,N,07038.3247,W,000.3,150.3,030712,016.1,W*73
POS 0 41258.000 366545.574 4768176.726
QUA 0 41258.000 7 9.000 1.000 9.000 1.000 0.000 0.000 0.000
RAW 0 41258.000 4 430327.36000 -703832.47000 -22.80000 152738.00000
MSG 0 41178.007 $GPGGA,152738,4303.2736,N,07038.3247,W,1,09,1.0,9.6,M,-32.4,M,,*7F
MSG 0 41178.149 $GPGSA,A,3,,06,,14,16,20,,25,29,30,31,32,1.7,1.0,1.4*3A
MSG 0 41178.268 $GPGSV,3,3,12,29,25,059,45,30,76,217,49,31,58,058,49,32,38,243,47*73
MSG 0 41178.413 $PGRME,5.0,M,6.4,M,8.2,M*23
MSG 0 41178.474 $PGRMB,0.0,200,,,,K,,N,N*31
MSG 0 41178.534 $PGRMM,WGS 84*06
MSG 0 41178.859 $GPRMC,152739,A,4303.2734,N,07038.3245,W,000.6,152.6,030712,016.1,W*70
POS 0 41259.000 366545.838 4768176.351
QUA 0 41259.000 7 9.000 1.000 9.000 1.000 0.000 0.000 0.000
RAW 0 41259.000 4 430327.34000 -703832.45000 -23.10000 152739.00000
MSG 0 41179.009 $GPGGA,152739,4303.2734,N,07038.3245,W,1,09,1.0,9.3,M,-32.4,M,,*7B
MSG 0 41179.150 $GPGSA,A,3,,06,,14,16,20,,25,29,30,31,32,1.7,1.0,1.4*3A
MSG 0 41179.269 $GPGSV,3,1,12,03,00,186,33,06,08,172,43,11,00,235,34,14,19,135,46*72
MSG 0 41179.415 $PGRME,5.0,M,6.4,M,8.2,M*23
MSG 0 41179.475 $PGRMB,0.0,200,,,,K,,N,N*31
MSG 0 41179.535 $PGRMM,WGS 84*06
MSG 0 41179.859 $GPRMC,152740,A,4303.2734,N,07038.3243,W,000.5,128.7,030712,016.1,W*77
POS 0 41260.000 366546.110 4768176.346
QUA 0 41260.000 7 9.000 1.000 9.000 1.000 0.000 0.000 0.000
RAW 0 41260.000 4 430327.34000 -703832.43000 -22.90000 152740.00000
MSG 0 41180.009 $GPGGA,152740,4303.2734,N,07038.3243,W,1,09,1.0,9.5,M,-32.4,M,,*75
MSG 0 41180.150 $GPGSA,A,3,,06,,14,16,20,,25,29,30,31,32,1.7,1.0,1.4*3A
MSG 0 41180.269 $GPGSV,3,2,12,16,46,215,48,20,30,275,46,23,27,312,37,25,11,046,41*77
MSG 0 41180.415 $PGRME,5.0,M,6.4,M,8.2,M*23
MSG 0 41180.475 $PGRMB,0.0,200,,,,K,,N,N*31
MSG 0 41180.536 $PGRMM,WGS 84*06
MSG 0 41180.855 $GPRMC,152741,A,4303.2733,N,07038.3242,W,000.4,135.7,030712,016.1,W*7D
POS 0 41261.000 366546.242 4768176.158
QUA 0 41261.000 7 9.000 1.000 9.000 1.000 0.000 0.000 0.000
RAW 0 41261.000 4 430327.33000 -703832.42000 -22.80000 152741.00000
MSG 0 41181.005 $GPGGA,152741,4303.2733,N,07038.3242,W,1,09,1.0,9.6,M,-32.4,M,,*71
MSG 0 41181.147 $GPGSA,A,3,,06,,14,16,20,,25,29,30,31,32,1.7,1.0,1.4*3A
MSG 0 41181.266 $GPGSV,3,3,12,29,25,059,46,30,76,217,49,31,58,058,49,32,38,242,47*71
MSG 0 41181.411 $PGRME,5.0,M,6.4,M,8.2,M*23
MSG 0 41181.472 $PGRMB,0.0,200,,,,K,,N,N*31
MSG 0 41181.532 $PGRMM,WGS 84*06
MSG 0 41181.858 $GPRMC,152742,A,4303.2732,N,07038.3239,W,000.7,116.6,030712,016.1,W*70
POS 0 41262.000 366546.645 4768175.965
QUA 0 41262.000 7 9.000 1.000 9.000 1.000 0.000 0.000 0.000
RAW 0 41262.000 4 430327.32000 -703832.39000 -23.10000 152742.00000
MSG 0 41182.008 $GPGGA,152742,4303.2732,N,07038.3239,W,1,09,1.0,9.3,M,-32.4,M,,*7A
MSG 0 41182.150 $GPGSA,A,3,,06,,14,16,20,,25,29,30,31,32,1.7,1.0,1.4*3A
MSG 0 41182.269 $GPGSV,3,1,12,03,00,186,34,06,08,172,42,11,00,235,34,14,19,135,47*75
MSG 0 41182.414 $PGRME,5.0,M,6.4,M,8.2,M*23
MSG 0 41182.475 $PGRMB,0.0,200,,,,K,,N,N*31
MSG 0 41182.535 $PGRMM,WGS 84*06
MSG 0 41182.861 $GPRMC,152743,A,4303.2732,N,07038.3237,W,000.6,116.9,030712,016.1,W*71
POS 0 41263.000 366546.917 4768175.959
QUA 0 41263.000 7 9.000 1.000 9.000 1.000 0.000 0.000 0.000
RAW 0 41263.000 4 430327.32000 -703832.37000 -23.20000 152743.00000
MSG 0 41183.010 $GPGGA,152743,4303.2732,N,07038.3237,W,1,09,1.0,9.2,M,-32.4,M,,*74
MSG 0 41183.152 $GPGSA,A,3,,06,,14,16,20,,25,29,30,31,32,1.7,1.0,1.4*3A
MSG 0 41183.271 $GPGSV,3,2,12,16,46,215,48,20,30,275,46,23,27,312,37,25,11,046,41*77
MSG 0 41183.416 $PGRME,5.0,M,6.4,M,8.2,M*23
MSG 0 41183.477 $PGRMB,0.0,200,,,,K,,N,N*31
MSG 0 41183.537 $PGRMM,WGS 84*06
MSG 0 41183.860 $GPRMC,152744,A,4303.2731,N,07038.3234,W,000.7,111.8,030712,016.1,W*71
POS 0 41264.000 366547.320 4768175.766
QUA 0 41264.000 7 9.000 1.000 9.000 1.000 0.000 0.000 0.000
RAW 0 41264.000 4 430327.31000 -703832.34000 -23.10000 152744.00000
MSG 0 41184.010 $GPGGA,152744,4303.2731,N,07038.3234,W,1,09,1.0,9.3,M,-32.4,M,,*72
