FTP NEW 2
VER 11.0.6.21
INF "" "" "" "" 0.000 0.000 0.000
ELL WGS-84 6378137.000 298.257223563
PRO TME -69.000000 0.999600 0.000000 0.000000 0.000000 500000.0000 0.0000
DTM 0.00 0.00 0.00 0.00000 0.00000 0.00000 0.00000
GEO ??? 0.000
HVU 1.0000000000 1.0000000000
TND 12:33:14 07/03/2012 240
DEV 0 32869 "Garmin GPS" 49156 C:\HYPACK 2011\devices\GPS.dll 11.0.10.6
OFF 0 0.000 0.000 0.000 0.000 0.000 0.000 0.000
DDT 0 SYN 
DEV 1 0 "Disabled" 0 Odom CV3 MK3 Disabled Unknown
USR "NOAA Joint Hydrographic Center" "HYPACK Inc." 0x8 15681181
EOH 0001FFFFFFFFFFFFFFFFFFFFFFFFFFFFFFFFFFFFFFFFFFFFFFFFFFFFFFFFFFFFFFFFFFFFFFFFFFFFFFFFFFFFFFFFFFFFFFFFFFFFFFFFFFFFFFFFFFFFFFFFFFFFFFFFFFFFFFFFFFFFFFFFFFFFFFFFFFFFFFFFFFFFFFFFFFFFFFFFFFFF003021300906052B0E03021A050004141C6CF1DF17643EAF237C28B0E85BF6004BDBFE33
MSG 0 45192.278 $PGRME,4.6,M,5.9,M,7.5,M*22
MSG 0 45192.338 $PGRMB,0.0,200,,,,K,,N,N*31
MSG 0 45192.398 $PGRMM,WGS 84*06
MSG 0 45192.707 $GPRMC,163433,A,4303.7942,N,07039.7672,W,000.6,075.0,030712,016.1,W*76
POS 0 45273.000 364606.753 4769178.815
QUA 0 45273.000 7 9.200 0.800 10.000 1.000 0.000 0.000 0.000
RAW 0 45273.000 4 430379.42000 -703976.72000 -23.10000 163433.00000
MSG 0 45192.857 $GPGGA,163433,4303.7942,N,07039.7672,W,1,10,0.8,9.3,M,-32.4,M,,*7E
MSG 0 45192.998 $GPGSA,A,3,,06,,13,16,20,21,23,29,30,31,32,1.3,0.8,1.0*31
MSG 0 45193.121 $GPGSV,3,1,12,03,28,179,00,06,38,161,50,10,03,331,34,13,23,316,43*74
MSG 0 45193.267 $PGRME,4.6,M,5.9,M,7.5,M*22
MSG 0 45193.327 $PGRMB,0.0,200,,,,K,,N,N*31
MSG 0 45193.388 $PGRMM,WGS 84*06
MSG 0 45193.721 $GPRMC,163434,A,4303.7941,N,07039.7668,W,000.7,100.2,030712,016.1,W*79
POS 0 45274.000 364607.292 4769178.619
QUA 0 45274.000 7 9.200 0.800 10.000 1.000 0.000 0.000 0.000
RAW 0 45274.000 4 430379.41000 -703976.68000 -23.40000 163434.00000
MSG 0 45193.871 $GPGGA,163434,4303.7941,N,07039.7668,W,1,10,0.8,9.0,M,-32.4,M,,*72
MSG 0 45194.012 $GPGSA,A,3,,06,,13,16,20,21,23,29,30,31,32,1.3,0.8,1.0*31
MSG 0 45194.135 $GPGSV,3,2,12,16,77,248,47,20,16,247,42,21,00,086,39,23,53,298,49*7D
FIX 99 45194.414 90 364607.292 4769178.619
MSG 0 45194.281 $PGRME,4.6,M,5.9,M,7.5,M*22
MSG 0 45194.341 $PGRMT,GPS 17-HVS Ver. 2.80,P,P,R,R,P,,39,R*01
MSG 0 45194.441 $PGRMB,0.0,200,,,,K,,N,N*31
MSG 0 45194.502 $PGRMM,WGS 84*06
MSG 0 45194.719 $GPRMC,163435,A,4303.7941,N,07039.7666,W,000.7,091.4,030712,016.1,W*79
POS 0 45275.000 364607.564 4769178.614
QUA 0 45275.000 7 9.200 0.800 10.000 1.000 0.000 0.000 0.000
RAW 0 45275.000 4 430379.41000 -703976.66000 -23.40000 163435.00000
MSG 0 45194.869 $GPGGA,163435,4303.7941,N,07039.7666,W,1,10,0.8,9.0,M,-32.4,M,,*7D
MSG 0 45195.011 $GPGSA,A,3,,06,,13,16,20,21,23,29,30,31,32,1.3,0.8,1.0*31
MSG 0 45195.134 $GPGSV,3,3,12,29,11,036,42,30,71,041,49,31,36,090,48,32,15,220,42*7E
MSG 0 45195.279 $PGRME,4.6,M,5.9,M,7.5,M*22
MSG 0 45195.340 $PGRMB,0.0,200,,,,K,,N,N*31
MSG 0 45195.400 $PGRMM,WGS 84*06
MSG 0 45195.721 $GPRMC,163436,A,4303.7941,N,07039.7666,W,000.4,085.6,030712,016.1,W*7E
POS 0 45276.000 364607.564 4769178.614
QUA 0 45276.000 7 9.200 0.800 10.000 1.000 0.000 0.000 0.000
RAW 0 45276.000 4 430379.41000 -703976.66000 -23.00000 163436.00000
MSG 0 45195.871 $GPGGA,163436,4303.7941,N,07039.7666,W,1,10,0.8,9.4,M,-32.4,M,,*7A
MSG 0 45196.013 $GPGSA,A,3,,06,,13,16,20,21,23,29,30,31,32,1.3,0.8,1.0*31
MSG 0 45196.135 $GPGSV,3,1,12,03,28,179,00,06,38,161,49,10,03,331,34,13,23,316,43*7C
MSG 0 45196.281 $PGRME,4.6,M,5.9,M,7.5,M*22
MSG 0 45196.341 $PGRMB,0.0,200,,,,K,,N,N*31
MSG 0 45196.402 $PGRMM,WGS 84*06
MSG 0 45196.723 $GPRMC,163437,A,4303.7941,N,07039.7662,W,000.7,099.2,030712,016.1,W*71
POS 0 45277.000 364608.107 4769178.603
QUA 0 45277.000 7 9.200 0.800 10.000 1.000 0.000 0.000 0.000
RAW 0 45277.000 4 430379.41000 -703976.62000 -23.20000 163437.00000
MSG 0 45196.873 $GPGGA,163437,4303.7941,N,07039.7662,W,1,10,0.8,9.2,M,-32.4,M,,*79
MSG 0 45197.014 $GPGSA,A,3,,06,,13,16,20,21,23,29,30,31,32,1.3,0.8,1.0*31
MSG 0 45197.137 $GPGSV,3,2,12,16,77,248,47,20,16,247,42,21,00,086,39,23,53,298,50*75
MSG 0 45197.283 $PGRME,4.6,M,5.9,M,7.5,M*22
MSG 0 45197.343 $PGRMB,0.0,200,,,,K,,N,N*31
MSG 0 45197.404 $PGRMM,WGS 84*06
MSG 0 45197.707 $GPRMC,163438,A,4303.7939,N,07039.7659,W,000.8,112.8,030712,016.1,W*7E
POS 0 45278.000 364608.507 4769178.225
QUA 0 45278.000 7 9.200 0.800 10.000 1.000 0.000 0.000 0.000
RAW 0 45278.000 4 430379.39000 -703976.59000 -23.30000 163438.00000
MSG 0 45197.857 $GPGGA,163438,4303.7939,N,07039.7659,W,1,10,0.8,9.1,M,-32.4,M,,*72
MSG 0 45197.999 $GPGSA,A,3,,06,,13,16,20,21,23,29,30,31,32,1.3,0.8,1.0*31
MSG 0 45198.122 $GPGSV,3,3,12,29,11,036,42,30,71,041,49,31,36,090,48,32,15,220,43*7F
MSG 0 45198.267 $PGRME,4.6,M,5.9,M,7.5,M*22
MSG 0 45198.328 $PGRMB,0.0,200,,,,K,,N,N*31
MSG 0 45198.388 $PGRMM,WGS 84*06
MSG 0 45198.713 $GPRMC,163439,A,4303.7941,N,07039.7659,W,000.4,076.1,030712,016.1,W*76
POS 0 45279.000 364608.514 4769178.595
QUA 0 45279.000 7 9.200 0.800 10.000 1.000 0.000 0.000 0.000
RAW 0 45279.000 4 430379.41000 -703976.59000 -23.20000 163439.00000
MSG 0 45198.863 $GPGGA,163439,4303.7941,N,07039.7659,W,1,10,0.8,9.2,M,-32.4,M,,*7F
MSG 0 45199.004 $GPGSA,A,3,,06,,13,16,20,21,23,29,30,31,32,1.3,0.8,1.0*31
MSG 0 45199.127 $GPGSV,3,1,12,03,28,179,32,06,38,161,50,10,03,331,32,13,23,316,43*73
MSG 0 45199.273 $PGRME,4.6,M,5.9,M,7.5,M*22
MSG 0 45199.333 $PGRMB,0.0,200,,,,K,,N,N*31
MSG 0 45199.394 $PGRMM,WGS 84*06
MSG 0 45199.708 $GPRMC,163440,A,4303.7940,N,07039.7654,W,000.8,098.2,030712,016.1,W*7B
POS 0 45280.000 364609.189 4769178.397
QUA 0 45280.000 7 9.200 0.800 10.000 1.000 0.000 0.000 0.000
RAW 0 45280.000 4 430379.40000 -703976.54000 -23.60000 163440.00000
MSG 0 45199.858 $GPGGA,163440,4303.7940,N,07039.7654,W,1,10,0.8,8.8,M,-32.4,M,,*76
MSG 0 45199.999 $GPGSA,A,3,,06,,13,16,20,21,23,29,30,31,32,1.3,0.8,1.0*31
MSG 0 45200.122 $GPGSV,3,2,12,16,77,248,47,20,16,247,42,21,00,086,40,23,53,298,49*73
MSG 0 45200.268 $PGRME,4.6,M,5.9,M,7.5,M*22
MSG 0 45200.328 $PGRMB,0.0,200,,,,K,,N,N*31
MSG 0 45200.388 $PGRMM,WGS 84*06
MSG 0 45200.720 $GPRMC,163441,A,4303.7939,N,07039.7652,W,000.8,101.1,030712,016.1,W*70
POS 0 45281.000 364609.457 4769178.206
QUA 0 45281.000 7 9.200 0.800 10.000 1.000 0.000 0.000 0.000
RAW 0 45281.000 4 430379.39000 -703976.52000 -23.40000 163441.00000
MSG 0 45200.870 $GPGGA,163441,4303.7939,N,07039.7652,W,1,10,0.8,9.0,M,-32.4,M,,*76
MSG 0 45201.012 $GPGSA,A,3,,06,,13,16,20,21,23,29,30,31,32,1.3,0.8,1.0*31
MSG 0 45201.135 $GPGSV,3,3,12,29,11,036,42,30,71,041,49,31,36,090,48,32,15,220,43*7F
MSG 0 45201.280 $PGRME,4.6,M,5.9,M,7.5,M*22
MSG 0 45201.341 $PGRMB,0.0,200,,,,K,,N,N*31
MSG 0 45201.401 $PGRMM,WGS 84*06
MSG 0 45201.721 $GPRMC,163442,A,4303.7940,N,07039.7650,W,000.6,086.4,030712,016.1,W*7A
POS 0 45282.000 364609.732 4769178.386
QUA 0 45282.000 7 9.200 0.800 10.000 1.000 0.000 0.000 0.000
RAW 0 45282.000 4 430379.40000 -703976.50000 -23.30000 163442.00000
MSG 0 45201.871 $GPGGA,163442,4303.7940,N,07039.7650,W,1,10,0.8,9.1,M,-32.4,M,,*78
MSG 0 45202.012 $GPGSA,A,3,,06,,13,16,20,21,23,29,30,31,32,1.3,0.8,1.0*31
MSG 0 45202.135 $GPGSV,3,1,12,03,28,179,31,06,38,161,50,10,03,331,32,13,23,316,42*71
MSG 0 45202.281 $PGRME,4.6,M,5.9,M,7.5,M*22
MSG 0 45202.341 $PGRMB,0.0,200,,,,K,,N,N*31
MSG 0 45202.402 $PGRMM,WGS 84*06
MSG 0 45202.717 $GPRMC,163443,A,4303.7940,N,07039.7649,W,000.5,089.0,030712,016.1,W*7B
POS 0 45283.000 364609.867 4769178.383
QUA 0 45283.000 7 9.200 0.800 10.000 1.000 0.000 0.000 0.000
RAW 0 45283.000 4 430379.40000 -703976.49000 -23.20000 163443.00000
MSG 0 45202.867 $GPGGA,163443,4303.7940,N,07039.7649,W,1,10,0.8,9.2,M,-32.4,M,,*72
MSG 0 45203.009 $GPGSA,A,3,,06,,13,16,20,21,23,29,30,31,32,1.3,0.8,1.0*31
MSG 0 45203.132 $GPGSV,3,2,12,16,77,248,47,20,16,247,43,21,00,086,41,23,53,298,49*73
MSG 0 45203.278 $PGRME,4.6,M,5.9,M,7.5,M*22
MSG 0 45203.338 $PGRMB,0.0,200,,,,K,,N,N*31
MSG 0 45203.398 $PGRMM,WGS 84*06
MSG 0 45203.730 $GPRMC,163444,A,4303.7939,N,07039.7646,W,000.7,107.1,030712,016.1,W*79
POS 0 45284.000 364610.271 4769178.190
QUA 0 45284.000 7 9.200 0.800 10.000 1.000 0.000 0.000 0.000
RAW 0 45284.000 4 430379.39000 -703976.46000 -23.70000 163444.00000
MSG 0 45203.879 $GPGGA,163444,4303.7939,N,07039.7646,W,1,10,0.8,8.7,M,-32.4,M,,*70
MSG 0 45204.021 $GPGSA,A,3,,06,,13,16,20,21,23,29,30,31,32,1.3,0.8,1.0*31
MSG 0 45204.144 $GPGSV,3,3,12,29,11,036,42,30,71,041,49,31,36,090,48,32,15,220,43*7F
MSG 0 45204.290 $PGRME,4.6,M,5.9,M,7.5,M*22
MSG 0 45204.350 $PGRMB,0.0,200,,,,K,,N,N*31
MSG 0 45204.410 $PGRMM,WGS 84*06
MSG 0 45204.722 $GPRMC,163445,A,4303.7938,N,07039.7643,W,000.7,104.0,030712,016.1,W*7E
POS 0 45285.000 364610.674 4769177.997
QUA 0 45285.000 7 9.200 0.800 10.000 1.000 0.000 0.000 0.000
RAW 0 45285.000 4 430379.38000 -703976.43000 -23.80000 163445.00000
MSG 0 45204.872 $GPGGA,163445,4303.7938,N,07039.7643,W,1,10,0.8,8.6,M,-32.4,M,,*74
MSG 0 45205.013 $GPGSA,A,3,,06,,13,16,20,21,23,29,30,31,32,1.3,0.8,1.0*31
MSG 0 45205.136 $GPGSV,3,1,12,03,28,179,32,06,38,161,50,10,03,331,31,13,23,316,43*70
MSG 0 45205.282 $PGRME,4.6,M,5.9,M,7.5,M*22
MSG 0 45205.342 $PGRMB,0.0,200,,,,K,,N,N*31
MSG 0 45205.403 $PGRMM,WGS 84*06
MSG 0 45205.726 $GPRMC,163446,A,4303.7939,N,07039.7641,W,000.6,095.3,030712,016.1,W*75
POS 0 45286.000 364610.949 4769178.176
QUA 0 45286.000 7 9.200 0.800 10.000 1.000 0.000 0.000 0.000
RAW 0 45286.000 4 430379.39000 -703976.41000 -23.60000 163446.00000
MSG 0 45205.876 $GPGGA,163446,4303.7939,N,07039.7641,W,1,10,0.8,8.8,M,-32.4,M,,*7A
MSG 0 45206.018 $GPGSA,A,3,,06,,13,16,20,21,23,29,30,31,32,1.3,0.8,1.0*31
MSG 0 45206.141 $GPGSV,3,2,12,16,78,251,47,20,16,247,43,21,00,086,42,23,53,298,49*77
MSG 0 45206.286 $PGRME,4.6,M,5.9,M,7.5,M*22
MSG 0 45206.347 $PGRMB,0.0,200,,,,K,,N,N*31
MSG 0 45206.407 $PGRMM,WGS 84*06
MSG 0 45206.705 $GPRMC,163447,A,4303.7938,N,07039.7638,W,000.7,104.8,030712,016.1,W*78
POS 0 45287.000 364611.353 4769177.983
QUA 0 45287.000 7 9.200 0.800 10.000 1.000 0.000 0.000 0.000
RAW 0 45287.000 4 430379.38000 -703976.38000 -23.40000 163447.00000
MSG 0 45206.855 $GPGGA,163447,4303.7938,N,07039.7638,W,1,10,0.8,9.0,M,-32.4,M,,*7D
MSG 0 45206.997 $GPGSA,A,3,,06,,13,16,20,21,23,29,30,31,32,1.3,0.8,1.0*31
MSG 0 45207.119 $GPGSV,3,3,12,29,11,036,41,30,71,041,49,31,36,090,48,32,15,220,43*7C
MSG 0 45207.265 $PGRME,4.6,M,5.9,M,7.5,M*22
MSG 0 45207.326 $PGRMB,0.0,200,,,,K,,N,N*31
MSG 0 45207.386 $PGRMM,WGS 84*06
MSG 0 45207.706 $GPRMC,163448,A,4303.7938,N,07039.7636,W,000.7,101.0,030712,016.1,W*74
POS 0 45288.000 364611.624 4769177.978
QUA 0 45288.000 7 9.200 0.800 10.000 1.000 0.000 0.000 0.000
RAW 0 45288.000 4 430379.38000 -703976.36000 -23.30000 163448.00000
MSG 0 45207.856 $GPGGA,163448,4303.7938,N,07039.7636,W,1,10,0.8,9.1,M,-32.4,M,,*7D
MSG 0 45207.998 $GPGSA,A,3,,06,,13,16,20,21,23,29,30,31,32,1.3,0.8,1.0*31
MSG 0 45208.121 $GPGSV,3,1,12,03,28,179,32,06,38,161,50,10,03,331,32,13,23,316,41*71
MSG 0 45208.266 $PGRME,4.6,M,5.9,M,7.5,M*22
MSG 0 45208.327 $PGRMB,0.0,200,,,,K,,N,N*31
MSG 0 45208.387 $PGRMM,WGS 84*06
MSG 0 45208.719 $GPRMC,163449,A,4303.7938,N,07039.7635,W,000.5,097.7,030712,016.1,W*7D
POS 0 45289.000 364611.760 4769177.975
QUA 0 45289.000 7 9.200 0.800 10.000 1.000 0.000 0.000 0.000
RAW 0 45289.000 4 430379.38000 -703976.35000 -23.30000 163449.00000
MSG 0 45208.869 $GPGGA,163449,4303.7938,N,07039.7635,W,1,10,0.8,9.1,M,-32.4,M,,*7F
MSG 0 45209.011 $GPGSA,A,3,,06,,13,16,20,21,23,29,30,31,32,1.3,0.8,1.0*31
MSG 0 45209.134 $GPGSV,3,2,12,16,78,251,48,20,16,247,42,21,00,086,44,23,53,298,49*7F
MSG 0 45209.279 $PGRME,4.6,M,5.9,M,7.5,M*22
MSG 0 45209.340 $PGRMB,0.0,200,,,,K,,N,N*31
MSG 0 45209.400 $PGRMM,WGS 84*06
MSG 0 45209.706 $GPRMC,163450,A,4303.7938,N,07039.7634,W,000.5,099.1,030712,016.1,W*7C
POS 0 45290.000 364611.896 4769177.973
QUA 0 45290.000 7 9.200 0.800 10.000 1.000 0.000 0.000 0.000
RAW 0 45290.000 4 430379.38000 -703976.34000 -23.60000 163450.00000
MSG 0 45209.856 $GPGGA,163450,4303.7938,N,07039.7634,W,1,10,0.8,8.8,M,-32.4,M,,*7E
MSG 0 45209.997 $GPGSA,A,3,,06,,13,16,20,21,23,29,30,31,32,1.3,0.8,1.0*31
MSG 0 45210.120 $GPGSV,3,3,12,29,11,036,41,30,71,041,49,31,36,090,49,32,15,220,43*7D
MSG 0 45210.266 $PGRME,4.7,M,5.9,M,7.6,M*20
MSG 0 45210.326 $PGRMB,0.0,200,,,,K,,N,N*31
MSG 0 45210.387 $PGRMM,WGS 84*06
MSG 0 45210.723 $GPRMC,163451,A,4303.7936,N,07039.7630,W,000.7,108.3,030712,016.1,W*7E
POS 0 45291.000 364612.431 4769177.592
QUA 0 45291.000 7 9.200 0.800 10.000 1.000 0.000 0.000 0.000
RAW 0 45291.000 4 430379.36000 -703976.30000 -23.60000 163451.00000
MSG 0 45210.873 $GPGGA,163451,4303.7936,N,07039.7630,W,1,10,0.8,8.8,M,-32.4,M,,*75
MSG 0 45211.014 $GPGSA,A,3,,06,,13,16,20,21,23,29,30,31,32,1.3,0.8,1.0*31
MSG 0 45211.137 $GPGSV,3,1,12,03,28,179,32,06,38,161,49,10,03,331,35,13,23,316,38*70
MSG 0 45211.283 $PGRME,4.6,M,5.9,M,7.5,M*22
MSG 0 45211.343 $PGRMB,0.0,200,,,,K,,N,N*31
MSG 0 45211.404 $PGRMM,WGS 84*06
MSG 0 45211.717 $GPRMC,163452,A,4303.7936,N,07039.7627,W,000.8,108.9,030712,016.1,W*7E
POS 0 45292.000 364612.838 4769177.584
QUA 0 45292.000 7 9.200 0.800 10.000 1.000 0.000 0.000 0.000
RAW 0 45292.000 4 430379.36000 -703976.27000 -23.70000 163452.00000
MSG 0 45211.867 $GPGGA,163452,4303.7936,N,07039.7627,W,1,10,0.8,8.7,M,-32.4,M,,*7F
MSG 0 45212.009 $GPGSA,A,3,,06,,13,16,20,21,23,29,30,31,32,1.3,0.8,1.0*31
MSG 0 45212.132 $GPGSV,3,2,12,16,78,251,48,20,16,247,43,21,00,086,45,23,53,298,49*7F
MSG 0 45212.277 $PGRME,4.6,M,5.9,M,7.5,M*22
MSG 0 45212.338 $PGRMB,0.0,200,,,,K,,N,N*31
MSG 0 45212.398 $PGRMM,WGS 84*06
MSG 0 45212.713 $GPRMC,163453,A,4303.7936,N,07039.7626,W,000.6,097.2,030712,016.1,W*7C
POS 0 45293.000 364612.974 4769177.581
QUA 0 45293.000 7 9.200 0.800 10.000 1.000 0.000 0.000 0.000
RAW 0 45293.000 4 430379.36000 -703976.26000 -23.60000 163453.00000
MSG 0 45212.863 $GPGGA,163453,4303.7936,N,07039.7626,W,1,10,0.8,8.8,M,-32.4,M,,*70
MSG 0 45213.004 $GPGSA,A,3,,06,,13,16,20,21,23,29,30,31,32,1.3,0.8,1.0*31
MSG 0 45213.127 $GPGSV,3,3,12,29,11,036,43,30,71,041,49,31,36,090,50,32,15,220,42*76
MSG 0 45213.273 $PGRME,4.7,M,6.0,M,7.6,M*2A
MSG 0 45213.333 $PGRMB,0.0,200,,,,K,,N,N*31
MSG 0 45213.394 $PGRMM,WGS 84*06
MSG 0 45213.722 $GPRMC,163454,A,4303.7935,N,07039.7622,W,000.9,109.7,030712,016.1,W*70
POS 0 45294.000 364613.513 4769177.385
QUA 0 45294.000 7 9.200 0.800 10.000 1.000 0.000 0.000 0.000
RAW 0 45294.000 4 430379.35000 -703976.22000 -23.60000 163454.00000
MSG 0 45213.872 $GPGGA,163454,4303.7935,N,07039.7622,W,1,10,0.8,8.8,M,-32.4,M,,*70
MSG 0 45214.013 $GPGSA,A,3,,06,,13,16,20,21,23,29,30,31,32,1.3,0.8,1.0*31
MSG 0 45214.136 $GPGSV,3,1,12,03,28,179,00,06,38,161,49,10,03,331,35,13,23,316,39*70
MSG 0 45214.282 $PGRME,4.6,M,5.9,M,7.5,M*22
MSG 0 45214.342 $PGRMB,0.0,200,,,,K,,N,N*31
MSG 0 45214.403 $PGRMM,WGS 84*06
MSG 0 45214.738 $GPRMC,163455,A,4303.7935,N,07039.7621,W,000.7,101.0,030712,016.1,W*73
POS 0 45295.000 364613.649 4769177.382
QUA 0 45295.000 7 9.200 0.800 10.000 1.000 0.000 0.000 0.000
RAW 0 45295.000 4 430379.35000 -703976.21000 -23.50000 163455.00000
MSG 0 45214.888 $GPGGA,163455,4303.7935,N,07039.7621,W,1,10,0.8,8.9,M,-32.4,M,,*73
MSG 0 45215.030 $GPGSA,A,3,,06,,13,16,20,21,23,29,30,31,32,1.3,0.8,1.0*31
MSG 0 45215.153 $GPGSV,3,2,12,16,78,251,48,20,16,247,43,21,00,086,43,23,53,298,48*78
MSG 0 45215.298 $PGRME,4.6,M,5.9,M,7.5,M*22
MSG 0 45215.359 $PGRMB,0.0,200,,,,K,,N,N*31
MSG 0 45215.419 $PGRMM,WGS 84*06
MSG 0 45215.738 $GPRMC,163456,A,4303.7935,N,07039.7620,W,000.5,102.5,030712,016.1,W*75
POS 0 45296.000 364613.785 4769177.380
QUA 0 45296.000 7 9.200 0.800 10.000 1.000 0.000 0.000 0.000
RAW 0 45296.000 4 430379.35000 -703976.20000 -23.50000 163456.00000
MSG 0 45215.888 $GPGGA,163456,4303.7935,N,07039.7620,W,1,10,0.8,8.9,M,-32.4,M,,*71
MSG 0 45216.029 $GPGSA,A,3,,06,,13,16,20,21,23,29,30,31,32,1.3,0.8,1.0*31
MSG 0 45216.152 $GPGSV,3,3,12,29,11,036,43,30,71,041,49,31,36,090,51,32,15,220,43*76
MSG 0 45216.298 $PGRME,4.6,M,5.9,M,7.5,M*22
MSG 0 45216.358 $PGRMB,0.0,200,,,,K,,N,N*31
MSG 0 45216.419 $PGRMM,WGS 84*06
MSG 0 45216.743 $GPRMC,163457,A,4303.7934,N,07039.7619,W,000.4,110.8,030712,016.1,W*70
POS 0 45297.000 364613.917 4769177.192
QUA 0 45297.000 7 9.200 0.800 10.000 1.000 0.000 0.000 0.000
RAW 0 45297.000 4 430379.34000 -703976.19000 -23.50000 163457.00000
MSG 0 45216.893 $GPGGA,163457,4303.7934,N,07039.7619,W,1,10,0.8,8.9,M,-32.4,M,,*7B
MSG 0 45217.034 $GPGSA,A,3,,06,,13,16,20,21,23,29,30,31,32,1.3,0.8,1.0*31
MSG 0 45217.157 $GPGSV,3,1,12,03,28,179,00,06,38,161,49,10,03,331,00,13,23,316,37*78
MSG 0 45217.303 $PGRME,4.6,M,5.9,M,7.5,M*22
MSG 0 45217.363 $PGRMB,0.0,200,,,,K,,N,N*31
MSG 0 45217.424 $PGRMM,WGS 84*06
MSG 0 45217.728 $GPRMC,163458,A,4303.7934,N,07039.7616,W,000.6,108.9,030712,016.1,W*7A
POS 0 45298.000 364614.324 4769177.184
QUA 0 45298.000 7 9.200 0.800 10.000 1.000 0.000 0.000 0.000
RAW 0 45298.000 4 430379.34000 -703976.16000 -23.50000 163458.00000
MSG 0 45217.878 $GPGGA,163458,4303.7934,N,07039.7616,W,1,10,0.8,8.9,M,-32.4,M,,*7B
MSG 0 45218.020 $GPGSA,A,3,,06,,13,16,20,21,23,29,30,31,32,1.3,0.8,1.0*31
MSG 0 45218.143 $GPGSV,3,2,12,16,78,251,48,20,16,247,44,21,00,086,42,23,53,298,48*7E
MSG 0 45218.288 $PGRME,4.6,M,5.9,M,7.5,M*22
MSG 0 45218.349 $PGRMB,0.0,200,,,,K,,N,N*31
MSG 0 45218.409 $PGRMM,WGS 84*06
MSG 0 45218.734 $GPRMC,163459,A,4303.7933,N,07039.7615,W,000.6,113.5,030712,016.1,W*79
POS 0 45299.000 364614.456 4769176.996
QUA 0 45299.000 7 9.200 0.800 10.000 1.000 0.000 0.000 0.000
RAW 0 45299.000 4 430379.33000 -703976.15000 -23.60000 163459.00000
MSG 0 45218.884 $GPGGA,163459,4303.7933,N,07039.7615,W,1,10,0.8,8.8,M,-32.4,M,,*7F
MSG 0 45219.026 $GPGSA,A,3,,06,,13,16,20,21,23,29,30,31,32,1.3,0.8,1.0*31
MSG 0 45219.148 $GPGSV,3,3,12,29,11,036,42,30,71,041,49,31,36,090,51,32,15,220,42*76
MSG 0 45219.294 $PGRME,4.6,M,5.9,M,7.5,M*22
MSG 0 45219.355 $PGRMB,0.0,200,,,,K,,N,N*31
MSG 0 45219.415 $PGRMM,WGS 84*06
MSG 0 45219.709 $GPRMC,163500,A,4303.7933,N,07039.7613,W,000.5,104.7,030712,016.1,W*75
POS 0 45300.000 364614.727 4769176.991
QUA 0 45300.000 7 9.200 0.800 10.000 1.000 0.000 0.000 0.000
RAW 0 45300.000 4 430379.33000 -703976.13000 -23.60000 163500.00000
MSG 0 45219.858 $GPGGA,163500,4303.7933,N,07039.7613,W,1,10,0.8,8.8,M,-32.4,M,,*74
MSG 0 45220.000 $GPGSA,A,3,,06,,13,16,20,21,23,29,30,31,32,1.3,0.8,1.0*31
MSG 0 45220.123 $GPGSV,3,1,12,03,28,179,00,06,38,161,49,10,03,331,00,13,23,316,36*79
MSG 0 45220.269 $PGRME,4.6,M,5.9,M,7.5,M*22
MSG 0 45220.329 $PGRMB,0.0,200,,,,K,,N,N*31
MSG 0 45220.389 $PGRMM,WGS 84*06
MSG 0 45220.718 $GPRMC,163501,A,4303.7932,N,07039.7610,W,000.7,115.9,030712,016.1,W*7A
POS 0 45301.000 364615.131 4769176.797
QUA 0 45301.000 7 9.200 0.800 10.000 1.000 0.000 0.000 0.000
RAW 0 45301.000 4 430379.32000 -703976.10000 -23.70000 163501.00000
MSG 0 45220.868 $GPGGA,163501,4303.7932,N,07039.7610,W,1,10,0.8,8.7,M,-32.4,M,,*78
MSG 0 45221.010 $GPGSA,A,3,,06,,13,16,20,21,23,29,30,31,32,1.3,0.8,1.0*31
MSG 0 45221.133 $GPGSV,3,2,12,16,78,251,49,20,16,246,44,21,00,086,42,23,53,298,48*7E
MSG 0 45221.278 $PGRME,4.6,M,5.9,M,7.5,M*22
MSG 0 45221.339 $PGRMB,0.0,200,,,,K,,N,N*31
MSG 0 45221.399 $PGRMM,WGS 84*06
MSG 0 45221.707 $GPRMC,163502,A,4303.7931,N,07039.7608,W,000.8,111.3,030712,016.1,W*72
POS 0 45302.000 364615.399 4769176.607
QUA 0 45302.000 7 9.200 0.800 10.000 1.000 0.000 0.000 0.000
RAW 0 45302.000 4 430379.31000 -703976.08000 -23.60000 163502.00000
MSG 0 45221.856 $GPGGA,163502,4303.7931,N,07039.7608,W,1,10,0.8,8.8,M,-32.4,M,,*7E
MSG 0 45221.998 $GPGSA,A,3,,06,,13,16,20,21,23,29,30,31,32,1.3,0.8,1.0*31
MSG 0 45222.121 $GPGSV,3,3,12,29,11,036,43,30,71,041,49,31,36,090,51,32,15,220,42*77
MSG 0 45222.267 $PGRME,4.6,M,5.9,M,7.5,M*22
MSG 0 45222.327 $PGRMB,0.0,200,,,,K,,N,N*31
MSG 0 45222.387 $PGRMM,WGS 84*06
MSG 0 45222.717 $GPRMC,163503,A,4303.7930,N,07039.7607,W,000.6,121.7,030712,016.1,W*74
POS 0 45303.000 364615.531 4769176.419
QUA 0 45303.000 7 9.200 0.800 10.000 1.000 0.000 0.000 0.000
RAW 0 45303.000 4 430379.30000 -703976.07000 -23.50000 163503.00000
MSG 0 45222.866 $GPGGA,163503,4303.7930,N,07039.7607,W,1,10,0.8,8.9,M,-32.4,M,,*70
MSG 0 45223.008 $GPGSA,A,3,,06,,13,16,20,21,23,29,30,31,32,1.3,0.8,1.0*31
MSG 0 45223.131 $GPGSV,3,1,12,03,28,179,00,06,38,161,49,10,03,331,36,13,23,316,38*72
MSG 0 45223.277 $PGRME,4.6,M,5.9,M,7.5,M*22
MSG 0 45223.337 $PGRMB,0.0,200,,,,K,,N,N*31
MSG 0 45223.397 $PGRMM,WGS 84*06
MSG 0 45223.707 $GPRMC,163504,A,4303.7930,N,07039.7606,W,000.5,110.5,030712,016.1,W*71
POS 0 45304.000 364615.666 4769176.417
QUA 0 45304.000 7 9.200 0.800 10.000 1.000 0.000 0.000 0.000
RAW 0 45304.000 4 430379.30000 -703976.06000 -23.30000 163504.00000
MSG 0 45223.857 $GPGGA,163504,4303.7930,N,07039.7606,W,1,10,0.8,9.1,M,-32.4,M,,*7F
MSG 0 45223.998 $GPGSA,A,3,,06,,13,16,20,21,23,29,30,31,32,1.3,0.8,1.0*31
MSG 0 45224.121 $GPGSV,3,2,12,16,78,251,49,20,16,246,44,21,00,086,42,23,53,298,48*7E
MSG 0 45224.267 $PGRME,4.6,M,5.9,M,7.5,M*22
MSG 0 45224.327 $PGRMB,0.0,200,,,,K,,N,N*31
MSG 0 45224.388 $PGRMM,WGS 84*06
MSG 0 45224.705 $GPRMC,163505,A,4303.7929,N,07039.7603,W,000.7,116.3,030712,016.1,W*7F
POS 0 45305.000 364616.070 4769176.223
QUA 0 45305.000 7 9.200 0.800 10.000 1.000 0.000 0.000 0.000
RAW 0 45305.000 4 430379.29000 -703976.03000 -23.40000 163505.00000
MSG 0 45224.855 $GPGGA,163505,4303.7929,N,07039.7603,W,1,10,0.8,9.0,M,-32.4,M,,*72
MSG 0 45224.997 $GPGSA,A,3,,06,,13,16,20,21,23,29,30,31,32,1.3,0.8,1.0*31
MSG 0 45225.120 $GPGSV,3,3,12,29,11,036,43,30,71,041,49,31,36,090,51,32,15,220,42*77
MSG 0 45225.265 $PGRME,4.6,M,5.9,M,7.5,M*22
MSG 0 45225.326 $PGRMB,0.0,200,,,,K,,N,N*31
MSG 0 45225.386 $PGRMM,WGS 84*06
MSG 0 45225.730 $GPRMC,163506,A,4303.7929,N,07039.7603,W,000.4,102.1,030712,016.1,W*78
POS 0 45306.000 364616.070 4769176.223
QUA 0 45306.000 7 9.200 0.800 10.000 1.000 0.000 0.000 0.000
RAW 0 45306.000 4 430379.29000 -703976.03000 -23.20000 163506.00000
MSG 0 45225.880 $GPGGA,163506,4303.7929,N,07039.7603,W,1,10,0.8,9.2,M,-32.4,M,,*73
MSG 0 45226.022 $GPGSA,A,3,,06,,13,16,20,21,23,29,30,31,32,1.3,0.8,1.0*31
MSG 0 45226.144 $GPGSV,3,1,12,03,28,179,00,06,38,161,48,10,03,331,34,13,23,316,39*70
MSG 0 45226.290 $PGRME,4.6,M,5.9,M,7.5,M*22
MSG 0 45226.351 $PGRMB,0.0,200,,,,K,,N,N*31
MSG 0 45226.411 $PGRMM,WGS 84*06
MSG 0 45226.723 $GPRMC,163507,A,4303.7929,N,07039.7602,W,000.3,113.1,030712,016.1,W*7F
POS 0 45307.000 364616.205 4769176.221
QUA 0 45307.000 7 9.200 0.800 10.000 1.000 0.000 0.000 0.000
RAW 0 45307.000 4 430379.29000 -703976.02000 -23.40000 163507.00000
MSG 0 45226.873 $GPGGA,163507,4303.7929,N,07039.7602,W,1,10,0.8,9.0,M,-32.4,M,,*71
MSG 0 45227.014 $GPGSA,A,3,,06,,13,16,20,21,23,29,30,31,32,1.3,0.8,1.0*31
MSG 0 45227.137 $GPGSV,3,2,12,16,78,251,49,20,16,246,43,21,00,086,42,23,53,298,49*78
MSG 0 45227.283 $PGRME,4.6,M,5.9,M,7.5,M*22
MSG 0 45227.343 $PGRMB,0.0,200,,,,K,,N,N*31
MSG 0 45227.404 $PGRMM,WGS 84*06
MSG 0 45227.722 $GPRMC,163508,A,4303.7928,N,07039.7601,W,000.4,113.8,030712,016.1,W*7C
POS 0 45308.000 364616.337 4769176.033
QUA 0 45308.000 7 9.200 0.800 10.000 1.000 0.000 0.000 0.000
RAW 0 45308.000 4 430379.28000 -703976.01000 -23.60000 163508.00000
MSG 0 45227.872 $GPGGA,163508,4303.7928,N,07039.7601,W,1,10,0.8,8.8,M,-32.4,M,,*75
MSG 0 45228.014 $GPGSA,A,3,,06,,13,16,20,21,23,29,30,31,32,1.3,0.8,1.0*31
MSG 0 45228.137 $GPGSV,3,3,12,29,11,036,43,30,71,041,49,31,36,090,51,32,15,220,43*76
MSG 0 45228.282 $PGRME,4.6,M,5.9,M,7.5,M*22
MSG 0 45228.343 $PGRMB,0.0,200,,,,K,,N,N*31
MSG 0 45228.403 $PGRMM,WGS 84*06
MSG 0 45228.714 $GPRMC,163509,A,4303.7926,N,07039.7597,W,000.8,118.9,030712,016.1,W*79
POS 0 45309.000 364616.873 4769175.652
QUA 0 45309.000 7 9.200 0.800 10.000 1.000 0.000 0.000 0.000
RAW 0 45309.000 4 430379.26000 -703975.97000 -24.00000 163509.00000
MSG 0 45228.864 $GPGGA,163509,4303.7926,N,07039.7597,W,1,10,0.8,8.4,M,-32.4,M,,*7A
MSG 0 45229.006 $GPGSA,A,3,,06,,13,16,20,21,23,29,30,31,32,1.3,0.8,1.0*31
MSG 0 45229.129 $GPGSV,3,1,12,03,28,179,00,06,38,161,48,10,03,331,35,13,23,316,41*7E
MSG 0 45229.274 $PGRME,4.6,M,5.9,M,7.5,M*22
MSG 0 45229.335 $PGRMB,0.0,200,,,,K,,N,N*31
MSG 0 45229.395 $PGRMM,WGS 84*06
MSG 0 45229.706 $GPRMC,163510,A,4303.7926,N,07039.7596,W,000.6,119.6,030712,016.1,W*70
POS 0 45310.000 364617.009 4769175.649
QUA 0 45310.000 7 9.200 0.800 10.000 1.000 0.000 0.000 0.000
RAW 0 45310.000 4 430379.26000 -703975.96000 -23.80000 163510.00000
MSG 0 45229.856 $GPGGA,163510,4303.7926,N,07039.7596,W,1,10,0.8,8.6,M,-32.4,M,,*71
MSG 0 45229.998 $GPGSA,A,3,,06,,13,16,20,21,23,29,30,31,32,1.3,0.8,1.0*31
MSG 0 45230.121 $GPGSV,3,2,12,16,78,251,49,20,16,246,43,21,00,086,43,23,53,297,49*76
MSG 0 45230.266 $PGRME,4.6,M,5.9,M,7.5,M*22
MSG 0 45230.327 $PGRMB,0.0,200,,,,K,,N,N*31
MSG 0 45230.387 $PGRMM,WGS 84*06
MSG 0 45230.704 $GPRMC,163511,A,4303.7925,N,07039.7594,W,000.7,112.8,030712,016.1,W*74
POS 0 45311.000 364617.276 4769175.459
QUA 0 45311.000 7 9.200 0.800 10.000 1.000 0.000 0.000 0.000
RAW 0 45311.000 4 430379.25000 -703975.94000 -23.60000 163511.00000
MSG 0 45230.854 $GPGGA,163511,4303.7925,N,07039.7594,W,1,10,0.8,8.8,M,-32.4,M,,*7F
MSG 0 45230.996 $GPGSA,A,3,,06,,13,16,20,21,23,29,30,31,32,1.3,0.8,1.0*31
MSG 0 45231.119 $GPGSV,3,3,12,29,11,036,43,30,71,041,49,31,36,090,51,32,15,220,44*71
MSG 0 45231.265 $PGRME,4.6,M,5.9,M,7.5,M*22
MSG 0 45231.325 $PGRMB,0.0,200,,,,K,,N,N*31
MSG 0 45231.385 $PGRMM,WGS 84*06
MSG 0 45231.719 $GPRMC,163512,A,4303.7924,N,07039.7591,W,000.7,116.9,030712,016.1,W*76
POS 0 45312.000 364617.680 4769175.266
QUA 0 45312.000 7 9.200 0.800 10.000 1.000 0.000 0.000 0.000
RAW 0 45312.000 4 430379.24000 -703975.91000 -23.40000 163512.00000
MSG 0 45231.869 $GPGGA,163512,4303.7924,N,07039.7591,W,1,10,0.8,9.0,M,-32.4,M,,*71
MSG 0 45232.010 $GPGSA,A,3,,06,,13,16,20,21,23,29,30,31,32,1.3,0.8,1.0*31
MSG 0 45232.133 $GPGSV,3,1,12,03,28,179,31,06,38,161,49,10,03,331,36,13,23,316,43*7C
MSG 0 45232.279 $PGRME,4.6,M,5.9,M,7.5,M*22
MSG 0 45232.339 $PGRMB,0.0,200,,,,K,,N,N*31
MSG 0 45232.400 $PGRMM,WGS 84*06
MSG 0 45232.706 $GPRMC,163513,A,4303.7924,N,07039.7592,W,000.3,116.7,030712,016.1,W*7E
POS 0 45313.000 364617.544 4769175.268
QUA 0 45313.000 7 9.200 0.800 10.000 1.000 0.000 0.000 0.000
RAW 0 45313.000 4 430379.24000 -703975.92000 -23.10000 163513.00000
MSG 0 45232.856 $GPGGA,163513,4303.7924,N,07039.7592,W,1,10,0.8,9.3,M,-32.4,M,,*70
MSG 0 45232.997 $GPGSA,A,3,,06,,13,16,20,21,23,29,30,31,32,1.3,0.8,1.0*31
MSG 0 45233.120 $GPGSV,3,2,12,16,78,251,49,20,16,246,42,21,00,086,43,23,53,297,49*77
MSG 0 45233.266 $PGRME,4.6,M,5.9,M,7.5,M*22
MSG 0 45233.326 $PGRMB,0.0,200,,,,K,,N,N*31
MSG 0 45233.387 $PGRMM,WGS 84*06
MSG 0 45233.726 $GPRMC,163514,A,4303.7924,N,07039.7592,W,000.2,121.6,030712,016.1,W*7D
POS 0 45314.000 364617.544 4769175.268
QUA 0 45314.000 7 9.200 0.800 10.000 1.000 0.000 0.000 0.000
RAW 0 45314.000 4 430379.24000 -703975.92000 -23.40000 163514.00000
MSG 0 45233.876 $GPGGA,163514,4303.7924,N,07039.7592,W,1,10,0.8,9.0,M,-32.4,M,,*74
MSG 0 45234.018 $GPGSA,A,3,,06,,13,16,20,21,23,29,30,31,32,1.3,0.8,1.0*31
MSG 0 45234.141 $GPGSV,3,3,12,29,11,036,44,30,71,041,49,31,36,090,51,32,15,220,44*76
MSG 0 45234.287 $PGRME,4.6,M,5.9,M,7.5,M*22
MSG 0 45234.347 $PGRMB,0.0,200,,,,K,,N,N*31
MSG 0 45234.407 $PGRMM,WGS 84*06
MSG 0 45234.705 $GPRMC,163515,A,4303.7922,N,07039.7589,W,000.6,129.4,030712,016.1,W*7E
POS 0 45315.000 364617.944 4769174.890
QUA 0 45315.000 7 9.200 0.800 10.000 1.000 0.000 0.000 0.000
RAW 0 45315.000 4 430379.22000 -703975.89000 -23.70000 163515.00000
MSG 0 45234.855 $GPGGA,163515,4303.7922,N,07039.7589,W,1,10,0.8,8.7,M,-32.4,M,,*7F
MSG 0 45234.997 $GPGSA,A,3,,06,,13,16,20,21,23,29,30,31,32,1.3,0.8,1.0*31
MSG 0 45235.119 $GPGSV,3,1,12,03,28,179,31,06,38,161,49,10,03,331,35,13,23,316,44*78
MSG 0 45235.265 $PGRME,4.6,M,5.9,M,7.5,M*22
MSG 0 45235.325 $PGRMB,0.0,200,,,,K,,N,N*31
MSG 0 45235.386 $PGRMM,WGS 84*06
MSG 0 45235.720 $GPRMC,163516,A,4303.7922,N,07039.7589,W,000.4,123.5,030712,016.1,W*74
POS 0 45316.000 364617.944 4769174.890
QUA 0 45316.000 7 9.200 0.800 10.000 1.000 0.000 0.000 0.000
RAW 0 45316.000 4 430379.22000 -703975.89000 -23.80000 163516.00000
MSG 0 45235.870 $GPGGA,163516,4303.7922,N,07039.7589,W,1,10,0.8,8.6,M,-32.4,M,,*7D
MSG 0 45236.011 $GPGSA,A,3,,06,,13,16,20,21,23,29,30,31,32,1.3,0.8,1.0*31
MSG 0 45236.134 $GPGSV,3,2,12,16,78,251,49,20,16,246,42,21,00,086,44,23,53,297,49*70
MSG 0 45236.280 $PGRME,4.6,M,5.9,M,7.5,M*22
MSG 0 45236.340 $PGRMB,0.0,200,,,,K,,N,N*31
MSG 0 45236.400 $PGRMM,WGS 84*06
MSG 0 45236.719 $GPRMC,163517,A,4303.7921,N,07039.7585,W,000.7,124.7,030712,016.1,W*7C
POS 0 45317.000 364618.483 4769174.694
QUA 0 45317.000 7 9.200 0.800 10.000 1.000 0.000 0.000 0.000
RAW 0 45317.000 4 430379.21000 -703975.85000 -23.90000 163517.00000
MSG 0 45236.869 $GPGGA,163517,4303.7921,N,07039.7585,W,1,10,0.8,8.5,M,-32.4,M,,*70
MSG 0 45237.011 $GPGSA,A,3,,06,,13,16,20,21,23,29,30,31,32,1.3,0.8,1.0*31
MSG 0 45237.134 $GPGSV,3,3,12,29,11,036,43,30,71,041,49,31,36,090,51,32,15,220,44*71
MSG 0 45237.280 $PGRME,4.6,M,5.9,M,7.5,M*22
MSG 0 45237.340 $PGRMB,0.0,200,,,,K,,N,N*31
MSG 0 45237.400 $PGRMM,WGS 84*06
MSG 0 45237.706 $GPRMC,163518,A,4303.7921,N,07039.7583,W,000.7,109.3,030712,016.1,W*7E
POS 0 45318.000 364618.755 4769174.689
QUA 0 45318.000 7 9.200 0.800 10.000 1.000 0.000 0.000 0.000
RAW 0 45318.000 4 430379.21000 -703975.83000 -23.70000 163518.00000
MSG 0 45237.856 $GPGGA,163518,4303.7921,N,07039.7583,W,1,10,0.8,8.7,M,-32.4,M,,*7B
MSG 0 45237.997 $GPGSA,A,3,,06,,13,16,20,21,23,29,30,31,32,1.3,0.8,1.0*31
MSG 0 45238.120 $GPGSV,3,1,12,03,28,179,31,06,38,161,49,10,03,331,37,13,23,316,44*7A
MSG 0 45238.266 $PGRME,4.6,M,5.9,M,7.5,M*22
MSG 0 45238.326 $PGRMB,0.0,200,,,,K,,N,N*31
MSG 0 45238.387 $PGRMM,WGS 84*06
MSG 0 45238.716 $GPRMC,163519,A,4303.7920,N,07039.7582,W,000.6,112.2,030712,016.1,W*75
POS 0 45319.000 364618.887 4769174.501
QUA 0 45319.000 7 9.200 0.800 10.000 1.000 0.000 0.000 0.000
RAW 0 45319.000 4 430379.20000 -703975.82000 -23.60000 163519.00000
MSG 0 45238.866 $GPGGA,163519,4303.7920,N,07039.7582,W,1,10,0.8,8.8,M,-32.4,M,,*75
MSG 0 45239.008 $GPGSA,A,3,,06,,13,16,20,21,23,29,30,31,32,1.3,0.8,1.0*31
MSG 0 45239.130 $GPGSV,3,2,12,16,78,251,49,20,16,246,41,21,00,086,44,23,53,297,49*73
MSG 0 45239.276 $PGRME,4.6,M,5.9,M,7.5,M*22
MSG 0 45239.337 $PGRMB,0.0,200,,,,K,,N,N*31
MSG 0 45239.397 $PGRMM,WGS 84*06
MSG 0 45239.714 $GPRMC,163520,A,4303.7920,N,07039.7582,W,000.3,122.4,030712,016.1,W*7F
POS 0 45320.000 364618.887 4769174.501
QUA 0 45320.000 7 9.200 0.800 10.000 1.000 0.000 0.000 0.000
RAW 0 45320.000 4 430379.20000 -703975.82000 -23.50000 163520.00000
MSG 0 45239.864 $GPGGA,163520,4303.7920,N,07039.7582,W,1,10,0.8,8.9,M,-32.4,M,,*7E
MSG 0 45240.005 $GPGSA,A,3,,06,,13,16,20,21,23,29,30,31,32,1.3,0.8,1.0*31
MSG 0 45240.128 $GPGSV,3,3,12,29,11,036,43,30,71,041,49,31,36,090,51,32,15,220,44*71
MSG 0 45240.274 $PGRME,4.6,M,5.9,M,7.5,M*22
MSG 0 45240.334 $PGRMB,0.0,200,,,,K,,N,N*31
MSG 0 45240.395 $PGRMM,WGS 84*06
MSG 0 45240.718 $GPRMC,163521,A,4303.7919,N,07039.7579,W,000.6,121.4,030712,016.1,W*76
POS 0 45321.000 364619.290 4769174.308
QUA 0 45321.000 7 9.200 0.800 10.000 1.000 0.000 0.000 0.000
RAW 0 45321.000 4 430379.19000 -703975.79000 -23.60000 163521.00000
MSG 0 45240.868 $GPGGA,163521,4303.7919,N,07039.7579,W,1,10,0.8,8.8,M,-32.4,M,,*70
MSG 0 45241.010 $GPGSA,A,3,,06,,13,16,20,21,23,29,30,31,32,1.3,0.8,1.0*31
MSG 0 45241.133 $GPGSV,3,1,12,03,28,179,00,06,38,161,49,10,03,331,35,13,23,316,43*7D
MSG 0 45241.278 $PGRME,4.6,M,5.9,M,7.5,M*22
MSG 0 45241.339 $PGRMB,0.0,200,,,,K,,N,N*31
MSG 0 45241.399 $PGRMM,WGS 84*06
MSG 0 45241.719 $GPRMC,163522,A,4303.7917,N,07039.7579,W,000.5,141.6,030712,016.1,W*7C
POS 0 45322.000 364619.283 4769173.938
QUA 0 45322.000 7 9.200 0.800 10.000 1.000 0.000 0.000 0.000
RAW 0 45322.000 4 430379.17000 -703975.79000 -23.60000 163522.00000
MSG 0 45241.869 $GPGGA,163522,4303.7917,N,07039.7579,W,1,10,0.8,8.8,M,-32.4,M,,*7D
MSG 0 45242.011 $GPGSA,A,3,,06,,13,16,20,21,23,29,30,31,32,1.3,0.8,1.0*31
MSG 0 45242.134 $GPGSV,3,2,12,16,78,251,49,20,16,246,41,21,00,086,43,23,53,297,48*75
MSG 0 45242.279 $PGRME,4.6,M,5.9,M,7.5,M*22
MSG 0 45242.340 $PGRMB,0.0,200,,,,K,,N,N*31
MSG 0 45242.400 $PGRMM,WGS 84*06
MSG 0 45242.722 $GPRMC,163523,A,4303.7917,N,07039.7578,W,000.5,129.6,030712,016.1,W*72
POS 0 45323.000 364619.419 4769173.935
QUA 0 45323.000 7 9.200 0.800 10.000 1.000 0.000 0.000 0.000
RAW 0 45323.000 4 430379.17000 -703975.78000 -23.70000 163523.00000
MSG 0 45242.872 $GPGGA,163523,4303.7917,N,07039.7578,W,1,10,0.8,8.7,M,-32.4,M,,*72
MSG 0 45243.013 $GPGSA,A,3,,06,,13,16,20,21,23,29,30,31,32,1.3,0.8,1.0*31
MSG 0 45243.136 $GPGSV,3,3,12,29,11,036,43,30,71,041,49,31,36,090,51,32,15,220,44*71
MSG 0 45243.282 $PGRME,4.6,M,5.9,M,7.5,M*22
MSG 0 45243.342 $PGRMB,0.0,200,,,,K,,N,N*31
MSG 0 45243.403 $PGRMM,WGS 84*06
MSG 0 45243.718 $GPRMC,163524,A,4303.7916,N,07039.7575,W,000.6,117.0,030712,016.1,W*71
POS 0 45324.000 364619.822 4769173.742
QUA 0 45324.000 7 9.200 0.800 10.000 1.000 0.000 0.000 0.000
RAW 0 45324.000 4 430379.16000 -703975.75000 -23.60000 163524.00000
MSG 0 45243.868 $GPGGA,163524,4303.7916,N,07039.7575,W,1,10,0.8,8.8,M,-32.4,M,,*76
MSG 0 45244.009 $GPGSA,A,3,,06,,13,16,20,21,23,29,30,31,32,1.3,0.8,1.0*31
MSG 0 45244.132 $GPGSV,3,1,12,03,28,179,31,06,38,161,49,10,03,331,33,13,23,316,44*7E
MSG 0 45244.278 $PGRME,4.6,M,5.9,M,7.5,M*22
MSG 0 45244.338 $PGRMB,0.0,200,,,,K,,N,N*31
MSG 0 45244.399 $PGRMM,WGS 84*06
MSG 0 45244.719 $GPRMC,163525,A,4303.7915,N,07039.7574,W,000.6,113.0,030712,016.1,W*76
POS 0 45325.000 364619.954 4769173.554
QUA 0 45325.000 7 9.200 0.800 10.000 1.000 0.000 0.000 0.000
RAW 0 45325.000 4 430379.15000 -703975.74000 -23.70000 163525.00000
MSG 0 45244.869 $GPGGA,163525,4303.7915,N,07039.7574,W,1,10,0.8,8.7,M,-32.4,M,,*7A
MSG 0 45245.011 $GPGSA,A,3,,06,,13,16,20,21,23,29,30,31,32,1.3,0.8,1.0*31
MSG 0 45245.133 $GPGSV,3,2,12,16,78,251,49,20,16,246,41,21,00,086,42,23,53,297,49*75
MSG 0 45245.279 $PGRME,4.6,M,5.9,M,7.5,M*22
MSG 0 45245.340 $PGRMB,0.0,200,,,,K,,N,N*31
MSG 0 45245.400 $PGRMM,WGS 84*06
MSG 0 45245.729 $GPRMC,163526,A,4303.7915,N,07039.7573,W,000.5,122.9,030712,016.1,W*7A
POS 0 45326.000 364620.090 4769173.551
QUA 0 45326.000 7 9.200 0.800 10.000 1.000 0.000 0.000 0.000
RAW 0 45326.000 4 430379.15000 -703975.73000 -23.70000 163526.00000
MSG 0 45245.879 $GPGGA,163526,4303.7915,N,07039.7573,W,1,10,0.8,8.7,M,-32.4,M,,*7E
MSG 0 45246.021 $GPGSA,A,3,,06,,13,16,20,21,23,29,30,31,32,1.3,0.8,1.0*31
MSG 0 45246.143 $GPGSV,3,3,12,29,11,036,43,30,71,041,49,31,36,090,52,32,15,220,45*73
MSG 0 45246.289 $PGRME,4.6,M,5.9,M,7.5,M*22
MSG 0 45246.350 $PGRMB,0.0,200,,,,K,,N,N*31
MSG 0 45246.410 $PGRMM,WGS 84*06
MSG 0 45246.719 $GPRMC,163527,A,4303.7914,N,07039.7571,W,000.6,121.2,030712,016.1,W*73
POS 0 45327.000 364620.357 4769173.361
QUA 0 45327.000 7 9.200 0.800 10.000 1.000 0.000 0.000 0.000
RAW 0 45327.000 4 430379.14000 -703975.71000 -23.70000 163527.00000
MSG 0 45246.869 $GPGGA,163527,4303.7914,N,07039.7571,W,1,10,0.8,8.7,M,-32.4,M,,*7C
MSG 0 45247.010 $GPGSA,A,3,,06,,13,16,20,21,23,29,30,31,32,1.3,0.8,1.0*31
MSG 0 45247.133 $GPGSV,3,1,12,03,28,179,31,06,38,161,49,10,03,331,32,13,23,316,44*7F
MSG 0 45247.279 $PGRME,4.6,M,5.9,M,7.5,M*22
MSG 0 45247.339 $PGRMB,0.0,200,,,,K,,N,N*31
MSG 0 45247.400 $PGRMM,WGS 84*06
MSG 0 45247.715 $GPRMC,163528,A,4303.7912,N,07039.7570,W,000.6,135.8,030712,016.1,W*74
POS 0 45328.000 364620.486 4769172.988
QUA 0 45328.000 7 9.200 0.800 10.000 1.000 0.000 0.000 0.000
RAW 0 45328.000 4 430379.12000 -703975.70000 -23.70000 163528.00000
MSG 0 45247.865 $GPGGA,163528,4303.7912,N,07039.7570,W,1,10,0.8,8.7,M,-32.4,M,,*74
MSG 0 45248.006 $GPGSA,A,3,,06,,13,16,20,21,23,29,30,31,32,1.3,0.8,1.0*31
MSG 0 45248.129 $GPGSV,3,2,12,16,78,251,49,20,16,246,41,21,00,086,42,23,53,297,49*75
MSG 0 45248.275 $PGRME,4.6,M,5.9,M,7.5,M*22
MSG 0 45248.335 $PGRMB,0.0,200,,,,K,,N,N*31
MSG 0 45248.396 $PGRMM,WGS 84*06
MSG 0 45248.717 $GPRMC,163529,A,4303.7912,N,07039.7569,W,000.4,119.9,030712,016.1,W*70
POS 0 45329.000 364620.622 4769172.985
QUA 0 45329.000 7 9.200 0.800 10.000 1.000 0.000 0.000 0.000
RAW 0 45329.000 4 430379.12000 -703975.69000 -23.60000 163529.00000
MSG 0 45248.867 $GPGGA,163529,4303.7912,N,07039.7569,W,1,10,0.8,8.8,M,-32.4,M,,*72
MSG 0 45249.008 $GPGSA,A,3,,06,,13,16,20,21,23,29,30,31,32,1.3,0.8,1.0*31
MSG 0 45249.131 $GPGSV,3,3,12,29,11,036,42,30,71,041,49,31,36,090,51,32,15,220,45*71
MSG 0 45249.277 $PGRME,4.6,M,5.9,M,7.5,M*22
MSG 0 45249.337 $PGRMB,0.0,200,,,,K,,N,N*31
MSG 0 45249.397 $PGRMM,WGS 84*06
MSG 0 45249.736 $GPRMC,163530,A,4303.7911,N,07039.7566,W,000.7,124.4,030712,016.1,W*74
POS 0 45330.000 364621.025 4769172.792
QUA 0 45330.000 7 9.200 0.800 10.000 1.000 0.000 0.000 0.000
RAW 0 45330.000 4 430379.11000 -703975.66000 -23.80000 163530.00000
MSG 0 45249.886 $GPGGA,163530,4303.7911,N,07039.7566,W,1,10,0.8,8.6,M,-32.4,M,,*78
MSG 0 45250.028 $GPGSA,A,3,,06,,13,16,20,21,23,29,30,31,32,1.3,0.8,1.0*31
MSG 0 45250.151 $GPGSV,3,1,12,03,28,179,00,06,38,161,49,10,03,331,31,13,23,316,44*7E
MSG 0 45250.296 $PGRME,4.6,M,5.9,M,7.5,M*22
MSG 0 45250.357 $PGRMB,0.0,200,,,,K,,N,N*31
MSG 0 45250.417 $PGRMM,WGS 84*06
MSG 0 45250.737 $GPRMC,163531,A,4303.7911,N,07039.7565,W,000.5,111.2,030712,016.1,W*74
POS 0 45331.000 364621.161 4769172.790
QUA 0 45331.000 7 9.200 0.800 10.000 1.000 0.000 0.000 0.000
RAW 0 45331.000 4 430379.11000 -703975.65000 -23.70000 163531.00000
MSG 0 45250.887 $GPGGA,163531,4303.7911,N,07039.7565,W,1,10,0.8,8.7,M,-32.4,M,,*7B
MSG 0 45251.028 $GPGSA,A,3,,06,,13,16,20,21,23,29,30,31,32,1.3,0.8,1.0*31
MSG 0 45251.151 $GPGSV,3,2,12,16,78,251,49,20,16,246,42,21,00,086,42,23,53,297,49*76
MSG 0 45251.297 $PGRME,4.6,M,5.9,M,7.5,M*22
MSG 0 45251.357 $PGRMB,0.0,200,,,,K,,N,N*31
MSG 0 45251.418 $PGRMM,WGS 84*06
MSG 0 45251.718 $GPRMC,163532,A,4303.7910,N,07039.7564,W,000.4,124.5,030712,016.1,W*77
POS 0 45332.000 364621.293 4769172.602
QUA 0 45332.000 7 9.200 0.800 10.000 1.000 0.000 0.000 0.000
RAW 0 45332.000 4 430379.10000 -703975.64000 -23.50000 163532.00000
MSG 0 45251.868 $GPGGA,163532,4303.7910,N,07039.7564,W,1,10,0.8,8.9,M,-32.4,M,,*76
MSG 0 45252.010 $GPGSA,A,3,,06,,13,16,20,21,23,29,30,31,32,1.3,0.8,1.0*31
MSG 0 45252.133 $GPGSV,3,3,12,29,11,035,42,30,71,041,49,31,36,090,52,32,15,220,45*71
MSG 0 45252.278 $PGRME,4.6,M,5.9,M,7.5,M*22
MSG 0 45252.339 $PGRMB,0.0,200,,,,K,,N,N*31
MSG 0 45252.399 $PGRMM,WGS 84*06
MSG 0 45252.719 $GPRMC,163533,A,4303.7909,N,07039.7563,W,000.5,129.8,030712,016.1,W*78
POS 0 45333.000 364621.425 4769172.414
QUA 0 45333.000 7 9.200 0.800 10.000 1.000 0.000 0.000 0.000
RAW 0 45333.000 4 430379.09000 -703975.63000 -23.60000 163533.00000
MSG 0 45252.869 $GPGGA,163533,4303.7909,N,07039.7563,W,1,10,0.8,8.8,M,-32.4,M,,*79
MSG 0 45253.010 $GPGSA,A,3,,06,,13,16,20,21,23,29,30,31,32,1.3,0.8,1.0*31
MSG 0 45253.133 $GPGSV,3,1,12,03,28,179,32,06,38,161,49,10,03,331,30,13,23,316,44*7E
MSG 0 45253.279 $PGRME,4.6,M,5.9,M,7.5,M*22
MSG 0 45253.339 $PGRMB,0.0,200,,,,K,,N,N*31
MSG 0 45253.400 $PGRMM,WGS 84*06
MSG 0 45253.717 $GPRMC,163534,A,4303.7908,N,07039.7561,W,000.6,123.5,030712,016.1,W*78
POS 0 45334.000 364621.693 4769172.224
QUA 0 45334.000 7 9.200 0.800 10.000 1.000 0.000 0.000 0.000
RAW 0 45334.000 4 430379.08000 -703975.61000 -23.60000 163534.00000
MSG 0 45253.867 $GPGGA,163534,4303.7908,N,07039.7561,W,1,10,0.8,8.8,M,-32.4,M,,*7D
MSG 0 45254.009 $GPGSA,A,3,,06,,13,16,20,21,23,29,30,31,32,1.3,0.8,1.0*31
MSG 0 45254.132 $GPGSV,3,2,12,16,78,251,49,20,16,246,42,21,00,086,42,23,53,297,49*76
MSG 0 45254.277 $PGRME,4.6,M,5.9,M,7.5,M*22
MSG 0 45254.338 $PGRMT,GPS 17-HVS Ver. 2.80,P,P,R,R,P,,39,R*01
MSG 0 45254.438 $PGRMB,0.0,200,,,,K,,N,N*31
MSG 0 45254.498 $PGRMM,WGS 84*06
MSG 0 45254.703 $GPRMC,163535,A,4303.7907,N,07039.7560,W,000.5,133.6,030712,016.1,W*76
POS 0 45335.000 364621.825 4769172.036
QUA 0 45335.000 7 9.200 0.800 10.000 1.000 0.000 0.000 0.000
RAW 0 45335.000 4 430379.07000 -703975.60000 -23.80000 163535.00000
MSG 0 45254.853 $GPGGA,163535,4303.7907,N,07039.7560,W,1,10,0.8,8.6,M,-32.4,M,,*7C
MSG 0 45254.995 $GPGSA,A,3,,06,,13,16,20,21,23,29,30,31,32,1.3,0.8,1.0*31
MSG 0 45255.118 $GPGSV,3,3,12,29,11,035,43,30,71,041,49,31,36,090,51,32,15,220,45*73
MSG 0 45255.263 $PGRME,4.6,M,5.9,M,7.5,M*22
MSG 0 45255.324 $PGRMB,0.0,200,,,,K,,N,N*31
MSG 0 45255.384 $PGRMM,WGS 84*06
MSG 0 45255.706 $GPRMC,163536,A,4303.7906,N,07039.7557,W,000.6,120.1,030712,016.1,W*76
POS 0 45336.000 364622.228 4769171.843
QUA 0 45336.000 7 9.200 0.800 10.000 1.000 0.000 0.000 0.000
RAW 0 45336.000 4 430379.06000 -703975.57000 -23.90000 163536.00000
MSG 0 45255.856 $GPGGA,163536,4303.7906,N,07039.7557,W,1,10,0.8,8.5,M,-32.4,M,,*79
MSG 0 45255.998 $GPGSA,A,3,,06,,13,16,20,21,23,29,30,31,32,1.3,0.8,1.0*31
MSG 0 45256.120 $GPGSV,3,1,12,03,28,179,32,06,38,161,49,10,03,331,30,13,23,316,43*79
MSG 0 45256.266 $PGRME,4.6,M,5.9,M,7.5,M*22
MSG 0 45256.326 $PGRMB,0.0,200,,,,K,,N,N*31
MSG 0 45256.387 $PGRMM,WGS 84*06
MSG 0 45256.704 $GPRMC,163537,A,4303.7904,N,07039.7555,W,000.8,124.6,030712,016.1,W*7A
POS 0 45337.000 364622.492 4769171.467
QUA 0 45337.000 7 9.200 0.800 10.000 1.000 0.000 0.000 0.000
RAW 0 45337.000 4 430379.04000 -703975.55000 -23.80000 163537.00000
MSG 0 45256.854 $GPGGA,163537,4303.7904,N,07039.7555,W,1,10,0.8,8.6,M,-32.4,M,,*7B
MSG 0 45256.996 $GPGSA,A,3,,06,,13,16,20,21,23,29,30,31,32,1.3,0.8,1.0*31
MSG 0 45257.118 $GPGSV,3,2,12,16,78,251,49,20,16,246,42,21,00,086,41,23,53,297,49*75
MSG 0 45257.264 $PGRME,4.6,M,5.9,M,7.5,M*22
MSG 0 45257.325 $PGRMB,0.0,200,,,,K,,N,N*31
MSG 0 45257.385 $PGRMM,WGS 84*06
MSG 0 45257.727 $GPRMC,163538,A,4303.7904,N,07039.7554,W,000.5,122.5,030712,016.1,W*7C
POS 0 45338.000 364622.628 4769171.464
QUA 0 45338.000 7 9.200 0.800 10.000 1.000 0.000 0.000 0.000
RAW 0 45338.000 4 430379.04000 -703975.54000 -23.60000 163538.00000
MSG 0 45257.877 $GPGGA,163538,4303.7904,N,07039.7554,W,1,10,0.8,8.8,M,-32.4,M,,*7B
MSG 0 45258.019 $GPGSA,A,3,,06,,13,16,20,21,23,29,30,31,32,1.3,0.8,1.0*31
MSG 0 45258.142 $GPGSV,3,3,12,29,11,035,43,30,70,041,49,31,36,090,51,32,15,220,44*73
MSG 0 45258.287 $PGRME,4.6,M,5.9,M,7.5,M*22
MSG 0 45258.348 $PGRMB,0.0,200,,,,K,,N,N*31
MSG 0 45258.408 $PGRMM,WGS 84*06
MSG 0 45258.704 $GPRMC,163539,A,4303.7904,N,07039.7554,W,000.4,131.8,030712,016.1,W*73
POS 0 45339.000 364622.628 4769171.464
QUA 0 45339.000 7 9.200 0.800 10.000 1.000 0.000 0.000 0.000
RAW 0 45339.000 4 430379.04000 -703975.54000 -23.40000 163539.00000
MSG 0 45258.854 $GPGGA,163539,4303.7904,N,07039.7554,W,1,10,0.8,9.0,M,-32.4,M,,*73
MSG 0 45258.996 $GPGSA,A,3,,06,,13,16,20,21,23,29,30,31,32,1.3,0.8,1.0*31
MSG 0 45259.119 $GPGSV,3,1,12,03,28,179,32,06,38,161,48,10,03,331,30,13,23,316,44*7F
MSG 0 45259.265 $PGRME,4.6,M,5.9,M,7.5,M*22
MSG 0 45259.325 $PGRMB,0.0,200,,,,K,,N,N*31
MSG 0 45259.385 $PGRMM,WGS 84*06
MSG 0 45259.710 $GPRMC,163540,A,4303.7903,N,07039.7552,W,000.5,127.4,030712,016.1,W*76
POS 0 45340.000 364622.896 4769171.274
QUA 0 45340.000 7 9.200 0.800 10.000 1.000 0.000 0.000 0.000
RAW 0 45340.000 4 430379.03000 -703975.52000 -23.60000 163540.00000
MSG 0 45259.860 $GPGGA,163540,4303.7903,N,07039.7552,W,1,10,0.8,8.8,M,-32.4,M,,*75
MSG 0 45260.001 $GPGSA,A,3,,06,,13,16,20,21,23,29,30,31,32,1.3,0.8,1.0*31
MSG 0 45260.124 $GPGSV,3,2,12,16,78,251,49,20,16,246,42,21,00,086,41,23,53,297,49*75
MSG 0 45260.270 $PGRME,4.6,M,5.9,M,7.5,M*22
MSG 0 45260.330 $PGRMB,0.0,200,,,,K,,N,N*31
MSG 0 45260.391 $PGRMM,WGS 84*06
MSG 0 45260.704 $GPRMC,163541,A,4303.7902,N,07039.7551,W,000.4,132.5,030712,016.1,W*71
POS 0 45341.000 364623.028 4769171.086
QUA 0 45341.000 7 9.200 0.800 10.000 1.000 0.000 0.000 0.000
RAW 0 45341.000 4 430379.02000 -703975.51000 -23.80000 163541.00000
MSG 0 45260.854 $GPGGA,163541,4303.7902,N,07039.7551,W,1,10,0.8,8.6,M,-32.4,M,,*78
MSG 0 45260.996 $GPGSA,A,3,,06,,13,16,20,21,23,29,30,31,32,1.3,0.8,1.0*31
MSG 0 45261.119 $GPGSV,3,3,12,29,11,035,43,30,70,041,49,31,35,091,51,32,15,220,45*70
MSG 0 45261.264 $PGRME,4.6,M,5.9,M,7.5,M*22
MSG 0 45261.325 $PGRMB,0.0,200,,,,K,,N,N*31
MSG 0 45261.385 $PGRMM,WGS 84*06
MSG 0 45261.704 $GPRMC,163542,A,4303.7901,N,07039.7549,W,000.6,127.7,030712,016.1,W*7C
POS 0 45342.000 364623.295 4769170.896
QUA 0 45342.000 7 9.200 0.800 10.000 1.000 0.000 0.000 0.000
RAW 0 45342.000 4 430379.01000 -703975.49000 -24.00000 163542.00000
MSG 0 45261.854 $GPGGA,163542,4303.7901,N,07039.7549,W,1,10,0.8,8.4,M,-32.4,M,,*73
MSG 0 45261.996 $GPGSA,A,3,,06,,13,16,20,21,23,29,30,31,32,1.3,0.8,1.0*31
MSG 0 45262.118 $GPGSV,3,1,12,03,28,179,32,06,38,161,49,10,03,331,33,13,23,316,44*7D
MSG 0 45262.264 $PGRME,4.6,M,5.9,M,7.5,M*22
MSG 0 45262.325 $PGRMB,0.0,200,,,,K,,N,N*31
MSG 0 45262.385 $PGRMM,WGS 84*06
MSG 0 45262.705 $GPRMC,163543,A,4303.7899,N,07039.7546,W,000.8,124.9,030712,016.1,W*71
POS 0 45343.000 364623.695 4769170.517
QUA 0 45343.000 7 9.200 0.800 10.000 1.000 0.000 0.000 0.000
RAW 0 45343.000 4 430378.99000 -703975.46000 -23.90000 163543.00000
MSG 0 45262.855 $GPGGA,163543,4303.7899,N,07039.7546,W,1,10,0.8,8.5,M,-32.4,M,,*7C
MSG 0 45262.996 $GPGSA,A,3,,06,,13,16,20,21,23,29,30,31,32,1.3,0.8,1.0*31
MSG 0 45263.119 $GPGSV,3,2,12,16,78,251,49,20,16,246,42,21,00,086,41,23,53,297,49*75
MSG 0 45263.265 $PGRME,4.6,M,5.9,M,7.5,M*22
MSG 0 45263.325 $PGRMB,0.0,200,,,,K,,N,N*31
MSG 0 45263.386 $PGRMM,WGS 84*06
MSG 0 45263.718 $GPRMC,163544,A,4303.7899,N,07039.7545,W,000.6,112.3,030712,016.1,W*74
POS 0 45344.000 364623.831 4769170.515
QUA 0 45344.000 7 9.200 0.800 10.000 1.000 0.000 0.000 0.000
RAW 0 45344.000 4 430378.99000 -703975.45000 -23.50000 163544.00000
MSG 0 45263.868 $GPGGA,163544,4303.7899,N,07039.7545,W,1,10,0.8,8.9,M,-32.4,M,,*74
MSG 0 45264.010 $GPGSA,A,3,,06,,13,16,20,21,23,29,30,31,32,1.3,0.8,1.0*31
MSG 0 45264.132 $GPGSV,3,3,12,29,11,035,43,30,70,041,49,31,35,091,51,32,14,219,44*7A
MSG 0 45264.278 $PGRME,4.6,M,5.9,M,7.5,M*22
MSG 0 45264.339 $PGRMB,0.0,200,,,,K,,N,N*31
MSG 0 45264.399 $PGRMM,WGS 84*06
MSG 0 45264.717 $GPRMC,163545,A,4303.7898,N,07039.7544,W,000.5,127.0,030712,016.1,W*73
POS 0 45345.000 364623.963 4769170.327
QUA 0 45345.000 7 9.200 0.800 10.000 1.000 0.000 0.000 0.000
RAW 0 45345.000 4 430378.98000 -703975.44000 -23.50000 163545.00000
MSG 0 45264.867 $GPGGA,163545,4303.7898,N,07039.7544,W,1,10,0.8,8.9,M,-32.4,M,,*75
MSG 0 45265.008 $GPGSA,A,3,,06,,13,16,20,21,23,29,30,31,32,1.3,0.8,1.0*31
MSG 0 45265.131 $GPGSV,3,1,12,03,28,179,31,06,38,161,49,10,03,331,34,13,23,316,44*79
MSG 0 45265.277 $PGRME,4.6,M,5.9,M,7.5,M*22
MSG 0 45265.337 $PGRMB,0.0,200,,,,K,,N,N*31
MSG 0 45265.398 $PGRMM,WGS 84*06
MSG 0 45265.710 $GPRMC,163546,A,4303.7898,N,07039.7542,W,000.5,119.5,030712,016.1,W*7E
POS 0 45346.000 364624.234 4769170.322
QUA 0 45346.000 7 9.200 0.800 10.000 1.000 0.000 0.000 0.000
RAW 0 45346.000 4 430378.98000 -703975.42000 -23.60000 163546.00000
MSG 0 45265.860 $GPGGA,163546,4303.7898,N,07039.7542,W,1,10,0.8,8.8,M,-32.4,M,,*71
MSG 0 45266.001 $GPGSA,A,3,,06,,13,16,20,21,23,29,30,31,32,1.3,0.8,1.0*31
MSG 0 45266.124 $GPGSV,3,2,12,16,78,251,49,20,16,246,42,21,00,086,42,23,53,297,49*76
MSG 0 45266.270 $PGRME,4.6,M,5.9,M,7.5,M*22
MSG 0 45266.330 $PGRMB,0.0,200,,,,K,,N,N*31
MSG 0 45266.390 $PGRMM,WGS 84*06
MSG 0 45266.711 $GPRMC,163547,A,4303.7897,N,07039.7542,W,000.4,135.4,030712,016.1,W*7E
POS 0 45347.000 364624.231 4769170.136
QUA 0 45347.000 7 9.200 0.800 10.000 1.000 0.000 0.000 0.000
RAW 0 45347.000 4 430378.97000 -703975.42000 -23.70000 163547.00000
MSG 0 45266.861 $GPGGA,163547,4303.7897,N,07039.7542,W,1,10,0.8,8.7,M,-32.4,M,,*70
MSG 0 45267.002 $GPGSA,A,3,,06,,13,16,20,21,23,29,30,31,32,1.3,0.8,1.0*31
MSG 0 45267.125 $GPGSV,3,3,12,29,11,035,43,30,70,041,49,31,35,091,52,32,14,219,45*78
MSG 0 45267.271 $PGRME,4.6,M,5.9,M,7.5,M*22
MSG 0 45267.331 $PGRMB,0.0,200,,,,K,,N,N*31
MSG 0 45267.392 $PGRMM,WGS 84*06
MSG 0 45267.703 $GPRMC,163548,A,4303.7895,N,07039.7540,W,000.6,137.3,030712,016.1,W*76
POS 0 45348.000 364624.495 4769169.761
QUA 0 45348.000 7 9.200 0.800 10.000 1.000 0.000 0.000 0.000
RAW 0 45348.000 4 430378.95000 -703975.40000 -23.80000 163548.00000
MSG 0 45267.853 $GPGGA,163548,4303.7895,N,07039.7540,W,1,10,0.8,8.6,M,-32.4,M,,*7E
MSG 0 45267.995 $GPGSA,A,3,,06,,13,16,20,21,23,29,30,31,32,1.3,0.8,1.0*31
MSG 0 45268.117 $GPGSV,3,1,12,03,28,179,32,06,38,161,49,10,03,331,34,13,23,316,44*7A
MSG 0 45268.263 $PGRME,4.6,M,5.9,M,7.5,M*22
MSG 0 45268.323 $PGRMB,0.0,200,,,,K,,N,N*31
MSG 0 45268.384 $PGRMM,WGS 84*06
MSG 0 45268.704 $GPRMC,163549,A,4303.7894,N,07039.7538,W,000.6,127.7,030712,016.1,W*7C
POS 0 45349.000 364624.763 4769169.570
QUA 0 45349.000 7 9.200 0.800 10.000 1.000 0.000 0.000 0.000
RAW 0 45349.000 4 430378.94000 -703975.38000 -23.60000 163549.00000
MSG 0 45268.854 $GPGGA,163549,4303.7894,N,07039.7538,W,1,10,0.8,8.8,M,-32.4,M,,*7F
MSG 0 45268.996 $GPGSA,A,3,,06,,13,16,20,21,23,29,30,31,32,1.3,0.8,1.0*31
MSG 0 45269.119 $GPGSV,3,2,12,16,78,251,49,20,16,246,41,21,00,086,44,23,53,297,49*73
MSG 0 45269.265 $PGRME,4.7,M,5.9,M,7.5,M*23
MSG 0 45269.325 $PGRMB,0.0,200,,,,K,,N,N*31
MSG 0 45269.385 $PGRMM,WGS 84*06
MSG 0 45269.713 $GPRMC,163550,A,4303.7893,N,07039.7537,W,000.6,130.4,030712,016.1,W*79
POS 0 45350.000 364624.895 4769169.383
QUA 0 45350.000 7 9.200 0.800 10.000 1.000 0.000 0.000 0.000
RAW 0 45350.000 4 430378.93000 -703975.37000 -23.60000 163550.00000
MSG 0 45269.863 $GPGGA,163550,4303.7893,N,07039.7537,W,1,10,0.8,8.8,M,-32.4,M,,*7F
MSG 0 45270.004 $GPGSA,A,3,,06,,13,16,20,21,23,29,30,31,32,1.3,0.8,1.0*31
MSG 0 45270.127 $GPGSV,3,3,12,29,11,035,43,30,70,041,49,31,35,091,52,32,14,219,44*79
MSG 0 45270.273 $PGRME,4.7,M,5.9,M,7.5,M*23
MSG 0 45270.333 $PGRMB,0.0,200,,,,K,,N,N*31
MSG 0 45270.393 $PGRMM,WGS 84*06
MSG 0 45270.719 $GPRMC,163551,A,4303.7893,N,07039.7535,W,000.5,119.7,030712,016.1,W*71
POS 0 45351.000 364625.166 4769169.377
QUA 0 45351.000 7 9.200 0.800 10.000 1.000 0.000 0.000 0.000
RAW 0 45351.000 4 430378.93000 -703975.35000 -23.70000 163551.00000
MSG 0 45270.869 $GPGGA,163551,4303.7893,N,07039.7535,W,1,10,0.8,8.7,M,-32.4,M,,*73
MSG 0 45271.011 $GPGSA,A,3,,06,,13,16,20,21,23,29,30,31,32,1.3,0.8,1.0*31
MSG 0 45271.134 $GPGSV,3,1,12,03,28,179,31,06,38,161,49,10,03,331,35,13,23,316,44*78
MSG 0 45271.279 $PGRME,4.7,M,5.9,M,7.5,M*23
MSG 0 45271.340 $PGRMB,0.0,200,,,,K,,N,N*31
MSG 0 45271.400 $PGRMM,WGS 84*06
MSG 0 45271.705 $GPRMC,163552,A,4303.7892,N,07039.7533,W,000.6,116.7,030712,016.1,W*79
POS 0 45352.000 364625.434 4769169.187
QUA 0 45352.000 7 9.200 0.800 10.000 1.000 0.000 0.000 0.000
RAW 0 45352.000 4 430378.92000 -703975.33000 -23.60000 163552.00000
MSG 0 45271.855 $GPGGA,163552,4303.7892,N,07039.7533,W,1,10,0.8,8.8,M,-32.4,M,,*78
MSG 0 45271.996 $GPGSA,A,3,,06,,13,16,20,21,23,29,30,31,32,1.3,0.8,1.0*31
MSG 0 45272.119 $GPGSV,3,2,12,16,78,251,49,20,16,246,41,21,00,086,44,23,53,297,49*73
MSG 0 45272.265 $PGRME,4.7,M,5.9,M,7.5,M*23
MSG 0 45272.325 $PGRMB,0.0,200,,,,K,,N,N*31
MSG 0 45272.386 $PGRMM,WGS 84*06
MSG 0 45272.705 $GPRMC,163553,A,4303.7891,N,07039.7533,W,000.4,132.5,030712,016.1,W*7D
POS 0 45353.000 364625.430 4769169.002
QUA 0 45353.000 7 9.200 0.800 10.000 1.000 0.000 0.000 0.000
RAW 0 45353.000 4 430378.91000 -703975.33000 -23.50000 163553.00000
MSG 0 45272.855 $GPGGA,163553,4303.7891,N,07039.7533,W,1,10,0.8,8.9,M,-32.4,M,,*7B
MSG 0 45272.996 $GPGSA,A,3,,06,,13,16,20,21,23,29,30,31,32,1.3,0.8,1.0*31
MSG 0 45273.119 $GPGSV,3,3,12,29,11,035,43,30,70,041,49,31,35,091,51,32,14,219,45*7B
MSG 0 45273.265 $PGRME,4.7,M,5.9,M,7.5,M*23
MSG 0 45273.325 $PGRMB,0.0,200,,,,K,,N,N*31
MSG 0 45273.385 $PGRMM,WGS 84*06
MSG 0 45273.718 $GPRMC,163554,A,4303.7890,N,07039.7531,W,000.5,128.0,030712,016.1,W*76
POS 0 45354.000 364625.698 4769168.811
QUA 0 45354.000 7 9.200 0.800 10.000 1.000 0.000 0.000 0.000
RAW 0 45354.000 4 430378.90000 -703975.31000 -23.60000 163554.00000
MSG 0 45273.867 $GPGGA,163554,4303.7890,N,07039.7531,W,1,10,0.8,8.8,M,-32.4,M,,*7E
MSG 0 45274.009 $GPGSA,A,3,,06,,13,16,20,21,23,29,30,31,32,1.3,0.8,1.0*31
MSG 0 45274.132 $GPGSV,3,1,12,03,28,179,31,06,38,161,49,10,03,331,35,13,23,316,44*78
MSG 0 45274.278 $PGRME,4.7,M,5.9,M,7.5,M*23
MSG 0 45274.338 $PGRMB,0.0,200,,,,K,,N,N*31
MSG 0 45274.398 $PGRMM,WGS 84*06
MSG 0 45274.721 $GPRMC,163555,A,4303.7888,N,07039.7529,W,000.7,129.0,030712,016.1,W*74
FIX 99 45275.020 91 364625.698 4769168.811
