FTP NEW 2
VER 11.0.6.21
INF "" "" "" "" 0.000 0.000 0.000
ELL WGS-84 6378137.000 298.257223563
PRO TME -69.000000 0.999600 0.000000 0.000000 0.000000 500000.0000 0.0000
DTM 0.00 0.00 0.00 0.00000 0.00000 0.00000 0.00000
GEO ??? 0.000
HVU 1.0000000000 1.0000000000
TND 11:15:19 07/03/2012 240
DEV 0 32869 "Garmin GPS" 49156 C:\HYPACK 2011\devices\GPS.dll 11.0.10.6
OFF 0 0.000 0.000 0.000 0.000 0.000 0.000 0.000
DDT 0 SYN 
DEV 1 0 "Disabled" 0 Odom CV3 MK3 Disabled Unknown
USR "NOAA Joint Hydrographic Center" "HYPACK Inc." 0x8 15681181
EOH 0001FFFFFFFFFFFFFFFFFFFFFFFFFFFFFFFFFFFFFFFFFFFFFFFFFFFFFFFFFFFFFFFFFFFFFFFFFFFFFFFFFFFFFFFFFFFFFFFFFFFFFFFFFFFFFFFFFFFFFFFFFFFFFFFFFFFFFFFFFFFFFFFFFFFFFFFFFFFFFFFFFFFFFFFFFFFFFFFFFFFF003021300906052B0E03021A050004141AD52AF1657B340E5864D48493CC810F69D30FE0
MSG 0 40517.291 $GPGSV,3,2,11,20,31,281,46,23,22,311,37,25,16,046,42,29,25,065,46*7E
MSG 0 40517.437 $PGRME,5.1,M,7.1,M,8.8,M*2C
MSG 0 40517.497 $PGRMB,0.0,200,,,,K,,N,N*31
MSG 0 40517.558 $PGRMM,WGS 84*06
MSG 0 40517.867 $GPRMC,151638,A,4303.5468,N,07037.8354,W,000.5,087.6,030712,016.1,W*71
POS 0 40598.000 367219.533 4768669.446
QUA 0 40598.000 7 9.000 1.000 9.000 1.000 0.000 0.000 0.000
RAW 0 40598.000 4 430354.68000 -703783.54000 -23.30000 151638.00000
MSG 0 40518.017 $GPGGA,151638,4303.5468,N,07037.8354,W,1,09,1.0,9.1,M,-32.4,M,,*72
MSG 0 40518.159 $GPGSA,A,3,06,,14,16,20,,25,29,30,31,32,,1.7,1.0,1.4*3A
MSG 0 40518.277 $GPGSV,3,3,11,30,70,213,46,31,62,050,50,32,41,248,48*4F
MSG 0 40518.396 $PGRME,5.1,M,7.1,M,8.8,M*2C
MSG 0 40518.456 $PGRMB,0.0,200,,,,K,,N,N*31
MSG 0 40518.517 $PGRMM,WGS 84*06
MSG 0 40518.866 $GPRMC,151639,A,4303.5467,N,07037.8352,W,000.5,106.6,030712,016.1,W*71
POS 0 40599.000 367219.800 4768669.256
QUA 0 40599.000 7 9.000 1.000 9.000 1.000 0.000 0.000 0.000
RAW 0 40599.000 4 430354.67000 -703783.52000 -23.50000 151639.00000
MSG 0 40519.016 $GPGGA,151639,4303.5467,N,07037.8352,W,1,09,1.0,8.9,M,-32.4,M,,*73
MSG 0 40519.158 $GPGSA,A,3,06,,14,16,20,,25,29,30,31,32,,1.7,1.0,1.4*3A
FIX 99 40519.472 72 367219.800 4768669.256
MSG 0 40519.277 $GPGSV,3,1,11,06,05,174,39,11,00,235,33,14,24,132,46,16,41,212,47*75
MSG 0 40519.422 $PGRME,5.1,M,7.1,M,8.8,M*2C
MSG 0 40519.483 $PGRMB,0.0,200,,,,K,,N,N*31
MSG 0 40519.543 $PGRMM,WGS 84*06
MSG 0 40519.867 $GPRMC,151640,A,4303.5467,N,07037.8350,W,000.5,097.7,030712,016.1,W*75
POS 0 40600.000 367220.072 4768669.251
QUA 0 40600.000 7 9.000 1.000 9.000 1.000 0.000 0.000 0.000
RAW 0 40600.000 4 430354.67000 -703783.50000 -23.40000 151640.00000
MSG 0 40520.017 $GPGGA,151640,4303.5467,N,07037.8350,W,1,09,1.0,9.0,M,-32.4,M,,*77
MSG 0 40520.159 $GPGSA,A,3,06,,14,16,20,,25,29,30,31,32,,1.7,1.0,1.4*3A
MSG 0 40520.278 $GPGSV,3,2,11,20,31,281,46,23,22,311,37,25,16,046,41,29,25,065,47*7C
MSG 0 40520.423 $PGRME,5.1,M,7.1,M,8.8,M*2C
MSG 0 40520.484 $PGRMB,0.0,200,,,,K,,N,N*31
MSG 0 40520.544 $PGRMM,WGS 84*06
MSG 0 40520.867 $GPRMC,151641,A,4303.5467,N,07037.8347,W,000.6,096.9,030712,016.1,W*7E
POS 0 40601.000 367220.479 4768669.243
QUA 0 40601.000 7 9.000 1.000 9.000 1.000 0.000 0.000 0.000
RAW 0 40601.000 4 430354.67000 -703783.47000 -23.20000 151641.00000
MSG 0 40521.017 $GPGGA,151641,4303.5467,N,07037.8347,W,1,09,1.0,9.2,M,-32.4,M,,*72
MSG 0 40521.159 $GPGSA,A,3,06,,14,16,20,,25,29,30,31,32,,1.7,1.0,1.4*3A
MSG 0 40521.277 $GPGSV,3,3,11,30,70,213,45,31,62,050,50,32,41,248,47*43
MSG 0 40521.396 $PGRME,5.1,M,7.1,M,8.8,M*2C
MSG 0 40521.457 $PGRMB,0.0,200,,,,K,,N,N*31
MSG 0 40521.517 $PGRMM,WGS 84*06
MSG 0 40521.867 $GPRMC,151642,A,4303.5467,N,07037.8344,W,000.8,082.4,030712,016.1,W*78
POS 0 40602.000 367220.886 4768669.235
QUA 0 40602.000 7 9.000 1.000 9.000 1.000 0.000 0.000 0.000
RAW 0 40602.000 4 430354.67000 -703783.44000 -23.40000 151642.00000
MSG 0 40522.017 $GPGGA,151642,4303.5467,N,07037.8344,W,1,09,1.0,9.0,M,-32.4,M,,*70
MSG 0 40522.158 $GPGSA,A,3,06,,14,16,20,,25,29,30,31,32,,1.7,1.0,1.4*3A
MSG 0 40522.277 $GPGSV,3,1,11,06,05,174,38,11,00,235,33,14,24,132,46,16,41,212,47*74
MSG 0 40522.423 $PGRME,5.1,M,7.1,M,8.8,M*2C
MSG 0 40522.483 $PGRMB,0.0,200,,,,K,,N,N*31
MSG 0 40522.544 $PGRMM,WGS 84*06
MSG 0 40522.880 $GPRMC,151643,A,4303.5468,N,07037.8342,W,000.7,081.9,030712,016.1,W*71
POS 0 40603.000 367221.161 4768669.415
QUA 0 40603.000 7 9.000 1.000 9.000 1.000 0.000 0.000 0.000
RAW 0 40603.000 4 430354.68000 -703783.42000 -23.40000 151643.00000
MSG 0 40523.030 $GPGGA,151643,4303.5468,N,07037.8342,W,1,09,1.0,9.0,M,-32.4,M,,*78
MSG 0 40523.172 $GPGSA,A,3,06,,14,16,20,,25,29,30,31,32,,1.7,1.0,1.4*3A
MSG 0 40523.290 $GPGSV,3,2,11,20,31,281,46,23,22,311,37,25,16,046,41,29,25,065,46*7D
MSG 0 40523.436 $PGRME,5.1,M,7.1,M,8.8,M*2C
MSG 0 40523.496 $PGRMB,0.0,200,,,,K,,N,N*31
MSG 0 40523.557 $PGRMM,WGS 84*06
MSG 0 40523.867 $GPRMC,151644,A,4303.5467,N,07037.8339,W,000.7,086.4,030712,016.1,W*7F
POS 0 40604.000 367221.565 4768669.222
QUA 0 40604.000 7 9.000 1.000 9.000 1.000 0.000 0.000 0.000
RAW 0 40604.000 4 430354.67000 -703783.39000 -23.30000 151644.00000
MSG 0 40524.017 $GPGGA,151644,4303.5467,N,07037.8339,W,1,09,1.0,9.1,M,-32.4,M,,*7D
MSG 0 40524.158 $GPGSA,A,3,06,,14,16,20,,25,29,30,31,32,,1.7,1.0,1.4*3A
MSG 0 40524.277 $GPGSV,3,3,11,30,70,213,45,31,62,050,50,32,41,248,47*43
MSG 0 40524.396 $PGRME,5.1,M,7.1,M,8.8,M*2C
MSG 0 40524.456 $PGRMB,0.0,200,,,,K,,N,N*31
MSG 0 40524.517 $PGRMM,WGS 84*06
MSG 0 40524.867 $GPRMC,151645,A,4303.5466,N,07037.8338,W,000.6,120.8,030712,016.1,W*7E
POS 0 40605.000 367221.697 4768669.034
QUA 0 40605.000 7 9.000 1.000 9.000 1.000 0.000 0.000 0.000
RAW 0 40605.000 4 430354.66000 -703783.38000 -23.20000 151645.00000
MSG 0 40525.017 $GPGGA,151645,4303.5466,N,07037.8338,W,1,09,1.0,9.2,M,-32.4,M,,*7F
MSG 0 40525.158 $GPGSA,A,3,06,,14,16,20,,25,29,30,31,32,,1.7,1.0,1.4*3A
MSG 0 40525.277 $GPGSV,3,1,11,06,05,174,37,11,00,235,34,14,24,132,46,16,41,212,47*7C
MSG 0 40525.423 $PGRME,5.1,M,7.1,M,8.8,M*2C
MSG 0 40525.483 $PGRMB,0.0,200,,,,K,,N,N*31
MSG 0 40525.543 $PGRMM,WGS 84*06
MSG 0 40525.878 $GPRMC,151646,A,4303.5466,N,07037.8337,W,000.3,101.8,030712,016.1,W*74
POS 0 40606.000 367221.833 4768669.031
QUA 0 40606.000 7 9.000 1.000 9.000 1.000 0.000 0.000 0.000
RAW 0 40606.000 4 430354.66000 -703783.37000 -23.10000 151646.00000
MSG 0 40526.028 $GPGGA,151646,4303.5466,N,07037.8337,W,1,09,1.0,9.3,M,-32.4,M,,*72
MSG 0 40526.169 $GPGSA,A,3,06,,14,16,20,,25,29,30,31,32,,1.7,1.0,1.4*3A
MSG 0 40526.288 $GPGSV,3,2,11,20,31,281,45,23,22,311,37,25,16,046,39,29,25,065,45*72
MSG 0 40526.434 $PGRME,5.1,M,7.1,M,8.8,M*2C
MSG 0 40526.494 $PGRMB,0.0,200,,,,K,,N,N*31
MSG 0 40526.555 $PGRMM,WGS 84*06
MSG 0 40526.866 $GPRMC,151647,A,4303.5465,N,07037.8335,W,000.6,122.3,030712,016.1,W*7B
POS 0 40607.000 367222.100 4768668.841
QUA 0 40607.000 7 9.000 1.000 9.000 1.000 0.000 0.000 0.000
RAW 0 40607.000 4 430354.65000 -703783.35000 -23.20000 151647.00000
MSG 0 40527.016 $GPGGA,151647,4303.5465,N,07037.8335,W,1,09,1.0,9.2,M,-32.4,M,,*73
MSG 0 40527.158 $GPGSA,A,3,06,,14,16,20,,25,29,30,31,32,,1.7,1.0,1.4*3A
MSG 0 40527.277 $GPGSV,3,3,11,30,70,213,45,31,62,050,50,32,41,248,47*43
MSG 0 40527.395 $PGRME,5.1,M,7.1,M,8.8,M*2C
MSG 0 40527.456 $PGRMB,0.0,200,,,,K,,N,N*31
MSG 0 40527.516 $PGRMM,WGS 84*06
MSG 0 40527.867 $GPRMC,151648,A,4303.5465,N,07037.8332,W,000.7,098.3,030712,016.1,W*72
POS 0 40608.000 367222.508 4768668.833
QUA 0 40608.000 7 9.000 1.000 9.000 1.000 0.000 0.000 0.000
RAW 0 40608.000 4 430354.65000 -703783.32000 -23.30000 151648.00000
MSG 0 40528.017 $GPGGA,151648,4303.5465,N,07037.8332,W,1,09,1.0,9.1,M,-32.4,M,,*78
MSG 0 40528.158 $GPGSA,A,3,06,,14,16,20,,25,29,30,31,32,,1.7,1.0,1.4*3A
MSG 0 40528.277 $GPGSV,3,1,11,06,05,174,39,11,00,235,34,14,24,132,46,16,41,212,47*72
MSG 0 40528.423 $PGRME,5.1,M,7.1,M,8.7,M*23
MSG 0 40528.483 $PGRMB,0.0,200,,,,K,,N,N*31
MSG 0 40528.543 $PGRMM,WGS 84*06
MSG 0 40528.880 $GPRMC,151649,A,4303.5466,N,07037.8330,W,000.6,079.3,030712,016.1,W*7C
POS 0 40609.000 367222.783 4768669.013
QUA 0 40609.000 7 9.000 1.000 9.000 1.000 0.000 0.000 0.000
RAW 0 40609.000 4 430354.66000 -703783.30000 -23.20000 151649.00000
MSG 0 40529.030 $GPGGA,151649,4303.5466,N,07037.8330,W,1,09,1.0,9.2,M,-32.4,M,,*7B
MSG 0 40529.172 $GPGSA,A,3,06,,14,16,20,,25,29,30,31,32,,1.7,1.0,1.4*3A
MSG 0 40529.290 $GPGSV,3,2,11,20,31,281,44,23,22,311,37,25,16,046,41,29,25,065,45*7C
MSG 0 40529.436 $PGRME,5.1,M,7.1,M,8.7,M*23
MSG 0 40529.496 $PGRMB,0.0,200,,,,K,,N,N*31
MSG 0 40529.557 $PGRMM,WGS 84*06
MSG 0 40529.875 $GPRMC,151650,A,4303.5465,N,07037.8328,W,000.6,101.6,030712,016.1,W*75
POS 0 40610.000 367223.050 4768668.823
QUA 0 40610.000 7 9.000 1.000 9.000 1.000 0.000 0.000 0.000
RAW 0 40610.000 4 430354.65000 -703783.28000 -23.30000 151650.00000
MSG 0 40530.025 $GPGGA,151650,4303.5465,N,07037.8328,W,1,09,1.0,9.1,M,-32.4,M,,*7A
MSG 0 40530.166 $GPGSA,A,3,06,,14,16,20,,25,29,30,31,32,,1.7,1.0,1.4*3A
MSG 0 40530.285 $GPGSV,3,3,11,30,70,213,45,31,62,050,50,32,41,248,48*4C
MSG 0 40530.404 $PGRME,5.1,M,7.1,M,8.7,M*23
MSG 0 40530.464 $PGRMB,0.0,200,,,,K,,N,N*31
MSG 0 40530.524 $PGRMM,WGS 84*06
MSG 0 40530.866 $GPRMC,151651,A,4303.5465,N,07037.8325,W,000.7,107.9,030712,016.1,W*71
POS 0 40611.000 367223.458 4768668.815
QUA 0 40611.000 7 9.000 1.000 9.000 1.000 0.000 0.000 0.000
RAW 0 40611.000 4 430354.65000 -703783.25000 -23.30000 151651.00000
MSG 0 40531.016 $GPGGA,151651,4303.5465,N,07037.8325,W,1,09,1.0,9.1,M,-32.4,M,,*76
MSG 0 40531.158 $GPGSA,A,3,06,,14,16,20,,25,29,30,31,32,,1.7,1.0,1.4*3A
MSG 0 40531.276 $GPGSV,3,1,11,06,05,174,38,11,00,235,33,14,24,132,46,16,41,212,47*74
MSG 0 40531.422 $PGRME,5.1,M,7.1,M,8.7,M*23
MSG 0 40531.482 $PGRMB,0.0,200,,,,K,,N,N*31
MSG 0 40531.543 $PGRMM,WGS 84*06
MSG 0 40531.881 $GPRMC,151652,A,4303.5464,N,07037.8323,W,000.6,112.0,030712,016.1,W*79
POS 0 40612.000 367223.725 4768668.624
QUA 0 40612.000 7 9.000 1.000 9.000 1.000 0.000 0.000 0.000
RAW 0 40612.000 4 430354.64000 -703783.23000 -23.30000 151652.00000
MSG 0 40532.031 $GPGGA,151652,4303.5464,N,07037.8323,W,1,09,1.0,9.1,M,-32.4,M,,*72
MSG 0 40532.172 $GPGSA,A,3,06,,14,16,20,,25,29,30,31,32,,1.7,1.0,1.4*3A
MSG 0 40532.291 $GPGSV,3,2,11,20,31,281,45,23,22,311,37,25,16,046,43,29,25,065,45*7F
MSG 0 40532.437 $PGRME,5.1,M,7.1,M,8.7,M*23
MSG 0 40532.497 $PGRMB,0.0,200,,,,K,,N,N*31
MSG 0 40532.557 $PGRMM,WGS 84*06
MSG 0 40532.875 $GPRMC,151653,A,4303.5465,N,07037.8321,W,000.5,095.1,030712,016.1,W*77
POS 0 40613.000 367224.001 4768668.804
QUA 0 40613.000 7 9.000 1.000 9.000 1.000 0.000 0.000 0.000
RAW 0 40613.000 4 430354.65000 -703783.21000 -23.10000 151653.00000
MSG 0 40533.025 $GPGGA,151653,4303.5465,N,07037.8321,W,1,09,1.0,9.3,M,-32.4,M,,*72
MSG 0 40533.167 $GPGSA,A,3,06,,14,16,20,,25,29,30,31,32,,1.7,1.0,1.4*3A
MSG 0 40533.286 $GPGSV,3,3,11,30,70,213,45,31,62,050,50,32,41,248,47*43
MSG 0 40533.404 $PGRME,5.1,M,7.1,M,8.7,M*23
MSG 0 40533.465 $PGRMB,0.0,200,,,,K,,N,N*31
MSG 0 40533.525 $PGRMM,WGS 84*06
MSG 0 40533.866 $GPRMC,151654,A,4303.5465,N,07037.8318,W,000.7,091.5,030712,016.1,W*78
POS 0 40614.000 367224.408 4768668.796
QUA 0 40614.000 7 9.000 1.000 9.000 1.000 0.000 0.000 0.000
RAW 0 40614.000 4 430354.65000 -703783.18000 -23.00000 151654.00000
MSG 0 40534.016 $GPGGA,151654,4303.5465,N,07037.8318,W,1,09,1.0,9.4,M,-32.4,M,,*78
MSG 0 40534.157 $GPGSA,A,3,06,,14,16,20,,25,29,30,31,32,,1.7,1.0,1.4*3A
MSG 0 40534.276 $GPGSV,3,1,11,06,05,174,39,11,00,235,33,14,24,132,46,16,41,212,47*75
MSG 0 40534.422 $PGRME,5.1,M,7.1,M,8.7,M*23
MSG 0 40534.482 $PGRMB,0.0,200,,,,K,,N,N*31
MSG 0 40534.542 $PGRMM,WGS 84*06
MSG 0 40534.866 $GPRMC,151655,A,4303.5463,N,07037.8313,W,001.0,110.6,030712,016.1,W*79
POS 0 40615.000 367225.079 4768668.413
QUA 0 40615.000 7 9.000 1.000 9.000 1.000 0.000 0.000 0.000
RAW 0 40615.000 4 430354.63000 -703783.13000 -23.10000 151655.00000
MSG 0 40535.016 $GPGGA,151655,4303.5463,N,07037.8313,W,1,09,1.0,9.3,M,-32.4,M,,*73
MSG 0 40535.158 $GPGSA,A,3,06,,14,16,20,,25,29,30,31,32,,1.7,1.0,1.4*3A
MSG 0 40535.276 $GPGSV,3,2,11,20,31,280,45,23,22,311,37,25,16,046,42,29,25,065,45*7F
MSG 0 40535.422 $PGRME,5.1,M,7.1,M,8.7,M*23
MSG 0 40535.482 $PGRMB,0.0,200,,,,K,,N,N*31
MSG 0 40535.543 $PGRMM,WGS 84*06
MSG 0 40535.876 $GPRMC,151656,A,4303.5462,N,07037.8312,W,000.7,121.3,030712,016.1,W*7B
POS 0 40616.000 367225.211 4768668.225
QUA 0 40616.000 7 9.000 1.000 9.000 1.000 0.000 0.000 0.000
RAW 0 40616.000 4 430354.62000 -703783.12000 -23.00000 151656.00000
MSG 0 40536.026 $GPGGA,151656,4303.5462,N,07037.8312,W,1,09,1.0,9.4,M,-32.4,M,,*77
MSG 0 40536.168 $GPGSA,A,3,06,,14,16,20,,25,29,30,31,32,,1.7,1.0,1.4*3A
MSG 0 40536.286 $GPGSV,3,3,11,30,70,213,46,31,62,050,49,32,41,248,47*48
MSG 0 40536.405 $PGRME,5.1,M,7.1,M,8.7,M*23
MSG 0 40536.465 $PGRMB,0.0,200,,,,K,,N,N*31
MSG 0 40536.526 $PGRMM,WGS 84*06
MSG 0 40536.866 $GPRMC,151657,A,4303.5462,N,07037.8310,W,000.5,104.9,030712,016.1,W*77
POS 0 40617.000 367225.483 4768668.220
QUA 0 40617.000 7 9.000 1.000 9.000 1.000 0.000 0.000 0.000
RAW 0 40617.000 4 430354.62000 -703783.10000 -22.70000 151657.00000
MSG 0 40537.016 $GPGGA,151657,4303.5462,N,07037.8310,W,1,09,1.0,9.7,M,-32.4,M,,*77
MSG 0 40537.158 $GPGSA,A,3,06,,14,16,20,,25,29,30,31,32,,1.8,1.0,1.5*34
MSG 0 40537.276 $GPGSV,3,1,11,06,05,174,39,11,00,235,34,14,24,132,45,16,41,212,47*71
MSG 0 40537.422 $PGRME,5.1,M,7.2,M,8.8,M*2F
MSG 0 40537.483 $PGRMB,0.0,200,,,,K,,N,N*31
MSG 0 40537.543 $PGRMM,WGS 84*06
MSG 0 40537.866 $GPRMC,151658,A,4303.5460,N,07037.8308,W,000.7,132.7,030712,016.1,W*7A
POS 0 40618.000 367225.747 4768667.844
QUA 0 40618.000 7 9.000 1.000 9.000 1.000 0.000 0.000 0.000
RAW 0 40618.000 4 430354.60000 -703783.08000 -22.70000 151658.00000
MSG 0 40538.016 $GPGGA,151658,4303.5460,N,07037.8308,W,1,09,1.0,9.7,M,-32.4,M,,*73
MSG 0 40538.158 $GPGSA,A,3,06,,14,16,20,,25,29,30,31,32,,1.8,1.0,1.5*34
MSG 0 40538.276 $GPGSV,3,2,11,20,31,280,46,23,22,311,37,25,16,046,43,29,25,065,45*7D
MSG 0 40538.422 $PGRME,5.1,M,7.1,M,8.7,M*23
MSG 0 40538.482 $PGRMB,0.0,200,,,,K,,N,N*31
MSG 0 40538.543 $PGRMM,WGS 84*06
MSG 0 40538.866 $GPRMC,151659,A,4303.5460,N,07037.8306,W,000.6,120.1,030712,016.1,W*71
POS 0 40619.000 367226.018 4768667.839
QUA 0 40619.000 7 9.000 1.000 9.000 1.000 0.000 0.000 0.000
RAW 0 40619.000 4 430354.60000 -703783.06000 -23.10000 151659.00000
MSG 0 40539.016 $GPGGA,151659,4303.5460,N,07037.8306,W,1,09,1.0,9.3,M,-32.4,M,,*78
MSG 0 40539.158 $GPGSA,A,3,06,,14,16,20,,25,29,30,31,32,,1.7,1.0,1.4*3A
MSG 0 40539.276 $GPGSV,3,3,11,30,70,213,46,31,62,050,49,32,41,248,47*48
MSG 0 40539.395 $PGRME,5.1,M,7.1,M,8.7,M*23
MSG 0 40539.455 $PGRMB,0.0,200,,,,K,,N,N*31
MSG 0 40539.516 $PGRMM,WGS 84*06
MSG 0 40539.866 $GPRMC,151700,A,4303.5459,N,07037.8304,W,000.6,108.3,030712,016.1,W*7C
POS 0 40620.000 367226.286 4768667.649
QUA 0 40620.000 7 9.000 1.000 9.000 1.000 0.000 0.000 0.000
RAW 0 40620.000 4 430354.59000 -703783.04000 -23.30000 151700.00000
MSG 0 40540.016 $GPGGA,151700,4303.5459,N,07037.8304,W,1,09,1.0,9.1,M,-32.4,M,,*7F
MSG 0 40540.157 $GPGSA,A,3,06,,14,16,20,,25,29,30,31,32,,1.7,1.0,1.4*3A
MSG 0 40540.276 $GPGSV,3,1,11,06,05,174,39,11,00,235,34,14,24,132,45,16,41,212,47*71
MSG 0 40540.422 $PGRME,5.1,M,7.1,M,8.7,M*23
MSG 0 40540.482 $PGRMB,0.0,200,,,,K,,N,N*31
MSG 0 40540.543 $PGRMM,WGS 84*06
MSG 0 40540.867 $GPRMC,151701,A,4303.5459,N,07037.8300,W,000.8,096.8,030712,016.1,W*7A
POS 0 40621.000 367226.829 4768667.638
QUA 0 40621.000 7 9.000 1.000 9.000 1.000 0.000 0.000 0.000
RAW 0 40621.000 4 430354.59000 -703783.00000 -23.10000 151701.00000
MSG 0 40541.017 $GPGGA,151701,4303.5459,N,07037.8300,W,1,09,1.0,9.3,M,-32.4,M,,*78
MSG 0 40541.158 $GPGSA,A,3,06,,14,16,20,,25,29,30,31,32,,1.7,1.0,1.4*3A
MSG 0 40541.277 $GPGSV,3,2,11,20,31,280,46,23,22,311,37,25,16,046,42,29,25,065,46*7F
MSG 0 40541.423 $PGRME,5.1,M,7.1,M,8.7,M*23
MSG 0 40541.483 $PGRMB,0.0,200,,,,K,,N,N*31
MSG 0 40541.544 $PGRMM,WGS 84*06
MSG 0 40541.865 $GPRMC,151702,A,4303.5458,N,07037.8297,W,000.9,115.8,030712,016.1,W*7C
POS 0 40622.000 367227.233 4768667.445
QUA 0 40622.000 7 9.000 1.000 9.000 1.000 0.000 0.000 0.000
RAW 0 40622.000 4 430354.58000 -703782.97000 -23.10000 151702.00000
MSG 0 40542.015 $GPGGA,151702,4303.5458,N,07037.8297,W,1,09,1.0,9.3,M,-32.4,M,,*75
MSG 0 40542.157 $GPGSA,A,3,06,,14,16,20,,25,29,30,31,32,,1.7,1.0,1.4*3A
MSG 0 40542.276 $GPGSV,3,3,11,30,70,213,46,31,62,050,49,32,41,248,47*48
MSG 0 40542.394 $PGRME,5.1,M,7.1,M,8.7,M*23
MSG 0 40542.455 $PGRMB,0.0,200,,,,K,,N,N*31
MSG 0 40542.515 $PGRMM,WGS 84*06
MSG 0 40542.866 $GPRMC,151703,A,4303.5457,N,07037.8295,W,000.8,108.4,030712,016.1,W*71
POS 0 40623.000 367227.500 4768667.255
QUA 0 40623.000 7 9.000 1.000 9.000 1.000 0.000 0.000 0.000
RAW 0 40623.000 4 430354.57000 -703782.95000 -22.80000 151703.00000
MSG 0 40543.016 $GPGGA,151703,4303.5457,N,07037.8295,W,1,09,1.0,9.6,M,-32.4,M,,*7C
MSG 0 40543.157 $GPGSA,A,3,06,,14,16,20,,25,29,30,31,32,,1.7,1.0,1.4*3A
MSG 0 40543.276 $GPGSV,3,1,11,06,05,174,40,11,00,235,33,14,24,132,45,16,41,212,47*78
MSG 0 40543.422 $PGRME,5.1,M,7.1,M,8.7,M*23
MSG 0 40543.482 $PGRMB,0.0,200,,,,K,,N,N*31
MSG 0 40543.542 $PGRMM,WGS 84*06
MSG 0 40543.866 $GPRMC,151704,A,4303.5457,N,07037.8294,W,000.5,112.2,030712,016.1,W*77
POS 0 40624.000 367227.636 4768667.252
QUA 0 40624.000 7 9.000 1.000 9.000 1.000 0.000 0.000 0.000
RAW 0 40624.000 4 430354.57000 -703782.94000 -22.50000 151704.00000
MSG 0 40544.016 $GPGGA,151704,4303.5457,N,07037.8294,W,1,09,1.0,9.9,M,-32.4,M,,*75
MSG 0 40544.158 $GPGSA,A,3,06,,14,16,20,,25,29,30,31,32,,1.7,1.0,1.4*3A
MSG 0 40544.277 $GPGSV,3,2,11,20,31,280,46,23,22,311,37,25,16,046,43,29,25,065,46*7E
MSG 0 40544.422 $PGRME,5.1,M,7.1,M,8.7,M*23
MSG 0 40544.483 $PGRMB,0.0,200,,,,K,,N,N*31
MSG 0 40544.543 $PGRMM,WGS 84*06
MSG 0 40544.880 $GPRMC,151705,A,4303.5456,N,07037.8292,W,000.6,117.7,030712,016.1,W*72
POS 0 40625.000 367227.904 4768667.062
QUA 0 40625.000 7 9.000 1.000 9.000 1.000 0.000 0.000 0.000
RAW 0 40625.000 4 430354.56000 -703782.92000 -23.00000 151705.00000
MSG 0 40545.030 $GPGGA,151705,4303.5456,N,07037.8292,W,1,09,1.0,9.4,M,-32.4,M,,*7E
MSG 0 40545.171 $GPGSA,A,3,06,,14,16,20,,25,29,30,31,32,,1.7,1.0,1.4*3A
MSG 0 40545.290 $GPGSV,3,3,11,30,70,213,46,31,62,050,49,32,41,248,47*48
MSG 0 40545.409 $PGRME,5.1,M,7.1,M,8.7,M*23
MSG 0 40545.469 $PGRMB,0.0,200,,,,K,,N,N*31
MSG 0 40545.529 $PGRMM,WGS 84*06
MSG 0 40545.866 $GPRMC,151706,A,4303.5454,N,07037.8288,W,000.9,125.8,030712,016.1,W*79
POS 0 40626.000 367228.440 4768666.681
QUA 0 40626.000 7 9.000 1.000 9.000 1.000 0.000 0.000 0.000
RAW 0 40626.000 4 430354.54000 -703782.88000 -23.30000 151706.00000
MSG 0 40546.016 $GPGGA,151706,4303.5454,N,07037.8288,W,1,09,1.0,9.1,M,-32.4,M,,*71
MSG 0 40546.157 $GPGSA,A,3,06,,14,16,20,,25,29,30,31,32,,1.7,1.0,1.4*3A
MSG 0 40546.276 $GPGSV,3,1,11,06,05,174,41,11,00,235,33,14,24,132,45,16,41,212,47*79
MSG 0 40546.422 $PGRME,5.1,M,7.1,M,8.7,M*23
MSG 0 40546.482 $PGRMB,0.0,200,,,,K,,N,N*31
MSG 0 40546.542 $PGRMM,WGS 84*06
MSG 0 40546.866 $GPRMC,151707,A,4303.5455,N,07037.8288,W,000.4,092.5,030712,016.1,W*74
POS 0 40627.000 367228.443 4768666.866
QUA 0 40627.000 7 9.000 1.000 9.000 1.000 0.000 0.000 0.000
RAW 0 40627.000 4 430354.55000 -703782.88000 -22.90000 151707.00000
MSG 0 40547.016 $GPGGA,151707,4303.5455,N,07037.8288,W,1,09,1.0,9.5,M,-32.4,M,,*75
MSG 0 40547.158 $GPGSA,A,3,06,,14,16,20,,25,29,30,31,32,,1.7,1.0,1.4*3A
MSG 0 40547.276 $GPGSV,3,2,11,20,31,280,46,23,23,311,37,25,16,046,43,29,25,065,45*7C
MSG 0 40547.422 $PGRME,5.1,M,7.1,M,8.7,M*23
MSG 0 40547.482 $PGRMB,0.0,200,,,,K,,N,N*31
MSG 0 40547.543 $PGRMM,WGS 84*06
MSG 0 40547.872 $GPRMC,151708,A,4303.5454,N,07037.8284,W,000.8,109.8,030712,016.1,W*74
POS 0 40628.000 367228.983 4768666.670
QUA 0 40628.000 7 9.000 1.000 9.000 1.000 0.000 0.000 0.000
RAW 0 40628.000 4 430354.54000 -703782.84000 -23.00000 151708.00000
MSG 0 40548.022 $GPGGA,151708,4303.5454,N,07037.8284,W,1,09,1.0,9.4,M,-32.4,M,,*76
MSG 0 40548.164 $GPGSA,A,3,06,,14,16,20,,25,29,30,31,32,,1.7,1.0,1.4*3A
MSG 0 40548.283 $GPGSV,3,3,11,30,70,213,46,31,62,050,49,32,41,248,47*48
MSG 0 40548.401 $PGRME,5.1,M,7.1,M,8.7,M*23
MSG 0 40548.462 $PGRMB,0.0,200,,,,K,,N,N*31
MSG 0 40548.522 $PGRMM,WGS 84*06
MSG 0 40548.872 $GPRMC,151709,A,4303.5452,N,07037.8281,W,000.9,128.6,030712,016.1,W*7A
POS 0 40629.000 367229.383 4768666.292
QUA 0 40629.000 7 9.000 1.000 9.000 1.000 0.000 0.000 0.000
RAW 0 40629.000 4 430354.52000 -703782.81000 -23.30000 151709.00000
MSG 0 40549.022 $GPGGA,151709,4303.5452,N,07037.8281,W,1,09,1.0,9.1,M,-32.4,M,,*71
MSG 0 40549.164 $GPGSA,A,3,06,,14,16,20,,25,29,30,31,32,,1.7,1.0,1.4*3A
MSG 0 40549.282 $GPGSV,3,1,11,06,05,174,40,11,00,235,33,14,24,132,45,16,41,212,47*78
MSG 0 40549.428 $PGRME,5.1,M,7.1,M,8.7,M*23
MSG 0 40549.488 $PGRMB,0.0,200,,,,K,,N,N*31
MSG 0 40549.549 $PGRMM,WGS 84*06
MSG 0 40549.867 $GPRMC,151710,A,4303.5452,N,07037.8278,W,000.8,113.3,030712,016.1,W*78
POS 0 40630.000 367229.790 4768666.284
QUA 0 40630.000 7 9.000 1.000 9.000 1.000 0.000 0.000 0.000
RAW 0 40630.000 4 430354.52000 -703782.78000 -23.00000 151710.00000
MSG 0 40550.017 $GPGGA,151710,4303.5452,N,07037.8278,W,1,09,1.0,9.4,M,-32.4,M,,*7A
MSG 0 40550.159 $GPGSA,A,3,06,,14,16,20,,25,29,30,31,32,,1.7,1.0,1.4*3A
MSG 0 40550.277 $GPGSV,3,2,11,20,31,280,45,23,23,311,37,25,16,046,43,29,25,065,45*7F
MSG 0 40550.423 $PGRME,5.1,M,7.1,M,8.7,M*23
MSG 0 40550.483 $PGRMB,0.0,200,,,,K,,N,N*31
MSG 0 40550.544 $PGRMM,WGS 84*06
MSG 0 40550.866 $GPRMC,151711,A,4303.5451,N,07037.8277,W,000.6,118.0,030712,016.1,W*73
POS 0 40631.000 367229.922 4768666.097
QUA 0 40631.000 7 9.000 1.000 9.000 1.000 0.000 0.000 0.000
RAW 0 40631.000 4 430354.51000 -703782.77000 -22.70000 151711.00000
MSG 0 40551.016 $GPGGA,151711,4303.5451,N,07037.8277,W,1,09,1.0,9.7,M,-32.4,M,,*74
MSG 0 40551.157 $GPGSA,A,3,06,,14,16,20,,25,29,30,31,32,,1.7,1.0,1.4*3A
MSG 0 40551.276 $GPGSV,3,3,11,30,70,213,46,31,62,050,49,32,41,248,48*47
MSG 0 40551.395 $PGRME,5.1,M,7.1,M,8.7,M*23
MSG 0 40551.455 $PGRMB,0.0,200,,,,K,,N,N*31
MSG 0 40551.515 $PGRMM,WGS 84*06
MSG 0 40551.866 $GPRMC,151712,A,4303.5449,N,07037.8274,W,000.8,130.5,030712,016.1,W*7B
POS 0 40632.000 367230.322 4768665.719
QUA 0 40632.000 7 9.000 1.000 9.000 1.000 0.000 0.000 0.000
RAW 0 40632.000 4 430354.49000 -703782.74000 -22.80000 151712.00000
MSG 0 40552.016 $GPGGA,151712,4303.5449,N,07037.8274,W,1,09,1.0,9.6,M,-32.4,M,,*7C
MSG 0 40552.158 $GPGSA,A,3,06,,14,16,20,,25,29,30,31,32,,1.7,1.0,1.4*3A
MSG 0 40552.276 $GPGSV,3,1,11,06,05,174,39,11,00,235,34,14,24,132,46,16,41,212,47*72
MSG 0 40552.422 $PGRME,5.1,M,7.1,M,8.7,M*23
MSG 0 40552.483 $PGRMB,0.0,200,,,,K,,N,N*31
MSG 0 40552.543 $PGRMM,WGS 84*06
MSG 0 40552.866 $GPRMC,151713,A,4303.5448,N,07037.8272,W,000.8,127.6,030712,016.1,W*78
POS 0 40633.000 367230.590 4768665.528
QUA 0 40633.000 7 9.000 1.000 9.000 1.000 0.000 0.000 0.000
RAW 0 40633.000 4 430354.48000 -703782.72000 -22.80000 151713.00000
MSG 0 40553.016 $GPGGA,151713,4303.5448,N,07037.8272,W,1,09,1.0,9.6,M,-32.4,M,,*7A
MSG 0 40553.157 $GPGSA,A,3,06,,14,16,20,,25,29,30,31,32,,1.7,1.0,1.4*3A
MSG 0 40553.276 $GPGSV,3,2,11,20,31,280,44,23,23,311,37,25,15,046,40,29,25,065,44*7F
MSG 0 40553.422 $PGRME,5.1,M,7.1,M,8.7,M*23
MSG 0 40553.482 $PGRMB,0.0,200,,,,K,,N,N*31
MSG 0 40553.543 $PGRMM,WGS 84*06
MSG 0 40553.865 $GPRMC,151714,A,4303.5449,N,07037.8272,W,000.3,104.5,030712,016.1,W*77
POS 0 40634.000 367230.593 4768665.713
QUA 0 40634.000 7 9.000 1.000 9.000 1.000 0.000 0.000 0.000
RAW 0 40634.000 4 430354.49000 -703782.72000 -22.80000 151714.00000
MSG 0 40554.015 $GPGGA,151714,4303.5449,N,07037.8272,W,1,09,1.0,9.6,M,-32.4,M,,*7C
MSG 0 40554.156 $GPGSA,A,3,06,,14,16,20,,25,29,30,31,32,,1.7,1.0,1.4*3A
MSG 0 40554.275 $GPGSV,3,3,11,30,70,213,45,31,62,050,50,32,41,248,48*4C
MSG 0 40554.394 $PGRME,5.1,M,7.1,M,8.7,M*23
MSG 0 40554.454 $PGRMB,0.0,200,,,,K,,N,N*31
MSG 0 40554.515 $PGRMM,WGS 84*06
MSG 0 40554.866 $GPRMC,151715,A,4303.5448,N,07037.8270,W,000.5,118.8,030712,016.1,W*73
POS 0 40635.000 367230.861 4768665.523
QUA 0 40635.000 7 9.000 1.000 9.000 1.000 0.000 0.000 0.000
RAW 0 40635.000 4 430354.48000 -703782.70000 -22.90000 151715.00000
MSG 0 40555.015 $GPGGA,151715,4303.5448,N,07037.8270,W,1,09,1.0,9.5,M,-32.4,M,,*7D
MSG 0 40555.157 $GPGSA,A,3,06,,14,16,20,,25,29,30,31,32,,1.7,1.0,1.4*3A
MSG 0 40555.276 $GPGSV,3,1,11,06,05,174,40,11,00,235,34,14,24,132,46,16,41,212,47*7C
MSG 0 40555.421 $PGRME,5.1,M,7.1,M,8.7,M*23
MSG 0 40555.482 $PGRMB,0.0,200,,,,K,,N,N*31
MSG 0 40555.542 $PGRMM,WGS 84*06
MSG 0 40555.867 $GPRMC,151716,A,4303.5447,N,07037.8264,W,001.0,113.9,030712,016.1,W*74
POS 0 40636.000 367231.672 4768665.322
QUA 0 40636.000 7 9.000 1.000 9.000 1.000 0.000 0.000 0.000
RAW 0 40636.000 4 430354.47000 -703782.64000 -23.10000 151716.00000
MSG 0 40556.017 $GPGGA,151716,4303.5447,N,07037.8264,W,1,09,1.0,9.3,M,-32.4,M,,*72
MSG 0 40556.159 $GPGSA,A,3,06,,14,16,20,,25,29,30,31,32,,1.7,1.0,1.4*3A
MSG 0 40556.278 $GPGSV,3,2,11,20,31,280,44,23,23,311,37,25,15,046,37,29,25,065,44*7F
MSG 0 40556.423 $PGRME,5.1,M,7.1,M,8.7,M*23
MSG 0 40556.484 $PGRMB,0.0,200,,,,K,,N,N*31
MSG 0 40556.544 $PGRMM,WGS 84*06
MSG 0 40556.866 $GPRMC,151717,A,4303.5447,N,07037.8265,W,000.5,113.1,030712,016.1,W*78
POS 0 40637.000 367231.536 4768665.325
QUA 0 40637.000 7 9.000 1.000 9.000 1.000 0.000 0.000 0.000
RAW 0 40637.000 4 430354.47000 -703782.65000 -22.80000 151717.00000
MSG 0 40557.016 $GPGGA,151717,4303.5447,N,07037.8265,W,1,09,1.0,9.6,M,-32.4,M,,*77
MSG 0 40557.158 $GPGSA,A,3,06,,14,16,20,,25,29,30,31,32,,1.7,1.0,1.4*3A
MSG 0 40557.277 $GPGSV,3,3,11,30,70,213,45,31,62,050,50,32,41,248,48*4C
MSG 0 40557.395 $PGRME,5.1,M,7.1,M,8.7,M*23
MSG 0 40557.456 $PGRMB,0.0,200,,,,K,,N,N*31
MSG 0 40557.516 $PGRMM,WGS 84*06
MSG 0 40557.866 $GPRMC,151718,A,4303.5447,N,07037.8263,W,000.5,100.0,030712,016.1,W*72
POS 0 40638.000 367231.808 4768665.319
QUA 0 40638.000 7 9.000 1.000 9.000 1.000 0.000 0.000 0.000
RAW 0 40638.000 4 430354.47000 -703782.63000 -22.80000 151718.00000
MSG 0 40558.016 $GPGGA,151718,4303.5447,N,07037.8263,W,1,09,1.0,9.6,M,-32.4,M,,*7E
MSG 0 40558.158 $GPGSA,A,3,06,,14,16,20,,25,29,30,31,32,,1.7,1.0,1.4*3A
MSG 0 40558.276 $GPGSV,3,1,11,06,05,174,40,11,00,235,34,14,24,132,46,16,41,212,48*73
MSG 0 40558.422 $PGRME,5.1,M,7.1,M,8.7,M*23
MSG 0 40558.482 $PGRMB,0.0,200,,,,K,,N,N*31
MSG 0 40558.543 $PGRMM,WGS 84*06
MSG 0 40558.879 $GPRMC,151719,A,4303.5445,N,07037.8259,W,000.9,122.3,030712,016.1,W*77
POS 0 40639.000 367232.343 4768664.939
QUA 0 40639.000 7 9.000 1.000 9.000 1.000 0.000 0.000 0.000
RAW 0 40639.000 4 430354.45000 -703782.59000 -22.70000 151719.00000
MSG 0 40559.029 $GPGGA,151719,4303.5445,N,07037.8259,W,1,09,1.0,9.7,M,-32.4,M,,*75
MSG 0 40559.170 $GPGSA,A,3,06,,14,16,20,,25,29,30,31,32,,1.7,1.0,1.4*3A
MSG 0 40559.289 $GPGSV,3,2,11,20,31,280,45,23,23,311,38,25,15,046,36,29,25,065,45*71
MSG 0 40559.435 $PGRME,5.1,M,7.1,M,8.7,M*23
MSG 0 40559.495 $PGRMB,0.0,200,,,,K,,N,N*31
MSG 0 40559.555 $PGRMM,WGS 84*06
MSG 0 40559.865 $GPRMC,151720,A,4303.5443,N,07037.8259,W,000.6,149.2,030712,016.1,W*78
POS 0 40640.000 367232.336 4768664.569
QUA 0 40640.000 7 9.000 1.000 9.000 1.000 0.000 0.000 0.000
RAW 0 40640.000 4 430354.43000 -703782.59000 -23.00000 151720.00000
MSG 0 40560.015 $GPGGA,151720,4303.5443,N,07037.8259,W,1,09,1.0,9.4,M,-32.4,M,,*7A
MSG 0 40560.157 $GPGSA,A,3,06,,14,16,20,,25,29,30,31,32,,1.7,1.0,1.4*3A
MSG 0 40560.275 $GPGSV,3,3,11,30,70,213,45,31,62,050,50,32,41,248,47*43
MSG 0 40560.394 $PGRME,5.1,M,7.1,M,8.7,M*23
MSG 0 40560.454 $PGRMB,0.0,200,,,,K,,N,N*31
MSG 0 40560.515 $PGRMM,WGS 84*06
MSG 0 40560.866 $GPRMC,151721,A,4303.5444,N,07037.8257,W,000.5,112.6,030712,016.1,W*79
POS 0 40641.000 367232.611 4768664.748
QUA 0 40641.000 7 9.000 1.000 9.000 1.000 0.000 0.000 0.000
RAW 0 40641.000 4 430354.44000 -703782.57000 -22.90000 151721.00000
MSG 0 40561.015 $GPGGA,151721,4303.5444,N,07037.8257,W,1,09,1.0,9.5,M,-32.4,M,,*73
MSG 0 40561.157 $GPGSA,A,3,06,,14,16,20,,25,29,30,31,32,,1.7,1.0,1.4*3A
MSG 0 40561.276 $GPGSV,3,1,11,06,05,174,40,11,00,235,33,14,24,132,46,16,41,212,47*7B
MSG 0 40561.421 $PGRME,5.1,M,7.1,M,8.7,M*23
MSG 0 40561.482 $PGRMB,0.0,200,,,,K,,N,N*31
MSG 0 40561.542 $PGRMM,WGS 84*06
MSG 0 40561.865 $GPRMC,151722,A,4303.5441,N,07037.8255,W,000.8,141.9,030712,016.1,W*79
POS 0 40642.000 367232.872 4768664.188
QUA 0 40642.000 7 9.000 1.000 9.000 1.000 0.000 0.000 0.000
RAW 0 40642.000 4 430354.41000 -703782.55000 -23.10000 151722.00000
MSG 0 40562.015 $GPGGA,151722,4303.5441,N,07037.8255,W,1,09,1.0,9.3,M,-32.4,M,,*71
MSG 0 40562.157 $GPGSA,A,3,06,,14,16,20,,25,29,30,31,32,,1.7,1.0,1.4*3A
MSG 0 40562.275 $GPGSV,3,2,11,20,31,280,46,23,23,311,38,25,15,046,40,29,25,065,46*70
MSG 0 40562.421 $PGRME,5.1,M,7.1,M,8.7,M*23
MSG 0 40562.481 $PGRMB,0.0,200,,,,K,,N,N*31
MSG 0 40562.542 $PGRMM,WGS 84*06
MSG 0 40562.865 $GPRMC,151723,A,4303.5441,N,07037.8251,W,000.9,114.2,030712,016.1,W*76
POS 0 40643.000 367233.415 4768664.177
QUA 0 40643.000 7 9.000 1.000 9.000 1.000 0.000 0.000 0.000
RAW 0 40643.000 4 430354.41000 -703782.51000 -23.10000 151723.00000
MSG 0 40563.015 $GPGGA,151723,4303.5441,N,07037.8251,W,1,09,1.0,9.3,M,-32.4,M,,*74
MSG 0 40563.157 $GPGSA,A,3,06,,14,16,20,,25,29,30,31,32,,1.7,1.0,1.4*3A
MSG 0 40563.275 $GPGSV,3,3,11,30,70,213,45,31,62,050,50,32,41,248,47*43
MSG 0 40563.394 $PGRME,5.1,M,7.1,M,8.7,M*23
MSG 0 40563.454 $PGRMB,0.0,200,,,,K,,N,N*31
MSG 0 40563.515 $PGRMM,WGS 84*06
MSG 0 40563.866 $GPRMC,151724,A,4303.5440,N,07037.8250,W,000.6,122.4,030712,016.1,W*7D
POS 0 40644.000 367233.547 4768663.990
QUA 0 40644.000 7 9.000 1.000 9.000 1.000 0.000 0.000 0.000
RAW 0 40644.000 4 430354.40000 -703782.50000 -22.90000 151724.00000
MSG 0 40564.016 $GPGGA,151724,4303.5440,N,07037.8250,W,1,09,1.0,9.5,M,-32.4,M,,*75
MSG 0 40564.157 $GPGSA,A,3,06,,14,16,20,,25,29,30,31,32,,1.7,1.0,1.4*3A
MSG 0 40564.276 $GPGSV,3,1,11,06,05,174,39,11,00,235,34,14,24,132,46,16,41,212,47*72
MSG 0 40564.422 $PGRME,5.1,M,7.1,M,8.7,M*23
MSG 0 40564.482 $PGRMB,0.0,200,,,,K,,N,N*31
MSG 0 40564.542 $PGRMM,WGS 84*06
MSG 0 40564.867 $GPRMC,151725,A,4303.5440,N,07037.8248,W,000.5,105.2,030712,016.1,W*75
POS 0 40645.000 367233.818 4768663.984
QUA 0 40645.000 7 9.000 1.000 9.000 1.000 0.000 0.000 0.000
RAW 0 40645.000 4 430354.40000 -703782.48000 -22.70000 151725.00000
MSG 0 40565.017 $GPGGA,151725,4303.5440,N,07037.8248,W,1,09,1.0,9.7,M,-32.4,M,,*7F
MSG 0 40565.159 $GPGSA,A,3,06,,14,16,20,,25,29,30,31,32,,1.7,1.0,1.4*3A
MSG 0 40565.277 $GPGSV,3,2,11,20,31,280,46,23,23,311,37,25,15,046,40,29,25,065,46*7F
MSG 0 40565.423 $PGRME,5.1,M,7.1,M,8.7,M*23
MSG 0 40565.483 $PGRMB,0.0,200,,,,K,,N,N*31
MSG 0 40565.544 $PGRMM,WGS 84*06
MSG 0 40565.876 $GPRMC,151726,A,4303.5439,N,07037.8246,W,000.6,119.4,030712,016.1,W*7E
POS 0 40646.000 367234.086 4768663.794
QUA 0 40646.000 7 9.000 1.000 9.000 1.000 0.000 0.000 0.000
RAW 0 40646.000 4 430354.39000 -703782.46000 -22.70000 151726.00000
MSG 0 40566.026 $GPGGA,151726,4303.5439,N,07037.8246,W,1,09,1.0,9.7,M,-32.4,M,,*7C
MSG 0 40566.167 $GPGSA,A,3,06,,14,16,20,,25,29,30,31,32,,1.7,1.0,1.4*3A
MSG 0 40566.286 $GPGSV,3,3,11,30,70,213,45,31,62,050,51,32,41,248,47*42
MSG 0 40566.405 $PGRME,5.1,M,7.1,M,8.7,M*23
MSG 0 40566.465 $PGRMB,0.0,200,,,,K,,N,N*31
MSG 0 40566.525 $PGRMM,WGS 84*06
MSG 0 40566.865 $GPRMC,151727,A,4303.5437,N,07037.8245,W,000.6,131.0,030712,016.1,W*7C
POS 0 40647.000 367234.215 4768663.421
QUA 0 40647.000 7 9.000 1.000 9.000 1.000 0.000 0.000 0.000
RAW 0 40647.000 4 430354.37000 -703782.45000 -22.80000 151727.00000
MSG 0 40567.015 $GPGGA,151727,4303.5437,N,07037.8245,W,1,09,1.0,9.6,M,-32.4,M,,*71
MSG 0 40567.157 $GPGSA,A,3,06,,14,16,20,,25,29,30,31,32,,1.7,1.0,1.4*3A
MSG 0 40567.275 $GPGSV,3,1,11,06,05,174,38,11,00,235,33,14,24,132,46,16,41,212,47*74
MSG 0 40567.421 $PGRME,5.1,M,7.1,M,8.7,M*23
MSG 0 40567.481 $PGRMB,0.0,200,,,,K,,N,N*31
MSG 0 40567.542 $PGRMM,WGS 84*06
MSG 0 40567.867 $GPRMC,151728,A,4303.5437,N,07037.8243,W,000.4,126.1,030712,016.1,W*70
POS 0 40648.000 367234.486 4768663.416
QUA 0 40648.000 7 9.000 1.000 9.000 1.000 0.000 0.000 0.000
RAW 0 40648.000 4 430354.37000 -703782.43000 -23.00000 151728.00000
MSG 0 40568.017 $GPGGA,151728,4303.5437,N,07037.8243,W,1,09,1.0,9.4,M,-32.4,M,,*7A
MSG 0 40568.159 $GPGSA,A,3,06,,14,16,20,,25,29,30,31,32,,1.7,1.0,1.4*3A
MSG 0 40568.277 $GPGSV,3,2,11,20,31,280,46,23,23,311,37,25,15,046,41,29,25,064,46*7F
MSG 0 40568.423 $PGRME,5.1,M,7.1,M,8.7,M*23
MSG 0 40568.484 $PGRMB,0.0,200,,,,K,,N,N*31
MSG 0 40568.544 $PGRMM,WGS 84*06
MSG 0 40568.865 $GPRMC,151729,A,4303.5435,N,07037.8242,W,000.6,131.4,030712,016.1,W*73
POS 0 40649.000 367234.615 4768663.043
QUA 0 40649.000 7 9.000 1.000 9.000 1.000 0.000 0.000 0.000
RAW 0 40649.000 4 430354.35000 -703782.42000 -23.10000 151729.00000
MSG 0 40569.015 $GPGGA,151729,4303.5435,N,07037.8242,W,1,09,1.0,9.3,M,-32.4,M,,*7F
MSG 0 40569.157 $GPGSA,A,3,06,,14,16,20,,25,29,30,31,32,,1.7,1.0,1.4*3A
MSG 0 40569.275 $GPGSV,3,3,11,30,70,213,45,31,62,050,51,32,41,248,47*42
MSG 0 40569.394 $PGRME,5.1,M,7.1,M,8.7,M*23
MSG 0 40569.454 $PGRMB,0.0,200,,,,K,,N,N*31
MSG 0 40569.515 $PGRMM,WGS 84*06
MSG 0 40569.865 $GPRMC,151730,A,4303.5434,N,07037.8239,W,000.7,127.4,030712,016.1,W*70
POS 0 40650.000 367235.018 4768662.850
QUA 0 40650.000 7 9.000 1.000 9.000 1.000 0.000 0.000 0.000
RAW 0 40650.000 4 430354.34000 -703782.39000 -22.80000 151730.00000
MSG 0 40570.015 $GPGGA,151730,4303.5434,N,07037.8239,W,1,09,1.0,9.6,M,-32.4,M,,*7F
MSG 0 40570.157 $GPGSA,A,3,06,,14,16,20,,25,29,30,31,32,,1.7,1.0,1.4*3A
MSG 0 40570.275 $GPGSV,3,1,11,06,05,174,40,11,00,235,33,14,24,132,45,16,41,212,46*79
MSG 0 40570.421 $PGRME,5.1,M,7.1,M,8.7,M*23
MSG 0 40570.481 $PGRMB,0.0,200,,,,K,,N,N*31
MSG 0 40570.542 $PGRMM,WGS 84*06
MSG 0 40570.916 $GPRMC,151731,A,4303.5433,N,07037.8237,W,000.6,125.3,030712,016.1,W*7C
POS 0 40651.000 367235.286 4768662.660
QUA 0 40651.000 7 9.000 1.000 9.000 1.000 0.000 0.000 0.000
RAW 0 40651.000 4 430354.33000 -703782.37000 -22.90000 151731.00000
MSG 0 40571.066 $GPGGA,151731,4303.5433,N,07037.8237,W,1,09,1.0,9.5,M,-32.4,M,,*74
MSG 0 40571.208 $GPGSA,A,3,06,,14,16,20,,25,29,30,31,32,,1.7,1.0,1.4*3A
MSG 0 40571.327 $GPGSV,3,2,11,20,31,280,46,23,23,311,37,25,15,046,42,29,25,064,46*7C
MSG 0 40571.472 $PGRME,5.1,M,7.1,M,8.7,M*23
MSG 0 40571.533 $PGRMB,0.0,200,,,,K,,N,N*31
MSG 0 40571.593 $PGRMM,WGS 84*06
MSG 0 40571.877 $GPRMC,151732,A,4303.5433,N,07037.8235,W,000.5,117.8,030712,016.1,W*74
POS 0 40652.000 367235.557 4768662.654
QUA 0 40652.000 7 9.000 1.000 9.000 1.000 0.000 0.000 0.000
RAW 0 40652.000 4 430354.33000 -703782.35000 -22.90000 151732.00000
MSG 0 40572.027 $GPGGA,151732,4303.5433,N,07037.8235,W,1,09,1.0,9.5,M,-32.4,M,,*75
MSG 0 40572.169 $GPGSA,A,3,06,,14,16,20,,25,29,30,31,32,,1.7,1.0,1.4*3A
MSG 0 40572.287 $GPGSV,3,3,11,30,71,214,45,31,62,050,51,32,41,248,47*44
MSG 0 40572.406 $PGRME,5.1,M,7.1,M,8.7,M*23
MSG 0 40572.467 $PGRMB,0.0,200,,,,K,,N,N*31
MSG 0 40572.527 $PGRMM,WGS 84*06
MSG 0 40572.865 $GPRMC,151733,A,4303.5431,N,07037.8234,W,000.6,125.0,030712,016.1,W*7C
POS 0 40653.000 367235.686 4768662.282
QUA 0 40653.000 7 9.000 1.000 9.000 1.000 0.000 0.000 0.000
RAW 0 40653.000 4 430354.31000 -703782.34000 -23.10000 151733.00000
MSG 0 40573.015 $GPGGA,151733,4303.5431,N,07037.8234,W,1,09,1.0,9.3,M,-32.4,M,,*71
MSG 0 40573.157 $GPGSA,A,3,06,,14,16,20,,25,29,30,31,32,,1.7,1.0,1.4*3A
MSG 0 40573.275 $GPGSV,3,1,11,06,05,174,39,11,00,235,33,14,24,132,46,16,41,212,46*74
MSG 0 40573.421 $PGRME,5.1,M,7.1,M,8.7,M*23
MSG 0 40573.482 $PGRMB,0.0,200,,,,K,,N,N*31
MSG 0 40573.542 $PGRMM,WGS 84*06
MSG 0 40573.878 $GPRMC,151734,A,4303.5430,N,07037.8231,W,000.7,124.7,030712,016.1,W*78
POS 0 40654.000 367236.090 4768662.089
QUA 0 40654.000 7 9.000 1.000 9.000 1.000 0.000 0.000 0.000
RAW 0 40654.000 4 430354.30000 -703782.31000 -23.10000 151734.00000
MSG 0 40574.028 $GPGGA,151734,4303.5430,N,07037.8231,W,1,09,1.0,9.3,M,-32.4,M,,*72
MSG 0 40574.169 $GPGSA,A,3,06,,14,16,20,,25,29,30,31,32,,1.7,1.0,1.4*3A
MSG 0 40574.288 $GPGSV,3,2,11,20,31,280,46,23,23,311,37,25,15,046,41,29,25,064,46*7F
MSG 0 40574.434 $PGRME,5.1,M,7.1,M,8.7,M*23
MSG 0 40574.494 $PGRMT,GPS 17-HVS Ver. 2.80,P,P,R,R,P,,39,R*01
MSG 0 40574.594 $PGRMB,0.0,200,,,,K,,N,N*31
MSG 0 40574.654 $PGRMM,WGS 84*06
MSG 0 40574.877 $GPRMC,151735,A,4303.5429,N,07037.8229,W,000.7,125.3,030712,016.1,W*7D
POS 0 40655.000 367236.357 4768661.898
QUA 0 40655.000 7 9.000 1.000 9.000 1.000 0.000 0.000 0.000
RAW 0 40655.000 4 430354.29000 -703782.29000 -23.20000 151735.00000
MSG 0 40575.027 $GPGGA,151735,4303.5429,N,07037.8229,W,1,09,1.0,9.2,M,-32.4,M,,*73
MSG 0 40575.168 $GPGSA,A,3,06,,14,16,20,,25,29,30,31,32,,1.7,1.0,1.4*3A
MSG 0 40575.287 $GPGSV,3,3,11,30,71,214,45,31,61,052,51,32,41,248,47*45
MSG 0 40575.406 $PGRME,5.1,M,7.1,M,8.7,M*23
MSG 0 40575.466 $PGRMB,0.0,200,,,,K,,N,N*31
MSG 0 40575.527 $PGRMM,WGS 84*06
MSG 0 40575.875 $GPRMC,151736,A,4303.5428,N,07037.8228,W,000.6,132.6,030712,016.1,W*7C
POS 0 40656.000 367236.489 4768661.710
QUA 0 40656.000 7 9.000 1.000 9.000 1.000 0.000 0.000 0.000
RAW 0 40656.000 4 430354.28000 -703782.28000 -22.80000 151736.00000
MSG 0 40576.025 $GPGGA,151736,4303.5428,N,07037.8228,W,1,09,1.0,9.6,M,-32.4,M,,*74
MSG 0 40576.167 $GPGSA,A,3,06,,14,16,20,,25,29,30,31,32,,1.7,1.0,1.4*3A
MSG 0 40576.285 $GPGSV,3,1,11,06,05,174,40,11,00,235,33,14,24,132,47,16,41,212,47*7A
MSG 0 40576.431 $PGRME,5.1,M,7.1,M,8.7,M*23
MSG 0 40576.491 $PGRMB,0.0,200,,,,K,,N,N*31
MSG 0 40576.552 $PGRMM,WGS 84*06
MSG 0 40576.865 $GPRMC,151737,A,4303.5427,N,07037.8226,W,000.5,114.2,030712,016.1,W*7F
POS 0 40657.000 367236.757 4768661.520
QUA 0 40657.000 7 9.000 1.000 9.000 1.000 0.000 0.000 0.000
RAW 0 40657.000 4 430354.27000 -703782.26000 -22.60000 151737.00000
MSG 0 40577.015 $GPGGA,151737,4303.5427,N,07037.8226,W,1,09,1.0,9.8,M,-32.4,M,,*7A
MSG 0 40577.156 $GPGSA,A,3,06,,14,16,20,,25,29,30,31,32,,1.7,1.0,1.4*3A
MSG 0 40577.275 $GPGSV,3,2,11,20,31,280,46,23,23,311,37,25,15,046,42,29,25,064,46*7C
MSG 0 40577.421 $PGRME,5.1,M,7.1,M,8.7,M*23
MSG 0 40577.481 $PGRMB,0.0,200,,,,K,,N,N*31
MSG 0 40577.541 $PGRMM,WGS 84*06
MSG 0 40577.894 $GPRMC,151738,A,4303.5427,N,07037.8225,W,000.4,126.5,030712,016.1,W*74
POS 0 40658.000 367236.893 4768661.517
QUA 0 40658.000 7 9.000 1.000 9.000 1.000 0.000 0.000 0.000
RAW 0 40658.000 4 430354.27000 -703782.25000 -22.80000 151738.00000
MSG 0 40578.044 $GPGGA,151738,4303.5427,N,07037.8225,W,1,09,1.0,9.6,M,-32.4,M,,*78
MSG 0 40578.186 $GPGSA,A,3,06,,14,16,20,,25,29,30,31,32,,1.7,1.0,1.4*3A
MSG 0 40578.304 $GPGSV,3,3,11,30,71,214,45,31,61,052,51,32,41,248,47*45
MSG 0 40578.423 $PGRME,5.1,M,7.1,M,8.7,M*23
MSG 0 40578.484 $PGRMB,0.0,200,,,,K,,N,N*31
MSG 0 40578.544 $PGRMM,WGS 84*06
MSG 0 40578.897 $GPRMC,151739,A,4303.5425,N,07037.8223,W,000.5,130.8,030712,016.1,W*7A
POS 0 40659.000 367237.157 4768661.142
QUA 0 40659.000 7 9.000 1.000 9.000 1.000 0.000 0.000 0.000
RAW 0 40659.000 4 430354.25000 -703782.23000 -23.10000 151739.00000
MSG 0 40579.047 $GPGGA,151739,4303.5425,N,07037.8223,W,1,09,1.0,9.3,M,-32.4,M,,*78
MSG 0 40579.188 $GPGSA,A,3,06,,14,16,20,,25,29,30,31,32,,1.7,1.0,1.4*3A
MSG 0 40579.307 $GPGSV,3,1,11,06,05,174,41,11,00,235,33,14,24,132,47,16,41,212,47*7B
MSG 0 40579.453 $PGRME,5.1,M,7.1,M,8.7,M*23
MSG 0 40579.513 $PGRMB,0.0,200,,,,K,,N,N*31
MSG 0 40579.574 $PGRMM,WGS 84*06
MSG 0 40579.879 $GPRMC,151740,A,4303.5424,N,07037.8221,W,000.6,130.3,030712,016.1,W*7F
POS 0 40660.000 367237.425 4768660.952
QUA 0 40660.000 7 9.000 1.000 9.000 1.000 0.000 0.000 0.000
RAW 0 40660.000 4 430354.24000 -703782.21000 -23.40000 151740.00000
MSG 0 40580.029 $GPGGA,151740,4303.5424,N,07037.8221,W,1,09,1.0,9.0,M,-32.4,M,,*76
MSG 0 40580.170 $GPGSA,A,3,06,,14,16,20,,25,29,30,31,32,,1.7,1.0,1.4*3A
MSG 0 40580.289 $GPGSV,3,2,11,20,31,280,46,23,23,311,36,25,15,046,42,29,25,064,47*7C
MSG 0 40580.435 $PGRME,5.1,M,7.1,M,8.7,M*23
MSG 0 40580.495 $PGRMB,0.0,200,,,,K,,N,N*31
MSG 0 40580.555 $PGRMM,WGS 84*06
MSG 0 40580.865 $GPRMC,151741,A,4303.5422,N,07037.8219,W,000.9,139.0,030712,016.1,W*76
POS 0 40661.000 367237.689 4768660.576
QUA 0 40661.000 7 9.000 1.000 9.000 1.000 0.000 0.000 0.000
RAW 0 40661.000 4 430354.22000 -703782.19000 -23.40000 151741.00000
MSG 0 40581.015 $GPGGA,151741,4303.5422,N,07037.8219,W,1,09,1.0,9.0,M,-32.4,M,,*7A
MSG 0 40581.157 $GPGSA,A,3,06,,14,16,20,,25,29,30,31,32,,1.7,1.0,1.4*3A
MSG 0 40581.275 $GPGSV,3,3,11,30,71,214,45,31,61,052,50,32,41,247,47*4B
MSG 0 40581.394 $PGRME,5.1,M,7.1,M,8.7,M*23
MSG 0 40581.454 $PGRMB,0.0,200,,,,K,,N,N*31
MSG 0 40581.515 $PGRMM,WGS 84*06
MSG 0 40581.865 $GPRMC,151742,A,4303.5422,N,07037.8217,W,000.6,124.5,030712,016.1,W*7D
POS 0 40662.000 367237.961 4768660.571
QUA 0 40662.000 7 9.000 1.000 9.000 1.000 0.000 0.000 0.000
RAW 0 40662.000 4 430354.22000 -703782.17000 -22.80000 151742.00000
MSG 0 40582.015 $GPGGA,151742,4303.5422,N,07037.8217,W,1,09,1.0,9.6,M,-32.4,M,,*71
MSG 0 40582.157 $GPGSA,A,3,06,,14,16,20,,25,29,30,31,32,,1.7,1.0,1.4*3A
MSG 0 40582.275 $GPGSV,3,1,11,06,05,174,41,11,00,235,34,14,24,132,47,16,41,212,47*7C
MSG 0 40582.421 $PGRME,5.1,M,7.0,M,8.7,M*22
MSG 0 40582.481 $PGRMB,0.0,200,,,,K,,N,N*31
MSG 0 40582.542 $PGRMM,WGS 84*06
MSG 0 40582.869 $GPRMC,151743,A,4303.5421,N,07037.8216,W,000.5,115.8,030712,016.1,W*72
POS 0 40663.000 367238.093 4768660.383
QUA 0 40663.000 7 9.000 1.000 9.000 1.000 0.000 0.000 0.000
RAW 0 40663.000 4 430354.21000 -703782.16000 -22.60000 151743.00000
MSG 0 40583.019 $GPGGA,151743,4303.5421,N,07037.8216,W,1,09,1.0,9.8,M,-32.4,M,,*7C
MSG 0 40583.160 $GPGSA,A,3,06,,14,16,20,,25,29,30,31,32,,1.7,1.0,1.4*3A
MSG 0 40583.279 $GPGSV,3,2,11,20,31,280,46,23,23,311,37,25,15,046,42,29,25,064,46*7C
MSG 0 40583.425 $PGRME,5.1,M,7.0,M,8.7,M*22
MSG 0 40583.485 $PGRMB,0.0,200,,,,K,,N,N*31
MSG 0 40583.545 $PGRMM,WGS 84*06
MSG 0 40583.865 $GPRMC,151744,A,4303.5420,N,07037.8214,W,000.7,129.5,030712,016.1,W*76
POS 0 40664.000 367238.361 4768660.193
QUA 0 40664.000 7 9.000 1.000 9.000 1.000 0.000 0.000 0.000
RAW 0 40664.000 4 430354.20000 -703782.14000 -23.10000 151744.00000
MSG 0 40584.015 $GPGGA,151744,4303.5420,N,07037.8214,W,1,09,1.0,9.3,M,-32.4,M,,*73
MSG 0 40584.157 $GPGSA,A,3,06,,14,16,20,,25,29,30,31,32,,1.7,1.0,1.4*3A
MSG 0 40584.275 $GPGSV,3,3,11,30,71,214,45,31,61,052,50,32,41,247,47*4B
MSG 0 40584.394 $PGRME,5.1,M,7.0,M,8.7,M*22
MSG 0 40584.454 $PGRMB,0.0,200,,,,K,,N,N*31
MSG 0 40584.515 $PGRMM,WGS 84*06
MSG 0 40584.865 $GPRMC,151745,A,4303.5420,N,07037.8212,W,000.6,117.2,030712,016.1,W*7A
POS 0 40665.000 367238.632 4768660.188
QUA 0 40665.000 7 9.000 1.000 9.000 1.000 0.000 0.000 0.000
RAW 0 40665.000 4 430354.20000 -703782.12000 -23.30000 151745.00000
MSG 0 40585.014 $GPGGA,151745,4303.5420,N,07037.8212,W,1,09,1.0,9.1,M,-32.4,M,,*76
MSG 0 40585.156 $GPGSA,A,3,06,,14,16,20,,25,29,30,31,32,,1.7,1.0,1.4*3A
MSG 0 40585.275 $GPGSV,3,1,11,06,05,174,41,11,00,235,34,14,24,132,47,16,41,212,47*7C
MSG 0 40585.420 $PGRME,5.1,M,7.0,M,8.7,M*22
MSG 0 40585.481 $PGRMB,0.0,200,,,,K,,N,N*31
MSG 0 40585.541 $PGRMM,WGS 84*06
MSG 0 40585.892 $GPRMC,151746,A,4303.5418,N,07037.8212,W,000.5,144.1,030712,016.1,W*74
POS 0 40666.000 367238.625 4768659.817
QUA 0 40666.000 7 9.000 1.000 9.000 1.000 0.000 0.000 0.000
RAW 0 40666.000 4 430354.18000 -703782.12000 -23.20000 151746.00000
MSG 0 40586.042 $GPGGA,151746,4303.5418,N,07037.8212,W,1,09,1.0,9.2,M,-32.4,M,,*7D
MSG 0 40586.184 $GPGSA,A,3,06,,14,16,20,,25,29,30,31,32,,1.7,1.0,1.4*3A
MSG 0 40586.302 $GPGSV,3,2,11,20,31,280,46,23,23,311,37,25,15,046,41,29,25,064,46*7F
MSG 0 40586.448 $PGRME,5.1,M,7.0,M,8.7,M*22
MSG 0 40586.509 $PGRMB,0.0,200,,,,K,,N,N*31
MSG 0 40586.569 $PGRMM,WGS 84*06
MSG 0 40586.864 $GPRMC,151747,A,4303.5417,N,07037.8208,W,000.8,123.6,030712,016.1,W*7A
POS 0 40667.000 367239.164 4768659.622
QUA 0 40667.000 7 9.000 1.000 9.000 1.000 0.000 0.000 0.000
RAW 0 40667.000 4 430354.17000 -703782.08000 -23.00000 151747.00000
MSG 0 40587.014 $GPGGA,151747,4303.5417,N,07037.8208,W,1,09,1.0,9.4,M,-32.4,M,,*7E
MSG 0 40587.156 $GPGSA,A,3,06,,14,16,20,,25,29,30,31,32,,1.7,1.0,1.4*3A
MSG 0 40587.274 $GPGSV,3,3,11,30,71,214,45,31,61,052,49,32,41,247,48*4C
MSG 0 40587.393 $PGRME,5.1,M,7.0,M,8.7,M*22
MSG 0 40587.453 $PGRMB,0.0,200,,,,K,,N,N*31
MSG 0 40587.514 $PGRMM,WGS 84*06
MSG 0 40587.864 $GPRMC,151748,A,4303.5416,N,07037.8208,W,000.5,136.5,030712,016.1,W*7E
POS 0 40668.000 367239.161 4768659.437
QUA 0 40668.000 7 9.000 1.000 9.000 1.000 0.000 0.000 0.000
RAW 0 40668.000 4 430354.16000 -703782.08000 -22.80000 151748.00000
MSG 0 40588.014 $GPGGA,151748,4303.5416,N,07037.8208,W,1,09,1.0,9.6,M,-32.4,M,,*72
MSG 0 40588.155 $GPGSA,A,3,06,,14,16,20,,25,29,30,31,32,,1.7,1.0,1.4*3A
MSG 0 40588.274 $GPGSV,3,1,11,06,05,174,42,11,00,235,33,14,24,132,47,16,41,212,47*78
MSG 0 40588.420 $PGRME,5.1,M,7.0,M,8.7,M*22
MSG 0 40588.480 $PGRMB,0.0,200,,,,K,,N,N*31
MSG 0 40588.541 $PGRMM,WGS 84*06
MSG 0 40588.878 $GPRMC,151749,A,4303.5416,N,07037.8207,W,000.3,118.4,030712,016.1,W*7B
POS 0 40669.000 367239.296 4768659.434
QUA 0 40669.000 7 9.000 1.000 9.000 1.000 0.000 0.000 0.000
RAW 0 40669.000 4 430354.16000 -703782.07000 -22.90000 151749.00000
MSG 0 40589.028 $GPGGA,151749,4303.5416,N,07037.8207,W,1,09,1.0,9.5,M,-32.4,M,,*7F
MSG 0 40589.169 $GPGSA,A,3,06,,14,16,20,,25,29,30,31,32,,1.7,1.0,1.4*3A
MSG 0 40589.288 $GPGSV,3,2,11,20,31,280,46,23,23,311,36,25,15,046,41,29,25,064,46*7E
MSG 0 40589.434 $PGRME,5.1,M,7.0,M,8.7,M*22
MSG 0 40589.494 $PGRMB,0.0,200,,,,K,,N,N*31
MSG 0 40589.555 $PGRMM,WGS 84*06
MSG 0 40589.865 $GPRMC,151750,A,4303.5414,N,07037.8206,W,000.6,148.5,030712,016.1,W*71
POS 0 40670.000 367239.425 4768659.061
QUA 0 40670.000 7 9.000 1.000 9.000 1.000 0.000 0.000 0.000
RAW 0 40670.000 4 430354.14000 -703782.06000 -23.40000 151750.00000
MSG 0 40590.015 $GPGGA,151750,4303.5414,N,07037.8206,W,1,09,1.0,9.0,M,-32.4,M,,*71
MSG 0 40590.156 $GPGSA,A,3,06,,14,16,20,,25,29,30,31,32,,1.7,1.0,1.4*3A
MSG 0 40590.275 $GPGSV,3,3,11,30,71,214,45,31,61,052,50,32,41,247,47*4B
MSG 0 40590.394 $PGRME,5.1,M,7.0,M,8.7,M*22
MSG 0 40590.454 $PGRMB,0.0,200,,,,K,,N,N*31
MSG 0 40590.515 $PGRMM,WGS 84*06
MSG 0 40590.887 $GPRMC,151751,A,4303.5413,N,07037.8203,W,000.7,130.4,030712,016.1,W*7D
POS 0 40671.000 367239.829 4768658.868
QUA 0 40671.000 7 9.000 1.000 9.000 1.000 0.000 0.000 0.000
RAW 0 40671.000 4 430354.13000 -703782.03000 -23.80000 151751.00000
MSG 0 40591.036 $GPGGA,151751,4303.5413,N,07037.8203,W,1,09,1.0,8.6,M,-32.4,M,,*75
MSG 0 40591.178 $GPGSA,A,3,06,,14,16,20,,25,29,30,31,32,,1.7,1.0,1.4*3A
MSG 0 40591.297 $GPGSV,3,1,11,06,05,174,41,11,00,235,33,14,24,132,48,16,41,212,47*74
MSG 0 40591.442 $PGRME,5.1,M,7.0,M,8.7,M*22
MSG 0 40591.503 $PGRMB,0.0,200,,,,K,,N,N*31
MSG 0 40591.563 $PGRMM,WGS 84*06
MSG 0 40591.884 $GPRMC,151752,A,4303.5411,N,07037.8201,W,000.8,137.3,030712,016.1,W*71
POS 0 40672.000 367240.093 4768658.493
QUA 0 40672.000 7 9.000 1.000 9.000 1.000 0.000 0.000 0.000
RAW 0 40672.000 4 430354.11000 -703782.01000 -23.70000 151752.00000
MSG 0 40592.034 $GPGGA,151752,4303.5411,N,07037.8201,W,1,09,1.0,8.7,M,-32.4,M,,*77
MSG 0 40592.176 $GPGSA,A,3,06,,14,16,20,,25,29,30,31,32,,1.7,1.0,1.4*3A
MSG 0 40592.294 $GPGSV,3,2,11,20,31,280,46,23,23,311,35,25,15,046,41,29,25,064,46*7D
MSG 0 40592.440 $PGRME,5.1,M,7.0,M,8.7,M*22
MSG 0 40592.500 $PGRMB,0.0,200,,,,K,,N,N*31
MSG 0 40592.561 $PGRMM,WGS 84*06
MSG 0 40592.893 $GPRMC,151753,A,4303.5411,N,07037.8199,W,000.7,122.5,030712,016.1,W*7F
POS 0 40673.000 367240.364 4768658.488
QUA 0 40673.000 7 9.000 1.000 9.000 1.000 0.000 0.000 0.000
RAW 0 40673.000 4 430354.11000 -703781.99000 -23.40000 151753.00000
MSG 0 40593.043 $GPGGA,151753,4303.5411,N,07037.8199,W,1,09,1.0,9.0,M,-32.4,M,,*72
MSG 0 40593.185 $GPGSA,A,3,06,,14,16,20,,25,29,30,31,32,,1.7,1.0,1.4*3A
MSG 0 40593.304 $GPGSV,3,3,11,30,71,214,45,31,61,052,49,32,41,247,47*43
MSG 0 40593.422 $PGRME,5.1,M,7.0,M,8.7,M*22
MSG 0 40593.483 $PGRMB,0.0,200,,,,K,,N,N*31
MSG 0 40593.543 $PGRMM,WGS 84*06
MSG 0 40593.875 $GPRMC,151754,A,4303.5410,N,07037.8197,W,000.7,124.7,030712,016.1,W*73
POS 0 40674.000 367240.632 4768658.297
QUA 0 40674.000 7 9.000 1.000 9.000 1.000 0.000 0.000 0.000
RAW 0 40674.000 4 430354.10000 -703781.97000 -23.20000 151754.00000
MSG 0 40594.025 $GPGGA,151754,4303.5410,N,07037.8197,W,1,09,1.0,9.2,M,-32.4,M,,*78
MSG 0 40594.166 $GPGSA,A,3,06,,14,16,20,,25,29,30,31,32,,1.7,1.0,1.4*3A
MSG 0 40594.285 $GPGSV,3,1,11,06,05,174,41,11,00,235,33,14,24,132,48,16,41,212,47*74
MSG 0 40594.431 $PGRME,5.1,M,7.0,M,8.7,M*22
MSG 0 40594.491 $PGRMB,0.0,200,,,,K,,N,N*31
MSG 0 40594.552 $PGRMM,WGS 84*06
MSG 0 40594.864 $GPRMC,151755,A,4303.5410,N,07037.8196,W,000.4,110.9,030712,016.1,W*79
POS 0 40675.000 367240.768 4768658.295
QUA 0 40675.000 7 9.000 1.000 9.000 1.000 0.000 0.000 0.000
RAW 0 40675.000 4 430354.10000 -703781.96000 -23.10000 151755.00000
MSG 0 40595.014 $GPGGA,151755,4303.5410,N,07037.8196,W,1,09,1.0,9.3,M,-32.4,M,,*79
MSG 0 40595.155 $GPGSA,A,3,06,,14,16,20,,25,29,30,31,32,,1.7,1.0,1.4*3A
MSG 0 40595.274 $GPGSV,3,2,11,20,31,280,46,23,23,311,36,25,15,046,41,29,25,064,45*7D
MSG 0 40595.420 $PGRME,5.1,M,7.0,M,8.7,M*22
MSG 0 40595.480 $PGRMB,0.0,200,,,,K,,N,N*31
MSG 0 40595.540 $PGRMM,WGS 84*06
MSG 0 40595.864 $GPRMC,151756,A,4303.5409,N,07037.8196,W,000.4,135.1,030712,016.1,W*7D
POS 0 40676.000 367240.764 4768658.109
QUA 0 40676.000 7 9.000 1.000 9.000 1.000 0.000 0.000 0.000
RAW 0 40676.000 4 430354.09000 -703781.96000 -23.40000 151756.00000
MSG 0 40596.014 $GPGGA,151756,4303.5409,N,07037.8196,W,1,09,1.0,9.0,M,-32.4,M,,*71
MSG 0 40596.156 $GPGSA,A,3,06,,14,16,20,,25,29,30,31,32,,1.7,1.0,1.4*3A
MSG 0 40596.274 $GPGSV,3,3,11,30,71,214,45,31,61,052,49,32,41,247,47*43
MSG 0 40596.393 $PGRME,5.1,M,7.0,M,8.7,M*22
MSG 0 40596.453 $PGRMB,0.0,200,,,,K,,N,N*31
MSG 0 40596.514 $PGRMM,WGS 84*06
MSG 0 40596.865 $GPRMC,151757,A,4303.5408,N,07037.8193,W,000.6,129.7,030712,016.1,W*71
POS 0 40677.000 367241.168 4768657.916
QUA 0 40677.000 7 9.000 1.000 9.000 1.000 0.000 0.000 0.000
RAW 0 40677.000 4 430354.08000 -703781.93000 -23.60000 151757.00000
MSG 0 40597.015 $GPGGA,151757,4303.5408,N,07037.8193,W,1,09,1.0,8.8,M,-32.4,M,,*7D
MSG 0 40597.156 $GPGSA,A,3,06,,14,16,20,,25,29,30,31,32,,1.7,1.0,1.4*3A
MSG 0 40597.275 $GPGSV,3,1,11,06,05,174,42,11,00,235,32,14,24,132,48,16,41,212,47*76
MSG 0 40597.421 $PGRME,5.1,M,7.0,M,8.7,M*22
MSG 0 40597.481 $PGRMB,0.0,200,,,,K,,N,N*31
MSG 0 40597.541 $PGRMM,WGS 84*06
MSG 0 40597.864 $GPRMC,151758,A,4303.5406,N,07037.8192,W,000.5,145.8,030712,016.1,W*77
POS 0 40678.000 367241.296 4768657.544
QUA 0 40678.000 7 9.000 1.000 9.000 1.000 0.000 0.000 0.000
RAW 0 40678.000 4 430354.06000 -703781.92000 -23.30000 151758.00000
MSG 0 40598.014 $GPGGA,151758,4303.5406,N,07037.8192,W,1,09,1.0,9.1,M,-32.4,M,,*75
MSG 0 40598.156 $GPGSA,A,3,06,,14,16,20,,25,29,30,31,32,,1.7,1.0,1.4*3A
MSG 0 40598.275 $GPGSV,3,2,11,20,31,280,46,23,23,311,36,25,15,046,41,29,25,064,45*7D
MSG 0 40598.420 $PGRME,5.1,M,7.0,M,8.7,M*22
MSG 0 40598.481 $PGRMB,0.0,200,,,,K,,N,N*31
MSG 0 40598.541 $PGRMM,WGS 84*06
MSG 0 40598.875 $GPRMC,151759,A,4303.5406,N,07037.8192,W,000.3,141.8,030712,016.1,W*74
POS 0 40679.000 367241.296 4768657.544
QUA 0 40679.000 7 9.000 1.000 9.000 1.000 0.000 0.000 0.000
RAW 0 40679.000 4 430354.06000 -703781.92000 -23.20000 151759.00000
MSG 0 40599.025 $GPGGA,151759,4303.5406,N,07037.8192,W,1,09,1.0,9.2,M,-32.4,M,,*77
MSG 0 40599.166 $GPGSA,A,3,06,,14,16,20,,25,29,30,31,32,,1.7,1.0,1.4*3A
MSG 0 40599.285 $GPGSV,3,3,11,30,71,214,45,31,61,052,49,32,41,247,47*43
MSG 0 40599.404 $PGRME,5.1,M,7.0,M,8.7,M*22
MSG 0 40599.464 $PGRMB,0.0,200,,,,K,,N,N*31
MSG 0 40599.525 $PGRMM,WGS 84*06
MSG 0 40599.864 $GPRMC,151800,A,4303.5405,N,07037.8189,W,000.6,124.7,030712,016.1,W*77
POS 0 40680.000 367241.700 4768657.351
QUA 0 40680.000 7 9.000 1.000 9.000 1.000 0.000 0.000 0.000
RAW 0 40680.000 4 430354.05000 -703781.89000 -23.20000 151800.00000
MSG 0 40600.014 $GPGGA,151800,4303.5405,N,07037.8189,W,1,09,1.0,9.2,M,-32.4,M,,*7D
MSG 0 40600.156 $GPGSA,A,3,06,,14,16,20,,25,29,30,31,32,,1.7,1.0,1.4*3A
MSG 0 40600.275 $GPGSV,3,1,11,06,05,174,43,11,00,235,33,14,24,132,48,16,41,212,47*76
MSG 0 40600.420 $PGRME,5.1,M,7.0,M,8.7,M*22
MSG 0 40600.481 $PGRMB,0.0,200,,,,K,,N,N*31
MSG 0 40600.541 $PGRMM,WGS 84*06
MSG 0 40600.881 $GPRMC,151801,A,4303.5403,N,07037.8186,W,000.8,128.3,030712,016.1,W*79
POS 0 40681.000 367242.100 4768656.973
QUA 0 40681.000 7 9.000 1.000 9.000 1.000 0.000 0.000 0.000
RAW 0 40681.000 4 430354.03000 -703781.86000 -23.60000 151801.00000
MSG 0 40601.031 $GPGGA,151801,4303.5403,N,07037.8186,W,1,09,1.0,8.8,M,-32.4,M,,*7E
MSG 0 40601.173 $GPGSA,A,3,06,,14,16,20,,25,29,30,31,32,,1.7,1.0,1.4*3A
MSG 0 40601.291 $GPGSV,3,2,11,20,31,280,46,23,23,311,37,25,15,046,41,29,25,064,45*7C
MSG 0 40601.437 $PGRME,5.1,M,7.0,M,8.7,M*22
MSG 0 40601.497 $PGRMB,0.0,200,,,,K,,N,N*31
MSG 0 40601.558 $PGRMM,WGS 84*06
MSG 0 40601.874 $GPRMC,151802,A,4303.5402,N,07037.8184,W,000.7,123.3,030712,016.1,W*7D
POS 0 40682.000 367242.368 4768656.782
QUA 0 40682.000 7 9.000 1.000 9.000 1.000 0.000 0.000 0.000
RAW 0 40682.000 4 430354.02000 -703781.84000 -23.60000 151802.00000
MSG 0 40602.024 $GPGGA,151802,4303.5402,N,07037.8184,W,1,09,1.0,8.8,M,-32.4,M,,*7E
MSG 0 40602.166 $GPGSA,A,3,06,,14,16,20,,25,29,30,31,32,,1.7,1.0,1.4*3A
MSG 0 40602.284 $GPGSV,3,3,11,30,71,214,45,31,61,052,49,32,41,247,47*43
MSG 0 40602.403 $PGRME,5.1,M,7.0,M,8.7,M*22
MSG 0 40602.463 $PGRMB,0.0,200,,,,K,,N,N*31
MSG 0 40602.524 $PGRMM,WGS 84*06
MSG 0 40602.864 $GPRMC,151803,A,4303.5401,N,07037.8182,W,000.7,133.9,030712,016.1,W*72
POS 0 40683.000 367242.636 4768656.592
QUA 0 40683.000 7 9.000 1.000 9.000 1.000 0.000 0.000 0.000
RAW 0 40683.000 4 430354.01000 -703781.82000 -23.30000 151803.00000
MSG 0 40603.014 $GPGGA,151803,4303.5401,N,07037.8182,W,1,09,1.0,9.1,M,-32.4,M,,*72
MSG 0 40603.155 $GPGSA,A,3,06,,14,16,20,,25,29,30,31,32,,1.7,1.0,1.4*3A
MSG 0 40603.274 $GPGSV,3,1,11,06,05,173,43,11,00,235,33,14,24,132,48,16,41,212,48*7E
MSG 0 40603.420 $PGRME,5.1,M,7.0,M,8.7,M*22
MSG 0 40603.480 $PGRMB,0.0,200,,,,K,,N,N*31
MSG 0 40603.540 $PGRMM,WGS 84*06
MSG 0 40603.865 $GPRMC,151804,A,4303.5399,N,07037.8181,W,000.7,144.6,030712,016.1,W*7F
POS 0 40684.000 367242.764 4768656.219
QUA 0 40684.000 7 9.000 1.000 9.000 1.000 0.000 0.000 0.000
RAW 0 40684.000 4 430353.99000 -703781.81000 -22.90000 151804.00000
MSG 0 40604.015 $GPGGA,151804,4303.5399,N,07037.8181,W,1,09,1.0,9.5,M,-32.4,M,,*74
MSG 0 40604.157 $GPGSA,A,3,06,,14,16,20,,25,29,30,31,32,,1.7,1.0,1.4*3A
MSG 0 40604.275 $GPGSV,3,2,11,20,31,280,46,23,23,311,37,25,15,046,40,29,25,064,45*7D
MSG 0 40604.421 $PGRME,5.1,M,7.0,M,8.7,M*22
MSG 0 40604.482 $PGRMB,0.0,200,,,,K,,N,N*31
MSG 0 40604.542 $PGRMM,WGS 84*06
MSG 0 40604.864 $GPRMC,151805,A,4303.5399,N,07037.8180,W,000.5,142.1,030712,016.1,W*7C
POS 0 40685.000 367242.900 4768656.216
QUA 0 40685.000 7 9.000 1.000 9.000 1.000 0.000 0.000 0.000
RAW 0 40685.000 4 430353.99000 -703781.80000 -22.90000 151805.00000
MSG 0 40605.014 $GPGGA,151805,4303.5399,N,07037.8180,W,1,09,1.0,9.5,M,-32.4,M,,*74
MSG 0 40605.155 $GPGSA,A,3,06,,14,16,20,,25,29,30,31,32,,1.7,1.0,1.4*3A
MSG 0 40605.274 $GPGSV,3,3,11,30,71,214,45,31,61,052,49,32,41,247,47*43
MSG 0 40605.393 $PGRME,5.1,M,7.0,M,8.7,M*22
MSG 0 40605.453 $PGRMB,0.0,200,,,,K,,N,N*31
MSG 0 40605.513 $PGRMM,WGS 84*06
MSG 0 40605.868 $GPRMC,151806,A,4303.5398,N,07037.8182,W,000.3,197.2,030712,016.1,W*71
POS 0 40686.000 367242.625 4768656.037
QUA 0 40686.000 7 9.000 1.000 9.000 1.000 0.000 0.000 0.000
RAW 0 40686.000 4 430353.98000 -703781.82000 -23.10000 151806.00000
MSG 0 40606.018 $GPGGA,151806,4303.5398,N,07037.8182,W,1,09,1.0,9.3,M,-32.4,M,,*72
MSG 0 40606.160 $GPGSA,A,3,06,,14,16,20,,25,29,30,31,32,,1.7,1.0,1.4*3A
MSG 0 40606.278 $GPGSV,3,1,11,06,05,173,43,11,00,235,33,14,24,132,48,16,41,212,47*71
MSG 0 40606.424 $PGRME,5.1,M,7.0,M,8.7,M*22
MSG 0 40606.485 $PGRMB,0.0,200,,,,K,,N,N*31
MSG 0 40606.545 $PGRMM,WGS 84*06
MSG 0 40606.876 $GPRMC,151807,A,4303.5398,N,07037.8179,W,000.4,129.1,030712,016.1,W*75
POS 0 40687.000 367243.032 4768656.029
QUA 0 40687.000 7 9.000 1.000 9.000 1.000 0.000 0.000 0.000
RAW 0 40687.000 4 430353.98000 -703781.79000 -23.30000 151807.00000
MSG 0 40607.026 $GPGGA,151807,4303.5398,N,07037.8179,W,1,09,1.0,9.1,M,-32.4,M,,*75
MSG 0 40607.167 $GPGSA,A,3,06,,14,16,20,,25,29,30,31,32,,1.7,1.0,1.4*3A
MSG 0 40607.286 $GPGSV,3,2,11,20,31,280,46,23,23,311,37,25,15,046,40,29,25,064,45*7D
MSG 0 40607.432 $PGRME,5.1,M,7.0,M,8.7,M*22
MSG 0 40607.492 $PGRMB,0.0,200,,,,K,,N,N*31
MSG 0 40607.553 $PGRMM,WGS 84*06
MSG 0 40607.864 $GPRMC,151808,A,4303.5396,N,07037.8177,W,000.7,128.2,030712,016.1,W*7B
POS 0 40688.000 367243.296 4768655.653
QUA 0 40688.000 7 9.000 1.000 9.000 1.000 0.000 0.000 0.000
RAW 0 40688.000 4 430353.96000 -703781.77000 -23.40000 151808.00000
MSG 0 40608.014 $GPGGA,151808,4303.5396,N,07037.8177,W,1,09,1.0,9.0,M,-32.4,M,,*7B
MSG 0 40608.155 $GPGSA,A,3,06,,14,16,20,,25,29,30,31,32,,1.7,1.0,1.4*3A
MSG 0 40608.274 $GPGSV,3,3,11,30,71,214,46,31,61,052,49,32,41,247,47*40
MSG 0 40608.393 $PGRME,5.1,M,7.0,M,8.7,M*22
MSG 0 40608.453 $PGRMB,0.0,200,,,,K,,N,N*31
MSG 0 40608.514 $PGRMM,WGS 84*06
MSG 0 40608.864 $GPRMC,151809,A,4303.5396,N,07037.8176,W,000.4,114.7,030712,016.1,W*72
POS 0 40689.000 367243.432 4768655.651
QUA 0 40689.000 7 9.000 1.000 9.000 1.000 0.000 0.000 0.000
RAW 0 40689.000 4 430353.96000 -703781.76000 -23.20000 151809.00000
MSG 0 40609.014 $GPGGA,151809,4303.5396,N,07037.8176,W,1,09,1.0,9.2,M,-32.4,M,,*79
MSG 0 40609.155 $GPGSA,A,3,06,,14,16,20,,25,29,30,31,32,,1.7,1.0,1.4*3A
MSG 0 40609.274 $GPGSV,3,1,11,06,05,173,44,11,00,235,33,14,24,132,48,16,41,212,48*79
MSG 0 40609.420 $PGRME,5.1,M,7.0,M,8.7,M*22
MSG 0 40609.480 $PGRMB,0.0,200,,,,K,,N,N*31
MSG 0 40609.540 $PGRMM,WGS 84*06
MSG 0 40609.864 $GPRMC,151810,A,4303.5395,N,07037.8172,W,000.8,121.7,030712,016.1,W*77
POS 0 40690.000 367243.971 4768655.455
QUA 0 40690.000 7 9.000 1.000 9.000 1.000 0.000 0.000 0.000
RAW 0 40690.000 4 430353.95000 -703781.72000 -23.20000 151810.00000
MSG 0 40610.013 $GPGGA,151810,4303.5395,N,07037.8172,W,1,09,1.0,9.2,M,-32.4,M,,*76
MSG 0 40610.155 $GPGSA,A,3,06,,14,16,20,,25,29,30,31,32,,1.7,1.0,1.4*3A
MSG 0 40610.274 $GPGSV,3,2,11,20,31,280,46,23,23,311,37,25,15,046,40,29,25,064,45*7D
MSG 0 40610.419 $PGRME,5.1,M,7.0,M,8.7,M*22
MSG 0 40610.480 $PGRMB,0.0,200,,,,K,,N,N*31
MSG 0 40610.540 $PGRMM,WGS 84*06
MSG 0 40610.863 $GPRMC,151811,A,4303.5393,N,07037.8170,W,000.8,130.9,030712,016.1,W*7C
POS 0 40691.000 367244.235 4768655.079
QUA 0 40691.000 7 9.000 1.000 9.000 1.000 0.000 0.000 0.000
RAW 0 40691.000 4 430353.93000 -703781.70000 -23.00000 151811.00000
MSG 0 40611.013 $GPGGA,151811,4303.5393,N,07037.8170,W,1,09,1.0,9.4,M,-32.4,M,,*75
MSG 0 40611.155 $GPGSA,A,3,06,,14,16,20,,25,29,30,31,32,,1.7,1.0,1.4*3A
MSG 0 40611.274 $GPGSV,3,3,11,30,71,214,45,31,61,052,48,32,41,247,48*4D
MSG 0 40611.392 $PGRME,5.1,M,7.0,M,8.7,M*22
MSG 0 40611.453 $PGRMB,0.0,200,,,,K,,N,N*31
MSG 0 40611.513 $PGRMM,WGS 84*06
MSG 0 40611.874 $GPRMC,151812,A,4303.5393,N,07037.8170,W,000.4,143.8,030712,016.1,W*76
POS 0 40692.000 367244.235 4768655.079
QUA 0 40692.000 7 9.000 1.000 9.000 1.000 0.000 0.000 0.000
RAW 0 40692.000 4 430353.93000 -703781.70000 -22.80000 151812.00000
MSG 0 40612.024 $GPGGA,151812,4303.5393,N,07037.8170,W,1,09,1.0,9.6,M,-32.4,M,,*74
MSG 0 40612.166 $GPGSA,A,3,06,,14,16,20,,25,29,30,31,32,,1.7,1.0,1.4*3A
MSG 0 40612.284 $GPGSV,3,1,11,06,05,173,44,11,00,235,32,14,24,132,48,16,41,212,48*78
