FTP NEW 2
VER 11.0.6.21
INF "" "" "" "" 0.000 0.000 0.000
ELL WGS-84 6378137.000 298.257223563
PRO TME -69.000000 0.999600 0.000000 0.000000 0.000000 500000.0000 0.0000
DTM 0.00 0.00 0.00 0.00000 0.00000 0.00000 0.00000
GEO ??? 0.000
HVU 1.0000000000 1.0000000000
TND 13:09:58 07/03/2012 240
DEV 0 32869 "Garmin GPS" 49156 C:\HYPACK 2011\devices\GPS.dll 11.0.10.6
OFF 0 0.000 0.000 0.000 0.000 0.000 0.000 0.000
DDT 0 SYN 
DEV 1 0 "Disabled" 0 Odom CV3 MK3 Disabled Unknown
USR "NOAA Joint Hydrographic Center" "HYPACK Inc." 0x8 15681181
EOH 0001FFFFFFFFFFFFFFFFFFFFFFFFFFFFFFFFFFFFFFFFFFFFFFFFFFFFFFFFFFFFFFFFFFFFFFFFFFFFFFFFFFFFFFFFFFFFFFFFFFFFFFFFFFFFFFFFFFFFFFFFFFFFFFFFFFFFFFFFFFFFFFFFFFFFFFFFFFFFFFFFFFFFFFFFFFFFFFFFFFFF003021300906052B0E03021A05000414A504AD2C190482763F04BE8646284DDDADEF8D14
MSG 0 47396.255 $PGRMB,0.0,200,,,,K,,N,N*31
MSG 0 47396.315 $PGRMM,WGS 84*06
MSG 0 47396.639 $GPRMC,171117,A,4305.8370,N,07038.8838,W,000.7,113.7,030712,016.1,W*7D
POS 0 47477.000 365879.935 4772936.142
QUA 0 47477.000 7 9.100 0.900 10.000 1.000 0.000 0.000 0.000
RAW 0 47477.000 4 430583.70000 -703888.38000 -24.60000 171117.00000
MSG 0 47396.789 $GPGGA,171117,4305.8370,N,07038.8838,W,1,10,0.9,7.8,M,-32.4,M,,*76
MSG 0 47396.931 $GPGSA,A,3,,06,10,13,16,20,21,23,,30,31,32,1.3,0.9,1.0*3A
MSG 0 47397.054 $GPGSV,3,3,12,29,00,030,00,30,54,051,48,31,24,103,47,32,03,211,44*7D
MSG 0 47397.199 $PGRME,5.2,M,6.0,M,7.9,M*21
MSG 0 47397.260 $PGRMB,0.0,200,,,,K,,N,N*31
MSG 0 47397.320 $PGRMM,WGS 84*06
MSG 0 47397.639 $GPRMC,171118,A,4305.8371,N,07038.8838,W,000.1,113.7,030712,016.1,W*75
POS 0 47478.000 365879.939 4772936.327
QUA 0 47478.000 7 9.200 0.800 10.000 1.000 0.000 0.000 0.000
RAW 0 47478.000 4 430583.71000 -703888.38000 -24.50000 171118.00000
MSG 0 47397.789 $GPGGA,171118,4305.8371,N,07038.8838,W,1,10,0.8,7.9,M,-32.4,M,,*78
MSG 0 47397.931 $GPGSA,A,3,,06,10,13,16,20,21,23,,30,31,32,1.2,0.8,0.9*32
MSG 0 47398.054 $GPGSV,3,1,12,03,45,175,32,06,54,150,50,10,07,318,36,13,37,311,44*72
MSG 0 47398.199 $PGRME,5.2,M,6.0,M,7.9,M*21
FIX 99 47398.400 102 365879.939 4772936.327
MSG 0 47398.260 $PGRMB,0.0,200,,,,K,,N,N*31
MSG 0 47398.320 $PGRMM,WGS 84*06
MSG 0 47398.633 $GPRMC,171119,A,4305.8371,N,07038.8838,W,000.0,113.7,030712,016.1,W*75
POS 0 47479.000 365879.939 4772936.327
QUA 0 47479.000 7 9.200 0.800 10.000 1.000 0.000 0.000 0.000
RAW 0 47479.000 4 430583.71000 -703888.38000 -24.50000 171119.00000
MSG 0 47398.783 $GPGGA,171119,4305.8371,N,07038.8838,W,1,10,0.8,7.9,M,-32.4,M,,*79
MSG 0 47398.925 $GPGSA,A,3,,06,10,13,16,20,21,23,,30,31,32,1.2,0.8,0.9*32
MSG 0 47399.048 $GPGSV,3,2,12,16,80,000,49,20,05,234,40,21,07,073,43,23,61,269,50*76
MSG 0 47399.193 $PGRME,5.2,M,6.0,M,7.9,M*21
MSG 0 47399.254 $PGRMB,0.0,200,,,,K,,N,N*31
MSG 0 47399.314 $PGRMM,WGS 84*06
MSG 0 47399.647 $GPRMC,171120,A,4305.8370,N,07038.8836,W,000.6,124.6,030712,016.1,W*73
POS 0 47480.000 365880.206 4772936.137
QUA 0 47480.000 7 9.200 0.800 10.000 1.000 0.000 0.000 0.000
RAW 0 47480.000 4 430583.70000 -703888.36000 -24.50000 171120.00000
MSG 0 47399.797 $GPGGA,171120,4305.8370,N,07038.8836,W,1,10,0.8,7.9,M,-32.4,M,,*7C
MSG 0 47399.938 $GPGSA,A,3,,06,10,13,16,20,21,23,,30,31,32,1.2,0.8,0.9*32
MSG 0 47400.061 $GPGSV,3,3,12,29,00,030,00,30,54,051,49,31,24,103,46,32,03,211,44*7D
MSG 0 47400.207 $PGRME,5.2,M,6.0,M,7.9,M*21
MSG 0 47400.267 $PGRMB,0.0,200,,,,K,,N,N*31
MSG 0 47400.328 $PGRMM,WGS 84*06
MSG 0 47400.639 $GPRMC,171121,A,4305.8368,N,07038.8835,W,000.3,125.3,030712,016.1,W*79
POS 0 47481.000 365880.335 4772935.764
QUA 0 47481.000 7 9.200 0.800 10.000 1.000 0.000 0.000 0.000
RAW 0 47481.000 4 430583.68000 -703888.35000 -24.40000 171121.00000
MSG 0 47400.789 $GPGGA,171121,4305.8368,N,07038.8835,W,1,10,0.8,8.0,M,-32.4,M,,*71
MSG 0 47400.930 $GPGSA,A,3,,06,10,13,16,20,21,23,,30,31,32,1.2,0.8,0.9*32
MSG 0 47401.053 $GPGSV,3,1,12,03,45,175,32,06,54,150,50,10,07,318,37,13,37,311,44*73
MSG 0 47401.199 $PGRME,5.2,M,6.0,M,7.9,M*21
MSG 0 47401.259 $PGRMB,0.0,200,,,,K,,N,N*31
MSG 0 47401.320 $PGRMM,WGS 84*06
MSG 0 47401.654 $GPRMC,171122,A,4305.8368,N,07038.8835,W,000.1,125.3,030712,016.1,W*78
POS 0 47482.000 365880.335 4772935.764
QUA 0 47482.000 7 9.200 0.800 10.000 1.000 0.000 0.000 0.000
RAW 0 47482.000 4 430583.68000 -703888.35000 -24.40000 171122.00000
MSG 0 47401.804 $GPGGA,171122,4305.8368,N,07038.8835,W,1,10,0.8,8.0,M,-32.4,M,,*72
MSG 0 47401.946 $GPGSA,A,3,,06,10,13,16,20,21,23,,30,31,32,1.2,0.8,0.9*32
MSG 0 47402.068 $GPGSV,3,2,12,16,80,000,49,20,05,234,40,21,07,073,42,23,61,269,50*77
MSG 0 47402.214 $PGRME,5.2,M,6.0,M,7.9,M*21
MSG 0 47402.275 $PGRMB,0.0,200,,,,K,,N,N*31
MSG 0 47402.335 $PGRMM,WGS 84*06
MSG 0 47402.648 $GPRMC,171123,A,4305.8368,N,07038.8835,W,000.0,125.3,030712,016.1,W*78
POS 0 47483.000 365880.335 4772935.764
QUA 0 47483.000 7 9.200 0.800 10.000 1.000 0.000 0.000 0.000
RAW 0 47483.000 4 430583.68000 -703888.35000 -24.30000 171123.00000
MSG 0 47402.798 $GPGGA,171123,4305.8368,N,07038.8835,W,1,10,0.8,8.1,M,-32.4,M,,*72
MSG 0 47402.940 $GPGSA,A,3,,06,10,13,16,20,21,23,,30,31,32,1.2,0.8,0.9*32
MSG 0 47403.063 $GPGSV,3,3,12,29,00,030,00,30,54,051,49,31,24,103,47,32,03,211,44*7C
MSG 0 47403.209 $PGRME,5.2,M,6.0,M,7.9,M*21
MSG 0 47403.269 $PGRMB,0.0,200,,,,K,,N,N*31
MSG 0 47403.329 $PGRMM,WGS 84*06
MSG 0 47403.650 $GPRMC,171124,A,4305.8368,N,07038.8835,W,000.2,106.1,030712,016.1,W*7E
POS 0 47484.000 365880.335 4772935.764
QUA 0 47484.000 7 9.200 0.800 10.000 1.000 0.000 0.000 0.000
RAW 0 47484.000 4 430583.68000 -703888.35000 -24.50000 171124.00000
MSG 0 47403.799 $GPGGA,171124,4305.8368,N,07038.8835,W,1,10,0.8,7.9,M,-32.4,M,,*72
MSG 0 47403.941 $GPGSA,A,3,,06,10,13,16,20,21,23,,30,31,32,1.2,0.8,0.9*32
MSG 0 47404.064 $GPGSV,3,1,12,03,45,175,00,06,54,150,50,10,07,318,37,13,37,311,43*75
MSG 0 47404.210 $PGRME,5.2,M,6.0,M,7.9,M*21
MSG 0 47404.270 $PGRMB,0.0,200,,,,K,,N,N*31
MSG 0 47404.330 $PGRMM,WGS 84*06
MSG 0 47404.640 $GPRMC,171125,A,4305.8367,N,07038.8833,W,000.3,111.2,030712,016.1,W*72
POS 0 47485.000 365880.602 4772935.573
QUA 0 47485.000 7 9.200 0.800 10.000 1.000 0.000 0.000 0.000
RAW 0 47485.000 4 430583.67000 -703888.33000 -24.80000 171125.00000
MSG 0 47404.789 $GPGGA,171125,4305.8367,N,07038.8833,W,1,10,0.8,7.6,M,-32.4,M,,*75
MSG 0 47404.931 $GPGSA,A,3,,06,10,13,16,20,21,23,,30,31,32,1.2,0.8,0.9*32
MSG 0 47405.054 $GPGSV,3,2,12,16,80,000,49,20,05,234,39,21,07,073,42,23,61,269,50*79
MSG 0 47405.200 $PGRME,5.2,M,6.0,M,7.9,M*21
MSG 0 47405.260 $PGRMB,0.0,200,,,,K,,N,N*31
MSG 0 47405.320 $PGRMM,WGS 84*06
MSG 0 47405.645 $GPRMC,171126,A,4305.8367,N,07038.8834,W,000.0,111.2,030712,016.1,W*75
POS 0 47486.000 365880.467 4772935.576
QUA 0 47486.000 7 9.200 0.800 10.000 1.000 0.000 0.000 0.000
RAW 0 47486.000 4 430583.67000 -703888.34000 -24.60000 171126.00000
MSG 0 47405.795 $GPGGA,171126,4305.8367,N,07038.8834,W,1,10,0.8,7.8,M,-32.4,M,,*7F
MSG 0 47405.936 $GPGSA,A,3,,06,10,13,16,20,21,23,,30,31,32,1.2,0.8,0.9*32
MSG 0 47406.059 $GPGSV,3,3,12,29,00,030,00,30,54,051,49,31,24,103,47,32,03,211,45*7D
MSG 0 47406.205 $PGRME,5.2,M,6.0,M,7.9,M*21
MSG 0 47406.265 $PGRMB,0.0,200,,,,K,,N,N*31
MSG 0 47406.326 $PGRMM,WGS 84*06
MSG 0 47406.645 $GPRMC,171127,A,4305.8367,N,07038.8833,W,000.4,110.4,030712,016.1,W*70
POS 0 47487.000 365880.602 4772935.573
QUA 0 47487.000 7 9.200 0.800 10.000 1.000 0.000 0.000 0.000
RAW 0 47487.000 4 430583.67000 -703888.33000 -24.60000 171127.00000
MSG 0 47406.795 $GPGGA,171127,4305.8367,N,07038.8833,W,1,10,0.8,7.8,M,-32.4,M,,*79
MSG 0 47406.936 $GPGSA,A,3,,06,10,13,16,20,21,23,,30,31,32,1.2,0.8,0.9*32
MSG 0 47407.059 $GPGSV,3,1,12,03,45,175,00,06,54,150,50,10,07,318,38,13,37,311,44*7D
MSG 0 47407.205 $PGRME,5.2,M,6.0,M,7.9,M*21
MSG 0 47407.265 $PGRMB,0.0,200,,,,K,,N,N*31
MSG 0 47407.325 $PGRMM,WGS 84*06
MSG 0 47407.652 $GPRMC,171128,A,4305.8364,N,07038.8828,W,000.7,124.1,030712,016.1,W*77
POS 0 47488.000 365881.270 4772935.005
QUA 0 47488.000 7 9.200 0.800 10.000 1.000 0.000 0.000 0.000
RAW 0 47488.000 4 430583.64000 -703888.28000 -24.80000 171128.00000
MSG 0 47407.802 $GPGGA,171128,4305.8364,N,07038.8828,W,1,10,0.8,7.6,M,-32.4,M,,*71
MSG 0 47407.943 $GPGSA,A,3,,06,10,13,16,20,21,23,,30,31,32,1.2,0.8,0.9*32
MSG 0 47408.066 $GPGSV,3,2,12,16,80,000,49,20,05,234,40,21,07,073,41,23,61,269,50*74
MSG 0 47408.212 $PGRME,5.2,M,6.0,M,7.9,M*21
MSG 0 47408.272 $PGRMB,0.0,200,,,,K,,N,N*31
MSG 0 47408.333 $PGRMM,WGS 84*06
MSG 0 47408.641 $GPRMC,171129,A,4305.8366,N,07038.8831,W,000.0,124.1,030712,016.1,W*7B
POS 0 47489.000 365880.870 4772935.383
QUA 0 47489.000 7 9.200 0.800 10.000 1.000 0.000 0.000 0.000
RAW 0 47489.000 4 430583.66000 -703888.31000 -24.30000 171129.00000
MSG 0 47408.791 $GPGGA,171129,4305.8366,N,07038.8831,W,1,10,0.8,8.1,M,-32.4,M,,*72
MSG 0 47408.933 $GPGSA,A,3,,06,10,13,16,20,21,23,,30,31,32,1.2,0.8,0.9*32
MSG 0 47409.056 $GPGSV,3,3,12,29,00,030,00,30,54,051,49,31,24,103,48,32,03,211,44*73
MSG 0 47409.201 $PGRME,5.2,M,6.0,M,7.9,M*21
MSG 0 47409.262 $PGRMB,0.0,200,,,,K,,N,N*31
MSG 0 47409.322 $PGRMM,WGS 84*06
MSG 0 47409.630 $GPRMC,171130,A,4305.8366,N,07038.8831,W,000.0,124.1,030712,016.1,W*73
POS 0 47490.000 365880.870 4772935.383
QUA 0 47490.000 7 9.200 0.800 10.000 1.000 0.000 0.000 0.000
RAW 0 47490.000 4 430583.66000 -703888.31000 -24.40000 171130.00000
MSG 0 47409.780 $GPGGA,171130,4305.8366,N,07038.8831,W,1,10,0.8,8.0,M,-32.4,M,,*7B
MSG 0 47409.922 $GPGSA,A,3,,06,10,13,16,20,21,23,,30,31,32,1.2,0.8,0.9*32
MSG 0 47410.045 $GPGSV,3,1,12,03,45,175,33,06,54,150,49,10,07,318,39,13,37,311,44*74
MSG 0 47410.190 $PGRME,5.2,M,6.0,M,7.9,M*21
MSG 0 47410.251 $PGRMB,0.0,200,,,,K,,N,N*31
MSG 0 47410.311 $PGRMM,WGS 84*06
MSG 0 47410.641 $GPRMC,171131,A,4305.8365,N,07038.8829,W,000.6,124.3,030712,016.1,W*7C
POS 0 47491.000 365881.138 4772935.193
QUA 0 47491.000 7 9.200 0.800 10.000 1.000 0.000 0.000 0.000
RAW 0 47491.000 4 430583.65000 -703888.29000 -24.80000 171131.00000
MSG 0 47410.791 $GPGGA,171131,4305.8365,N,07038.8829,W,1,10,0.8,7.6,M,-32.4,M,,*79
MSG 0 47410.932 $GPGSA,A,3,,06,10,13,16,20,21,23,,30,31,32,1.2,0.8,0.9*32
MSG 0 47411.055 $GPGSV,3,2,12,16,80,000,50,20,05,234,40,21,07,073,42,23,61,269,50*7F
MSG 0 47411.201 $PGRME,5.2,M,6.0,M,7.9,M*21
MSG 0 47411.261 $PGRMB,0.0,200,,,,K,,N,N*31
MSG 0 47411.322 $PGRMM,WGS 84*06
MSG 0 47411.655 $GPRMC,171132,A,4305.8364,N,07038.8828,W,000.1,124.3,030712,016.1,W*78
POS 0 47492.000 365881.270 4772935.005
QUA 0 47492.000 7 9.200 0.800 10.000 1.000 0.000 0.000 0.000
RAW 0 47492.000 4 430583.64000 -703888.28000 -24.70000 171132.00000
MSG 0 47411.805 $GPGGA,171132,4305.8364,N,07038.8828,W,1,10,0.8,7.7,M,-32.4,M,,*7B
MSG 0 47411.947 $GPGSA,A,3,,06,10,13,16,20,21,23,,30,31,32,1.2,0.8,0.9*32
MSG 0 47412.070 $GPGSV,3,3,12,29,00,030,00,30,54,051,50,31,24,103,47,32,03,211,44*74
MSG 0 47412.215 $PGRME,5.2,M,6.0,M,7.9,M*21
MSG 0 47412.276 $PGRMB,0.0,200,,,,K,,N,N*31
MSG 0 47412.336 $PGRMM,WGS 84*06
MSG 0 47412.644 $GPRMC,171133,A,4305.8365,N,07038.8830,W,000.3,306.3,030712,016.1,W*71
POS 0 47493.000 365881.002 4772935.195
QUA 0 47493.000 7 9.200 0.800 10.000 1.000 0.000 0.000 0.000
RAW 0 47493.000 4 430583.65000 -703888.30000 -24.40000 171133.00000
MSG 0 47412.794 $GPGGA,171133,4305.8365,N,07038.8830,W,1,10,0.8,8.0,M,-32.4,M,,*7A
MSG 0 47412.935 $GPGSA,A,3,,06,10,13,16,20,21,23,,30,31,32,1.2,0.8,0.9*32
MSG 0 47413.058 $GPGSV,3,1,12,03,45,175,33,06,54,150,48,10,07,318,38,13,37,311,45*75
MSG 0 47413.204 $PGRME,5.2,M,6.0,M,7.9,M*21
MSG 0 47413.264 $PGRMB,0.0,200,,,,K,,N,N*31
MSG 0 47413.325 $PGRMM,WGS 84*06
MSG 0 47413.639 $GPRMC,171134,A,4305.8363,N,07038.8826,W,000.5,124.9,030712,016.1,W*79
POS 0 47494.000 365881.537 4772934.814
QUA 0 47494.000 7 9.200 0.800 10.000 1.000 0.000 0.000 0.000
RAW 0 47494.000 4 430583.63000 -703888.26000 -24.70000 171134.00000
MSG 0 47413.788 $GPGGA,171134,4305.8363,N,07038.8826,W,1,10,0.8,7.7,M,-32.4,M,,*74
MSG 0 47413.930 $GPGSA,A,3,,06,10,13,16,20,21,23,,30,31,32,1.2,0.8,0.9*32
MSG 0 47414.053 $GPGSV,3,2,12,16,80,000,49,20,05,234,40,21,07,073,42,23,61,269,50*77
MSG 0 47414.199 $PGRME,5.2,M,6.0,M,7.9,M*21
MSG 0 47414.259 $PGRMT,GPS 17-HVS Ver. 2.80,P,P,R,R,P,,41,R*0E
MSG 0 47414.359 $PGRMB,0.0,200,,,,K,,N,N*31
MSG 0 47414.419 $PGRMM,WGS 84*06
MSG 0 47414.638 $GPRMC,171135,A,4305.8362,N,07038.8825,W,000.5,119.7,030712,016.1,W*7A
POS 0 47495.000 365881.669 4772934.627
QUA 0 47495.000 7 9.200 0.800 10.000 1.000 0.000 0.000 0.000
RAW 0 47495.000 4 430583.62000 -703888.25000 -24.80000 171135.00000
MSG 0 47414.787 $GPGGA,171135,4305.8362,N,07038.8825,W,1,10,0.8,7.6,M,-32.4,M,,*76
MSG 0 47414.929 $GPGSA,A,3,,06,10,13,16,20,21,23,,30,31,32,1.2,0.8,0.9*32
MSG 0 47415.052 $GPGSV,3,3,12,29,00,029,00,30,54,051,50,31,24,103,47,32,03,211,44*7C
MSG 0 47415.198 $PGRME,5.2,M,6.0,M,7.9,M*21
MSG 0 47415.258 $PGRMB,0.0,200,,,,K,,N,N*31
MSG 0 47415.318 $PGRMM,WGS 84*06
MSG 0 47415.639 $GPRMC,171136,A,4305.8364,N,07038.8828,W,000.2,319.0,030712,016.1,W*70
POS 0 47496.000 365881.270 4772935.005
QUA 0 47496.000 7 9.200 0.800 10.000 1.000 0.000 0.000 0.000
RAW 0 47496.000 4 430583.64000 -703888.28000 -24.60000 171136.00000
MSG 0 47415.789 $GPGGA,171136,4305.8364,N,07038.8828,W,1,10,0.8,7.8,M,-32.4,M,,*70
MSG 0 47415.931 $GPGSA,A,3,,06,10,13,16,20,21,23,,30,31,32,1.3,0.8,0.9*33
MSG 0 47416.054 $GPGSV,3,1,12,03,45,175,33,06,54,150,48,10,07,318,37,13,37,311,46*79
MSG 0 47416.200 $PGRME,5.4,M,6.0,M,8.0,M*21
MSG 0 47416.260 $PGRMB,0.0,200,,,,K,,N,N*31
MSG 0 47416.320 $PGRMM,WGS 84*06
MSG 0 47416.655 $GPRMC,171137,A,4305.8362,N,07038.8824,W,000.4,111.6,030712,016.1,W*71
POS 0 47497.000 365881.805 4772934.624
QUA 0 47497.000 7 9.200 0.800 10.000 1.000 0.000 0.000 0.000
RAW 0 47497.000 4 430583.62000 -703888.24000 -24.60000 171137.00000
MSG 0 47416.805 $GPGGA,171137,4305.8362,N,07038.8824,W,1,10,0.8,7.8,M,-32.4,M,,*7B
MSG 0 47416.947 $GPGSA,A,3,,06,10,13,16,20,21,23,,30,31,32,1.3,0.8,0.9*33
MSG 0 47417.070 $GPGSV,3,2,12,16,80,000,50,20,05,234,41,21,07,073,42,23,61,269,50*7E
MSG 0 47417.216 $PGRME,5.2,M,6.0,M,7.9,M*21
MSG 0 47417.276 $PGRMB,0.0,200,,,,K,,N,N*31
MSG 0 47417.336 $PGRMM,WGS 84*06
MSG 0 47417.638 $GPRMC,171138,A,4305.8360,N,07038.8821,W,000.6,113.1,030712,016.1,W*7E
POS 0 47498.000 365882.204 4772934.246
QUA 0 47498.000 7 9.200 0.800 10.000 1.000 0.000 0.000 0.000
RAW 0 47498.000 4 430583.60000 -703888.21000 -24.60000 171138.00000
MSG 0 47417.788 $GPGGA,171138,4305.8360,N,07038.8821,W,1,10,0.8,7.8,M,-32.4,M,,*73
MSG 0 47417.929 $GPGSA,A,3,,06,10,13,16,20,21,23,,30,31,32,1.3,0.8,0.9*33
MSG 0 47418.052 $GPGSV,3,3,12,29,00,029,00,30,54,052,50,31,24,103,48,32,03,211,44*70
MSG 0 47418.198 $PGRME,5.2,M,6.0,M,7.9,M*21
MSG 0 47418.258 $PGRMB,0.0,200,,,,K,,N,N*31
MSG 0 47418.319 $PGRMM,WGS 84*06
MSG 0 47418.633 $GPRMC,171139,A,4305.8361,N,07038.8823,W,000.0,113.1,030712,016.1,W*7A
POS 0 47499.000 365881.937 4772934.436
QUA 0 47499.000 7 9.200 0.800 10.000 1.000 0.000 0.000 0.000
RAW 0 47499.000 4 430583.61000 -703888.23000 -24.50000 171139.00000
MSG 0 47418.783 $GPGGA,171139,4305.8361,N,07038.8823,W,1,10,0.8,7.9,M,-32.4,M,,*70
MSG 0 47418.924 $GPGSA,A,3,,06,10,13,16,20,21,23,,30,31,32,1.3,0.8,0.9*33
MSG 0 47419.047 $GPGSV,3,1,12,03,45,175,33,06,54,150,48,10,07,318,39,13,37,311,46*77
MSG 0 47419.193 $PGRME,5.4,M,6.0,M,8.0,M*21
MSG 0 47419.253 $PGRMB,0.0,200,,,,K,,N,N*31
MSG 0 47419.314 $PGRMM,WGS 84*06
MSG 0 47419.633 $GPRMC,171140,A,4305.8361,N,07038.8823,W,000.0,113.1,030712,016.1,W*74
POS 0 47500.000 365881.937 4772934.436
QUA 0 47500.000 7 9.200 0.800 10.000 1.000 0.000 0.000 0.000
RAW 0 47500.000 4 430583.61000 -703888.23000 -24.50000 171140.00000
MSG 0 47419.783 $GPGGA,171140,4305.8361,N,07038.8823,W,1,10,0.8,7.9,M,-32.4,M,,*7E
MSG 0 47419.925 $GPGSA,A,3,,06,10,13,16,20,21,23,,30,31,32,1.3,0.8,0.9*33
MSG 0 47420.048 $GPGSV,3,2,12,16,80,000,49,20,05,234,41,21,07,073,41,23,61,269,50*75
MSG 0 47420.193 $PGRME,5.2,M,6.0,M,7.9,M*21
MSG 0 47420.254 $PGRMB,0.0,200,,,,K,,N,N*31
MSG 0 47420.314 $PGRMM,WGS 84*06
MSG 0 47420.649 $GPRMC,171141,A,4305.8361,N,07038.8823,W,000.1,113.1,030712,016.1,W*74
POS 0 47501.000 365881.937 4772934.436
QUA 0 47501.000 7 9.200 0.800 10.000 1.000 0.000 0.000 0.000
RAW 0 47501.000 4 430583.61000 -703888.23000 -24.50000 171141.00000
MSG 0 47420.799 $GPGGA,171141,4305.8361,N,07038.8823,W,1,10,0.8,7.9,M,-32.4,M,,*7F
MSG 0 47420.941 $GPGSA,A,3,,06,10,13,16,20,21,23,,30,31,32,1.3,0.8,0.9*33
MSG 0 47421.063 $GPGSV,3,3,12,29,00,029,00,30,54,052,50,31,24,103,49,32,03,211,44*71
MSG 0 47421.209 $PGRME,5.4,M,6.0,M,8.0,M*21
MSG 0 47421.270 $PGRMB,0.0,200,,,,K,,N,N*31
MSG 0 47421.330 $PGRMM,WGS 84*06
MSG 0 47421.639 $GPRMC,171142,A,4305.8360,N,07038.8821,W,000.3,117.8,030712,016.1,W*7B
POS 0 47502.000 365882.204 4772934.246
QUA 0 47502.000 7 9.200 0.800 10.000 1.000 0.000 0.000 0.000
RAW 0 47502.000 4 430583.60000 -703888.21000 -24.80000 171142.00000
MSG 0 47421.789 $GPGGA,171142,4305.8360,N,07038.8821,W,1,10,0.8,7.6,M,-32.4,M,,*70
MSG 0 47421.930 $GPGSA,A,3,,06,10,13,16,20,21,23,,30,31,32,1.3,0.8,0.9*33
MSG 0 47422.053 $GPGSV,3,1,12,03,45,175,31,06,54,150,48,10,07,318,40,13,37,311,45*78
MSG 0 47422.199 $PGRME,5.2,M,6.0,M,7.9,M*21
MSG 0 47422.259 $PGRMB,0.0,200,,,,K,,N,N*31
MSG 0 47422.320 $PGRMM,WGS 84*06
MSG 0 47422.651 $GPRMC,171143,A,4305.8359,N,07038.8821,W,000.2,124.2,030712,016.1,W*7B
POS 0 47503.000 365882.201 4772934.061
QUA 0 47503.000 7 9.200 0.800 10.000 1.000 0.000 0.000 0.000
RAW 0 47503.000 4 430583.59000 -703888.21000 -24.90000 171143.00000
MSG 0 47422.801 $GPGGA,171143,4305.8359,N,07038.8821,W,1,10,0.8,7.5,M,-32.4,M,,*78
MSG 0 47422.943 $GPGSA,A,3,,06,10,13,16,20,21,23,,30,31,32,1.2,0.8,0.9*32
MSG 0 47423.066 $GPGSV,3,2,12,16,80,000,49,20,05,234,41,21,07,073,43,23,61,269,50*77
MSG 0 47423.212 $PGRME,5.2,M,6.0,M,7.9,M*21
MSG 0 47423.272 $PGRMB,0.0,200,,,,K,,N,N*31
MSG 0 47423.332 $PGRMM,WGS 84*06
MSG 0 47423.639 $GPRMC,171144,A,4305.8360,N,07038.8820,W,000.2,063.4,030712,016.1,W*73
POS 0 47504.000 365882.340 4772934.243
QUA 0 47504.000 7 9.200 0.800 10.000 1.000 0.000 0.000 0.000
RAW 0 47504.000 4 430583.60000 -703888.20000 -24.60000 171144.00000
MSG 0 47423.789 $GPGGA,171144,4305.8360,N,07038.8820,W,1,10,0.8,7.8,M,-32.4,M,,*79
MSG 0 47423.930 $GPGSA,A,3,,06,10,13,16,20,21,23,,30,31,32,1.2,0.8,0.9*32
MSG 0 47424.053 $GPGSV,3,3,12,29,00,029,00,30,54,052,50,31,23,103,48,32,03,211,43*70
MSG 0 47424.199 $PGRME,5.2,M,6.0,M,7.9,M*21
MSG 0 47424.259 $PGRMB,0.0,200,,,,K,,N,N*31
MSG 0 47424.319 $PGRMM,WGS 84*06
MSG 0 47424.638 $GPRMC,171145,A,4305.8359,N,07038.8817,W,000.5,107.2,030712,016.1,W*7E
POS 0 47505.000 365882.743 4772934.050
QUA 0 47505.000 7 9.200 0.800 10.000 1.000 0.000 0.000 0.000
RAW 0 47505.000 4 430583.59000 -703888.17000 -24.70000 171145.00000
MSG 0 47424.788 $GPGGA,171145,4305.8359,N,07038.8817,W,1,10,0.8,7.7,M,-32.4,M,,*79
MSG 0 47424.929 $GPGSA,A,3,,06,10,13,16,20,21,23,,30,31,32,1.3,0.8,0.9*33
MSG 0 47425.052 $GPGSV,3,1,12,03,45,175,33,06,54,150,49,10,07,318,39,13,37,311,45*75
MSG 0 47425.198 $PGRME,5.2,M,6.0,M,7.9,M*21
MSG 0 47425.258 $PGRMB,0.0,200,,,,K,,N,N*31
MSG 0 47425.318 $PGRMM,WGS 84*06
MSG 0 47425.639 $GPRMC,171146,A,4305.8357,N,07038.8815,W,000.5,124.7,030712,016.1,W*75
POS 0 47506.000 365883.007 4772933.675
QUA 0 47506.000 7 9.200 0.800 10.000 1.000 0.000 0.000 0.000
RAW 0 47506.000 4 430583.57000 -703888.15000 -24.70000 171146.00000
MSG 0 47425.789 $GPGGA,171146,4305.8357,N,07038.8815,W,1,10,0.8,7.7,M,-32.4,M,,*76
MSG 0 47425.931 $GPGSA,A,3,,06,10,13,16,20,21,23,,30,31,32,1.2,0.8,0.9*32
MSG 0 47426.054 $GPGSV,3,2,12,16,80,000,49,20,05,234,41,21,07,073,43,23,61,269,50*77
MSG 0 47426.200 $PGRME,5.2,M,6.0,M,7.9,M*21
MSG 0 47426.260 $PGRMB,0.0,200,,,,K,,N,N*31
MSG 0 47426.320 $PGRMM,WGS 84*06
MSG 0 47426.639 $GPRMC,171147,A,4305.8360,N,07038.8818,W,000.3,334.1,030712,016.1,W*7E
POS 0 47507.000 365882.611 4772934.238
QUA 0 47507.000 7 9.200 0.800 10.000 1.000 0.000 0.000 0.000
RAW 0 47507.000 4 430583.60000 -703888.18000 -24.20000 171147.00000
MSG 0 47426.789 $GPGGA,171147,4305.8360,N,07038.8818,W,1,10,0.8,8.2,M,-32.4,M,,*74
MSG 0 47426.931 $GPGSA,A,3,,06,10,13,16,20,21,23,,30,31,32,1.2,0.8,0.9*32
MSG 0 47427.053 $GPGSV,3,3,12,29,00,029,00,30,54,052,50,31,23,103,48,32,02,211,43*71
MSG 0 47427.199 $PGRME,5.2,M,6.0,M,7.9,M*21
MSG 0 47427.260 $PGRMB,0.0,200,,,,K,,N,N*31
MSG 0 47427.320 $PGRMM,WGS 84*06
MSG 0 47427.647 $GPRMC,171148,A,4305.8359,N,07038.8817,W,000.0,334.1,030712,016.1,W*77
POS 0 47508.000 365882.743 4772934.050
QUA 0 47508.000 7 9.200 0.800 10.000 1.000 0.000 0.000 0.000
RAW 0 47508.000 4 430583.59000 -703888.17000 -24.60000 171148.00000
MSG 0 47427.797 $GPGGA,171148,4305.8359,N,07038.8817,W,1,10,0.8,7.8,M,-32.4,M,,*7B
MSG 0 47427.939 $GPGSA,A,3,,06,10,13,16,20,21,23,,30,31,32,1.3,0.8,0.9*33
MSG 0 47428.061 $GPGSV,3,1,12,03,45,175,33,06,54,150,49,10,07,318,40,13,37,311,46*78
MSG 0 47428.207 $PGRME,5.2,M,6.0,M,7.9,M*21
MSG 0 47428.268 $PGRMB,0.0,200,,,,K,,N,N*31
MSG 0 47428.328 $PGRMM,WGS 84*06
MSG 0 47428.649 $GPRMC,171149,A,4305.8358,N,07038.8816,W,000.6,132.7,030712,016.1,W*72
POS 0 47509.000 365882.875 4772933.862
QUA 0 47509.000 7 9.200 0.800 10.000 1.000 0.000 0.000 0.000
RAW 0 47509.000 4 430583.58000 -703888.16000 -25.00000 171149.00000
MSG 0 47428.799 $GPGGA,171149,4305.8358,N,07038.8816,W,1,10,0.8,7.4,M,-32.4,M,,*76
MSG 0 47428.941 $GPGSA,A,3,,06,10,13,16,20,21,23,,30,31,32,1.2,0.8,0.9*32
MSG 0 47429.063 $GPGSV,3,2,12,16,80,000,49,20,05,234,41,21,07,073,43,23,61,269,50*77
MSG 0 47429.209 $PGRME,5.2,M,6.0,M,7.9,M*21
MSG 0 47429.270 $PGRMB,0.0,200,,,,K,,N,N*31
MSG 0 47429.330 $PGRMM,WGS 84*06
MSG 0 47429.647 $GPRMC,171150,A,4305.8359,N,07038.8816,W,000.2,350.9,030712,016.1,W*77
POS 0 47510.000 365882.879 4772934.047
QUA 0 47510.000 7 9.200 0.800 10.000 1.000 0.000 0.000 0.000
RAW 0 47510.000 4 430583.59000 -703888.16000 -24.80000 171150.00000
MSG 0 47429.797 $GPGGA,171150,4305.8359,N,07038.8816,W,1,10,0.8,7.6,M,-32.4,M,,*7D
MSG 0 47429.939 $GPGSA,A,3,,06,10,13,16,20,21,23,,30,31,32,1.2,0.8,0.9*32
MSG 0 47430.062 $GPGSV,3,3,12,29,00,029,00,30,54,052,50,31,23,103,48,32,02,211,43*71
MSG 0 47430.207 $PGRME,5.2,M,6.0,M,7.9,M*21
MSG 0 47430.268 $PGRMB,0.0,200,,,,K,,N,N*31
MSG 0 47430.328 $PGRMM,WGS 84*06
MSG 0 47430.647 $GPRMC,171151,A,4305.8359,N,07038.8816,W,000.0,350.9,030712,016.1,W*74
POS 0 47511.000 365882.879 4772934.047
QUA 0 47511.000 7 9.200 0.800 10.000 1.000 0.000 0.000 0.000
RAW 0 47511.000 4 430583.59000 -703888.16000 -24.90000 171151.00000
MSG 0 47430.797 $GPGGA,171151,4305.8359,N,07038.8816,W,1,10,0.8,7.5,M,-32.4,M,,*7F
MSG 0 47430.938 $GPGSA,A,3,,06,10,13,16,20,21,23,,30,31,32,1.3,0.8,0.9*33
MSG 0 47431.061 $GPGSV,3,1,12,03,45,175,33,06,54,150,50,10,07,318,40,13,37,311,45*73
MSG 0 47431.207 $PGRME,5.2,M,6.0,M,7.9,M*21
MSG 0 47431.267 $PGRMB,0.0,200,,,,K,,N,N*31
MSG 0 47431.328 $PGRMM,WGS 84*06
MSG 0 47431.638 $GPRMC,171152,A,4305.8357,N,07038.8814,W,000.8,122.2,030712,016.1,W*7F
POS 0 47512.000 365883.143 4772933.672
QUA 0 47512.000 7 9.200 0.800 10.000 1.000 0.000 0.000 0.000
RAW 0 47512.000 4 430583.57000 -703888.14000 -24.90000 171152.00000
MSG 0 47431.788 $GPGGA,171152,4305.8357,N,07038.8814,W,1,10,0.8,7.5,M,-32.4,M,,*70
MSG 0 47431.930 $GPGSA,A,3,,06,10,13,16,20,21,23,,30,31,32,1.3,0.8,0.9*33
MSG 0 47432.053 $GPGSV,3,2,12,16,80,000,50,20,05,234,40,21,07,073,43,23,61,269,50*7E
MSG 0 47432.199 $PGRME,5.2,M,6.0,M,7.9,M*21
MSG 0 47432.259 $PGRMB,0.0,200,,,,K,,N,N*31
MSG 0 47432.319 $PGRMM,WGS 84*06
MSG 0 47432.671 $GPRMC,171153,A,4305.8355,N,07038.8813,W,000.1,122.2,030712,016.1,W*72
POS 0 47513.000 365883.271 4772933.299
QUA 0 47513.000 7 9.200 0.800 10.000 1.000 0.000 0.000 0.000
RAW 0 47513.000 4 430583.55000 -703888.13000 -24.60000 171153.00000
MSG 0 47432.821 $GPGGA,171153,4305.8355,N,07038.8813,W,1,10,0.8,7.8,M,-32.4,M,,*79
MSG 0 47432.963 $GPGSA,A,3,,06,10,13,16,20,21,23,,30,31,32,1.3,0.8,0.9*33
MSG 0 47433.086 $GPGSV,3,3,12,29,00,029,00,30,54,052,50,31,23,103,48,32,02,211,43*71
MSG 0 47433.231 $PGRME,5.2,M,6.0,M,7.9,M*21
MSG 0 47433.292 $PGRMB,0.0,200,,,,K,,N,N*31
MSG 0 47433.352 $PGRMM,WGS 84*06
MSG 0 47433.676 $GPRMC,171154,A,4305.8356,N,07038.8815,W,000.2,313.6,030712,016.1,W*77
POS 0 47514.000 365883.004 4772933.490
QUA 0 47514.000 7 9.100 0.900 10.000 1.000 0.000 0.000 0.000
RAW 0 47514.000 4 430583.56000 -703888.15000 -24.70000 171154.00000
MSG 0 47433.826 $GPGGA,171154,4305.8356,N,07038.8815,W,1,10,0.9,7.7,M,-32.4,M,,*75
MSG 0 47433.968 $GPGSA,A,3,,06,10,13,16,20,21,23,,30,31,32,1.3,0.9,1.0*3A
MSG 0 47434.090 $GPGSV,3,1,12,03,45,175,32,06,54,150,48,10,07,318,41,13,37,311,44*7B
MSG 0 47434.236 $PGRME,5.4,M,6.0,M,8.1,M*20
MSG 0 47434.297 $PGRMB,0.0,200,,,,K,,N,N*31
MSG 0 47434.357 $PGRMM,WGS 84*06
MSG 0 47434.639 $GPRMC,171155,A,4305.8354,N,07038.8811,W,000.5,129.8,030712,016.1,W*72
POS 0 47515.000 365883.539 4772933.109
QUA 0 47515.000 7 9.100 0.900 10.000 1.000 0.000 0.000 0.000
RAW 0 47515.000 4 430583.54000 -703888.11000 -24.90000 171155.00000
MSG 0 47434.789 $GPGGA,171155,4305.8354,N,07038.8811,W,1,10,0.9,7.5,M,-32.4,M,,*70
MSG 0 47434.930 $GPGSA,A,3,,06,10,13,16,20,21,23,,30,31,32,1.3,0.9,1.0*3A
MSG 0 47435.053 $GPGSV,3,2,12,16,80,000,50,20,05,234,41,21,07,073,41,23,61,269,50*7D
MSG 0 47435.199 $PGRME,5.4,M,6.0,M,8.1,M*20
MSG 0 47435.259 $PGRMB,0.0,200,,,,K,,N,N*31
MSG 0 47435.320 $PGRMM,WGS 84*06
MSG 0 47435.670 $GPRMC,171156,A,4305.8355,N,07038.8810,W,000.3,093.3,030712,016.1,W*7C
POS 0 47516.000 365883.678 4772933.291
QUA 0 47516.000 7 9.100 0.900 10.000 1.000 0.000 0.000 0.000
RAW 0 47516.000 4 430583.55000 -703888.10000 -25.20000 171156.00000
MSG 0 47435.819 $GPGGA,171156,4305.8355,N,07038.8810,W,1,10,0.9,7.2,M,-32.4,M,,*74
MSG 0 47435.961 $GPGSA,A,3,,06,10,13,16,20,21,23,,30,31,32,1.3,0.9,1.0*3A
MSG 0 47436.084 $GPGSV,3,3,12,29,00,029,00,30,54,052,50,31,23,103,49,32,02,211,43*70
MSG 0 47436.230 $PGRME,5.3,M,6.0,M,8.0,M*26
MSG 0 47436.290 $PGRMB,0.0,200,,,,K,,N,N*31
MSG 0 47436.350 $PGRMM,WGS 84*06
MSG 0 47436.656 $GPRMC,171157,A,4305.8355,N,07038.8810,W,000.2,078.3,030712,016.1,W*79
POS 0 47517.000 365883.678 4772933.291
QUA 0 47517.000 7 9.100 0.900 10.000 1.000 0.000 0.000 0.000
RAW 0 47517.000 4 430583.55000 -703888.10000 -25.30000 171157.00000
MSG 0 47436.806 $GPGGA,171157,4305.8355,N,07038.8810,W,1,10,0.9,7.1,M,-32.4,M,,*76
MSG 0 47436.948 $GPGSA,A,3,,06,10,13,16,20,21,23,,30,31,32,1.3,0.9,1.0*3A
MSG 0 47437.070 $GPGSV,3,1,12,03,46,175,32,06,54,150,48,10,07,318,42,13,37,311,45*7A
MSG 0 47437.216 $PGRME,5.4,M,6.0,M,8.1,M*20
MSG 0 47437.277 $PGRMB,0.0,200,,,,K,,N,N*31
MSG 0 47437.337 $PGRMM,WGS 84*06
MSG 0 47437.639 $GPRMC,171158,A,4305.8355,N,07038.8808,W,000.4,114.9,030712,016.1,W*78
POS 0 47518.000 365883.950 4772933.286
QUA 0 47518.000 7 9.100 0.900 10.000 1.000 0.000 0.000 0.000
RAW 0 47518.000 4 430583.55000 -703888.08000 -24.90000 171158.00000
MSG 0 47437.789 $GPGGA,171158,4305.8355,N,07038.8808,W,1,10,0.9,7.5,M,-32.4,M,,*74
MSG 0 47437.930 $GPGSA,A,3,,06,10,13,16,20,21,23,,30,31,32,1.3,0.9,1.0*3A
MSG 0 47438.053 $GPGSV,3,2,12,16,80,000,49,20,05,234,41,21,07,073,41,23,61,269,50*75
MSG 0 47438.199 $PGRME,5.3,M,6.0,M,8.0,M*26
MSG 0 47438.259 $PGRMB,0.0,200,,,,K,,N,N*31
MSG 0 47438.320 $PGRMM,WGS 84*06
MSG 0 47438.655 $GPRMC,171159,A,4305.8356,N,07038.8807,W,000.3,073.9,030712,016.1,W*72
POS 0 47519.000 365884.089 4772933.468
QUA 0 47519.000 7 9.200 0.800 10.000 1.000 0.000 0.000 0.000
RAW 0 47519.000 4 430583.56000 -703888.07000 -24.80000 171159.00000
MSG 0 47438.805 $GPGGA,171159,4305.8356,N,07038.8807,W,1,10,0.8,7.6,M,-32.4,M,,*7B
MSG 0 47438.947 $GPGSA,A,3,,06,10,13,16,20,21,23,,30,31,32,1.2,0.8,0.9*32
MSG 0 47439.070 $GPGSV,3,3,12,29,00,029,00,30,54,052,50,31,23,103,49,32,02,211,44*77
MSG 0 47439.216 $PGRME,5.3,M,6.0,M,8.0,M*26
MSG 0 47439.276 $PGRMB,0.0,200,,,,K,,N,N*31
MSG 0 47439.336 $PGRMM,WGS 84*06
MSG 0 47439.653 $GPRMC,171200,A,4305.8353,N,07038.8806,W,000.5,135.8,030712,016.1,W*7D
POS 0 47520.000 365884.214 4772932.910
QUA 0 47520.000 7 9.200 0.800 10.000 1.000 0.000 0.000 0.000
RAW 0 47520.000 4 430583.53000 -703888.06000 -25.20000 171200.00000
MSG 0 47439.803 $GPGGA,171200,4305.8353,N,07038.8806,W,1,10,0.8,7.2,M,-32.4,M,,*74
MSG 0 47439.945 $GPGSA,A,3,,06,10,13,16,20,21,23,,30,31,32,1.2,0.8,0.9*32
MSG 0 47440.068 $GPGSV,3,1,12,03,46,175,32,06,54,150,49,10,07,318,42,13,37,311,44*7A
MSG 0 47440.214 $PGRME,5.3,M,6.0,M,8.0,M*26
MSG 0 47440.274 $PGRMB,0.0,200,,,,K,,N,N*31
MSG 0 47440.334 $PGRMM,WGS 84*06
MSG 0 47440.649 $GPRMC,171201,A,4305.8354,N,07038.8808,W,000.0,135.8,030712,016.1,W*70
POS 0 47521.000 365883.946 4772933.101
QUA 0 47521.000 7 9.200 0.800 10.000 1.000 0.000 0.000 0.000
RAW 0 47521.000 4 430583.54000 -703888.08000 -24.80000 171201.00000
MSG 0 47440.799 $GPGGA,171201,4305.8354,N,07038.8808,W,1,10,0.8,7.6,M,-32.4,M,,*78
MSG 0 47440.941 $GPGSA,A,3,,06,10,13,16,20,21,23,,30,31,32,1.2,0.8,0.9*32
MSG 0 47441.063 $GPGSV,3,2,12,16,80,000,50,20,05,234,41,21,07,073,40,23,61,269,50*7C
MSG 0 47441.209 $PGRME,5.3,M,6.0,M,8.0,M*26
MSG 0 47441.270 $PGRMB,0.0,200,,,,K,,N,N*31
MSG 0 47441.330 $PGRMM,WGS 84*06
MSG 0 47441.654 $GPRMC,171202,A,4305.8355,N,07038.8808,W,000.3,324.1,030712,016.1,W*7A
POS 0 47522.000 365883.950 4772933.286
QUA 0 47522.000 7 9.200 0.800 10.000 1.000 0.000 0.000 0.000
RAW 0 47522.000 4 430583.55000 -703888.08000 -24.90000 171202.00000
MSG 0 47441.804 $GPGGA,171202,4305.8355,N,07038.8808,W,1,10,0.8,7.5,M,-32.4,M,,*79
MSG 0 47441.945 $GPGSA,A,3,,06,10,13,16,20,21,23,,30,31,32,1.2,0.8,0.9*32
MSG 0 47442.068 $GPGSV,3,3,12,29,00,029,00,30,54,052,50,31,23,103,48,32,02,211,44*76
MSG 0 47442.214 $PGRME,5.3,M,6.0,M,8.0,M*26
MSG 0 47442.274 $PGRMB,0.0,200,,,,K,,N,N*31
MSG 0 47442.335 $PGRMM,WGS 84*06
MSG 0 47442.653 $GPRMC,171203,A,4305.8353,N,07038.8804,W,000.7,123.5,030712,016.1,W*74
POS 0 47523.000 365884.485 4772932.905
QUA 0 47523.000 7 9.200 0.800 10.000 1.000 0.000 0.000 0.000
RAW 0 47523.000 4 430583.53000 -703888.04000 -25.50000 171203.00000
MSG 0 47442.803 $GPGGA,171203,4305.8353,N,07038.8804,W,1,10,0.8,6.9,M,-32.4,M,,*7F
MSG 0 47442.944 $GPGSA,A,3,,06,10,13,16,20,21,23,,30,31,32,1.3,0.8,0.9*33
MSG 0 47443.067 $GPGSV,3,1,12,03,46,175,32,06,54,150,49,10,07,318,42,13,37,311,45*7B
MSG 0 47443.213 $PGRME,5.4,M,6.0,M,8.1,M*20
MSG 0 47443.273 $PGRMB,0.0,200,,,,K,,N,N*31
MSG 0 47443.334 $PGRMM,WGS 84*06
MSG 0 47443.656 $GPRMC,171204,A,4305.8353,N,07038.8804,W,000.3,095.9,030712,016.1,W*77
POS 0 47524.000 365884.485 4772932.905
QUA 0 47524.000 7 9.200 0.800 10.000 1.000 0.000 0.000 0.000
RAW 0 47524.000 4 430583.53000 -703888.04000 -25.40000 171204.00000
MSG 0 47443.806 $GPGGA,171204,4305.8353,N,07038.8804,W,1,10,0.8,7.0,M,-32.4,M,,*70
MSG 0 47443.947 $GPGSA,A,3,,06,10,13,16,20,21,23,,30,31,32,1.3,0.8,0.9*33
MSG 0 47444.070 $GPGSV,3,2,12,16,80,000,49,20,05,234,40,21,07,073,41,23,61,269,50*74
MSG 0 47444.216 $PGRME,5.3,M,6.0,M,8.0,M*26
MSG 0 47444.276 $PGRMB,0.0,200,,,,K,,N,N*31
MSG 0 47444.336 $PGRMM,WGS 84*06
MSG 0 47444.638 $GPRMC,171205,A,4305.8356,N,07038.8806,W,000.4,345.0,030712,016.1,W*71
POS 0 47525.000 365884.224 4772933.466
QUA 0 47525.000 7 9.200 0.800 10.000 1.000 0.000 0.000 0.000
RAW 0 47525.000 4 430583.56000 -703888.06000 -25.10000 171205.00000
MSG 0 47444.788 $GPGGA,171205,4305.8356,N,07038.8806,W,1,10,0.8,7.3,M,-32.4,M,,*75
MSG 0 47444.930 $GPGSA,A,3,,06,10,13,16,20,21,23,,30,31,32,1.2,0.8,0.9*32
MSG 0 47445.053 $GPGSV,3,3,12,29,00,029,00,30,54,052,50,31,23,103,48,32,02,211,45*77
MSG 0 47445.198 $PGRME,5.3,M,6.0,M,8.0,M*26
MSG 0 47445.259 $PGRMB,0.0,200,,,,K,,N,N*31
MSG 0 47445.319 $PGRMM,WGS 84*06
MSG 0 47445.636 $GPRMC,171206,A,4305.8353,N,07038.8801,W,000.7,121.3,030712,016.1,W*70
POS 0 47526.000 365884.892 4772932.897
QUA 0 47526.000 7 9.200 0.800 10.000 1.000 0.000 0.000 0.000
RAW 0 47526.000 4 430583.53000 -703888.01000 -25.30000 171206.00000
MSG 0 47445.786 $GPGGA,171206,4305.8353,N,07038.8801,W,1,10,0.8,7.1,M,-32.4,M,,*76
MSG 0 47445.928 $GPGSA,A,3,,06,10,13,16,20,21,23,,30,31,32,1.2,0.8,0.9*32
MSG 0 47446.051 $GPGSV,3,1,12,03,46,175,31,06,54,150,50,10,07,318,42,13,37,311,45*70
MSG 0 47446.196 $PGRME,5.3,M,6.0,M,8.0,M*26
MSG 0 47446.257 $PGRMB,0.0,200,,,,K,,N,N*31
MSG 0 47446.317 $PGRMM,WGS 84*06
MSG 0 47446.649 $GPRMC,171207,A,4305.8352,N,07038.8800,W,000.5,118.4,030712,016.1,W*7E
POS 0 47527.000 365885.024 4772932.709
QUA 0 47527.000 7 9.200 0.800 10.000 1.000 0.000 0.000 0.000
RAW 0 47527.000 4 430583.52000 -703888.00000 -25.20000 171207.00000
MSG 0 47446.799 $GPGGA,171207,4305.8352,N,07038.8800,W,1,10,0.8,7.2,M,-32.4,M,,*74
MSG 0 47446.940 $GPGSA,A,3,,06,10,13,16,20,21,23,,30,31,32,1.2,0.8,0.9*32
MSG 0 47447.063 $GPGSV,3,2,12,16,80,000,49,20,05,234,41,21,07,073,41,23,61,269,50*75
MSG 0 47447.209 $PGRME,5.3,M,6.0,M,8.0,M*26
MSG 0 47447.269 $PGRMB,0.0,200,,,,K,,N,N*31
MSG 0 47447.330 $PGRMM,WGS 84*06
MSG 0 47447.643 $GPRMC,171208,A,4305.8354,N,07038.8803,W,000.2,331.3,030712,016.1,W*7D
POS 0 47528.000 365884.624 4772933.087
QUA 0 47528.000 7 9.200 0.800 10.000 1.000 0.000 0.000 0.000
RAW 0 47528.000 4 430583.54000 -703888.03000 -25.00000 171208.00000
MSG 0 47447.793 $GPGGA,171208,4305.8354,N,07038.8803,W,1,10,0.8,7.4,M,-32.4,M,,*78
MSG 0 47447.935 $GPGSA,A,3,,06,10,13,16,20,21,23,,30,31,32,1.2,0.8,0.9*32
MSG 0 47448.058 $GPGSV,3,3,12,29,00,029,00,30,54,052,50,31,23,103,47,32,02,211,45*78
MSG 0 47448.204 $PGRME,5.3,M,6.0,M,8.0,M*26
MSG 0 47448.264 $PGRMB,0.0,200,,,,K,,N,N*31
MSG 0 47448.324 $PGRMM,WGS 84*06
MSG 0 47448.638 $GPRMC,171209,A,4305.8352,N,07038.8800,W,000.4,126.1,030712,016.1,W*79
POS 0 47529.000 365885.024 4772932.709
QUA 0 47529.000 7 9.200 0.800 10.000 1.000 0.000 0.000 0.000
RAW 0 47529.000 4 430583.52000 -703888.00000 -25.20000 171209.00000
MSG 0 47448.788 $GPGGA,171209,4305.8352,N,07038.8800,W,1,10,0.8,7.2,M,-32.4,M,,*7A
MSG 0 47448.929 $GPGSA,A,3,,06,10,13,16,20,21,23,,30,31,32,1.2,0.8,0.9*32
MSG 0 47449.052 $GPGSV,3,1,12,03,46,175,00,06,55,149,50,10,07,318,42,13,37,311,44*7A
MSG 0 47449.198 $PGRME,5.3,M,6.0,M,8.0,M*26
MSG 0 47449.258 $PGRMB,0.0,200,,,,K,,N,N*31
MSG 0 47449.318 $PGRMM,WGS 84*06
MSG 0 47449.640 $GPRMC,171210,A,4305.8351,N,07038.8799,W,000.3,118.0,030712,016.1,W*76
POS 0 47530.000 365885.156 4772932.521
QUA 0 47530.000 7 9.200 0.800 10.000 1.000 0.000 0.000 0.000
RAW 0 47530.000 4 430583.51000 -703887.99000 -25.00000 171210.00000
MSG 0 47449.790 $GPGGA,171210,4305.8351,N,07038.8799,W,1,10,0.8,7.4,M,-32.4,M,,*78
MSG 0 47449.931 $GPGSA,A,3,,06,10,13,16,20,21,23,,30,31,32,1.2,0.8,0.9*32
MSG 0 47450.054 $GPGSV,3,2,12,16,80,000,49,20,05,234,41,21,07,073,41,23,61,269,50*75
MSG 0 47450.200 $PGRME,5.3,M,6.0,M,8.0,M*26
MSG 0 47450.260 $PGRMB,0.0,200,,,,K,,N,N*31
MSG 0 47450.321 $PGRMM,WGS 84*06
MSG 0 47450.640 $GPRMC,171211,A,4305.8352,N,07038.8800,W,000.2,118.0,030712,016.1,W*7A
POS 0 47531.000 365885.024 4772932.709
QUA 0 47531.000 7 9.200 0.800 10.000 1.000 0.000 0.000 0.000
RAW 0 47531.000 4 430583.52000 -703888.00000 -25.10000 171211.00000
MSG 0 47450.790 $GPGGA,171211,4305.8352,N,07038.8800,W,1,10,0.8,7.3,M,-32.4,M,,*72
MSG 0 47450.931 $GPGSA,A,3,,06,10,13,16,20,21,23,,30,31,32,1.2,0.8,0.9*32
MSG 0 47451.054 $GPGSV,3,3,12,29,00,029,00,30,54,052,50,31,23,103,48,32,02,211,45*77
MSG 0 47451.200 $PGRME,5.3,M,6.0,M,8.0,M*26
MSG 0 47451.260 $PGRMB,0.0,200,,,,K,,N,N*31
MSG 0 47451.321 $PGRMM,WGS 84*06
MSG 0 47451.638 $GPRMC,171212,A,4305.8350,N,07038.8798,W,000.4,132.5,030712,016.1,W*7E
POS 0 47532.000 365885.288 4772932.334
QUA 0 47532.000 7 9.200 0.800 10.000 1.000 0.000 0.000 0.000
RAW 0 47532.000 4 430583.50000 -703887.98000 -25.40000 171212.00000
MSG 0 47451.788 $GPGGA,171212,4305.8350,N,07038.8798,W,1,10,0.8,7.0,M,-32.4,M,,*7E
MSG 0 47451.929 $GPGSA,A,3,,06,10,13,16,20,21,23,,30,31,32,1.2,0.8,0.9*32
MSG 0 47452.052 $GPGSV,3,1,12,03,46,175,33,06,55,149,49,10,07,318,43,13,37,311,44*73
MSG 0 47452.198 $PGRME,5.3,M,6.0,M,8.0,M*26
MSG 0 47452.258 $PGRMB,0.0,200,,,,K,,N,N*31
MSG 0 47452.319 $PGRMM,WGS 84*06
MSG 0 47452.648 $GPRMC,171213,A,4305.8349,N,07038.8797,W,000.3,110.4,030712,016.1,W*7E
POS 0 47533.000 365885.420 4772932.146
QUA 0 47533.000 7 9.200 0.800 10.000 1.000 0.000 0.000 0.000
RAW 0 47533.000 4 430583.49000 -703887.97000 -25.20000 171213.00000
MSG 0 47452.798 $GPGGA,171213,4305.8349,N,07038.8797,W,1,10,0.8,7.2,M,-32.4,M,,*7A
MSG 0 47452.940 $GPGSA,A,3,,06,10,13,16,20,21,23,,30,31,32,1.2,0.8,0.9*32
MSG 0 47453.063 $GPGSV,3,2,12,16,80,000,49,20,05,234,40,21,07,073,41,23,61,269,50*74
MSG 0 47453.208 $PGRME,5.3,M,6.0,M,8.0,M*26
MSG 0 47453.269 $PGRMB,0.0,200,,,,K,,N,N*31
MSG 0 47453.329 $PGRMM,WGS 84*06
MSG 0 47453.638 $GPRMC,171214,A,4305.8349,N,07038.8796,W,000.2,110.4,030712,016.1,W*79
POS 0 47534.000 365885.555 4772932.143
QUA 0 47534.000 7 9.200 0.800 10.000 1.000 0.000 0.000 0.000
RAW 0 47534.000 4 430583.49000 -703887.96000 -25.10000 171214.00000
MSG 0 47453.788 $GPGGA,171214,4305.8349,N,07038.8796,W,1,10,0.8,7.3,M,-32.4,M,,*7D
MSG 0 47453.930 $GPGSA,A,3,,06,10,13,16,20,21,23,,30,31,32,1.3,0.8,0.9*33
MSG 0 47454.053 $GPGSV,3,3,12,29,00,029,00,30,54,052,50,31,23,103,46,32,02,211,43*7F
MSG 0 47454.198 $PGRME,5.3,M,6.0,M,8.0,M*26
MSG 0 47454.259 $PGRMB,0.0,200,,,,K,,N,N*31
MSG 0 47454.319 $PGRMM,WGS 84*06
MSG 0 47454.639 $GPRMC,171215,A,4305.8347,N,07038.8794,W,000.4,118.0,030712,016.1,W*7E
POS 0 47535.000 365885.819 4772931.768
QUA 0 47535.000 7 9.200 0.800 10.000 1.000 0.000 0.000 0.000
RAW 0 47535.000 4 430583.47000 -703887.94000 -25.20000 171215.00000
MSG 0 47454.789 $GPGGA,171215,4305.8347,N,07038.8794,W,1,10,0.8,7.2,M,-32.4,M,,*71
MSG 0 47454.930 $GPGSA,A,3,,06,10,13,16,20,21,23,,30,31,32,1.2,0.8,0.9*32
MSG 0 47455.053 $GPGSV,3,1,12,03,46,175,33,06,55,149,49,10,07,318,43,13,37,311,45*72
MSG 0 47455.199 $PGRME,5.3,M,6.0,M,8.0,M*26
MSG 0 47455.259 $PGRMB,0.0,200,,,,K,,N,N*31
MSG 0 47455.320 $PGRMM,WGS 84*06
MSG 0 47455.638 $GPRMC,171216,A,4305.8347,N,07038.8794,W,000.2,077.7,030712,016.1,W*74
POS 0 47536.000 365885.819 4772931.768
QUA 0 47536.000 7 9.200 0.800 10.000 1.000 0.000 0.000 0.000
RAW 0 47536.000 4 430583.47000 -703887.94000 -25.00000 171216.00000
MSG 0 47455.788 $GPGGA,171216,4305.8347,N,07038.8794,W,1,10,0.8,7.4,M,-32.4,M,,*74
MSG 0 47455.929 $GPGSA,A,3,,06,10,13,16,20,21,23,,30,31,32,1.2,0.8,0.9*32
MSG 0 47456.052 $GPGSV,3,2,12,16,80,000,49,20,05,234,39,21,07,073,41,23,61,269,50*7A
MSG 0 47456.198 $PGRME,5.3,M,6.0,M,8.0,M*26
MSG 0 47456.258 $PGRMB,0.0,200,,,,K,,N,N*31
MSG 0 47456.318 $PGRMM,WGS 84*06
MSG 0 47456.651 $GPRMC,171217,A,4305.8347,N,07038.8793,W,000.1,077.7,030712,016.1,W*71
POS 0 47537.000 365885.955 4772931.765
QUA 0 47537.000 7 9.200 0.800 10.000 1.000 0.000 0.000 0.000
RAW 0 47537.000 4 430583.47000 -703887.93000 -25.10000 171217.00000
MSG 0 47456.801 $GPGGA,171217,4305.8347,N,07038.8793,W,1,10,0.8,7.3,M,-32.4,M,,*75
MSG 0 47456.943 $GPGSA,A,3,,06,10,13,16,20,21,23,,30,31,32,1.3,0.8,0.9*33
MSG 0 47457.066 $GPGSV,3,3,12,29,00,029,00,30,54,052,50,31,23,103,45,32,02,211,43*7C
MSG 0 47457.211 $PGRME,5.3,M,6.0,M,8.0,M*26
MSG 0 47457.272 $PGRMB,0.0,200,,,,K,,N,N*31
MSG 0 47457.332 $PGRMM,WGS 84*06
MSG 0 47457.651 $GPRMC,171218,A,4305.8345,N,07038.8791,W,000.4,116.7,030712,016.1,W*7D
POS 0 47538.000 365886.219 4772931.390
QUA 0 47538.000 7 9.200 0.800 10.000 1.000 0.000 0.000 0.000
RAW 0 47538.000 4 430583.45000 -703887.91000 -25.20000 171218.00000
MSG 0 47457.801 $GPGGA,171218,4305.8345,N,07038.8791,W,1,10,0.8,7.2,M,-32.4,M,,*7B
MSG 0 47457.943 $GPGSA,A,3,,06,10,13,16,20,21,23,,30,31,32,1.3,0.8,0.9*33
MSG 0 47458.066 $GPGSV,3,1,12,03,46,175,00,06,55,149,49,10,07,318,41,13,37,311,44*71
MSG 0 47458.212 $PGRME,5.3,M,6.0,M,8.0,M*26
MSG 0 47458.272 $PGRMB,0.0,200,,,,K,,N,N*31
MSG 0 47458.332 $PGRMM,WGS 84*06
MSG 0 47458.643 $GPRMC,171219,A,4305.8346,N,07038.8791,W,000.1,116.7,030712,016.1,W*7A
POS 0 47539.000 365886.223 4772931.575
QUA 0 47539.000 7 9.200 0.800 10.000 1.000 0.000 0.000 0.000
RAW 0 47539.000 4 430583.46000 -703887.91000 -25.10000 171219.00000
MSG 0 47458.793 $GPGGA,171219,4305.8346,N,07038.8791,W,1,10,0.8,7.3,M,-32.4,M,,*78
MSG 0 47458.934 $GPGSA,A,3,,06,10,13,16,20,21,23,,30,31,32,1.3,0.8,0.9*33
MSG 0 47459.057 $GPGSV,3,2,12,16,80,000,49,20,05,234,40,21,07,073,41,23,61,269,50*74
MSG 0 47459.203 $PGRME,5.3,M,6.0,M,8.0,M*26
MSG 0 47459.263 $PGRMB,0.0,200,,,,K,,N,N*31
MSG 0 47459.324 $PGRMM,WGS 84*06
MSG 0 47459.655 $GPRMC,171220,A,4305.8345,N,07038.8791,W,000.2,131.0,030712,016.1,W*72
POS 0 47540.000 365886.219 4772931.390
QUA 0 47540.000 7 9.200 0.800 10.000 1.000 0.000 0.000 0.000
RAW 0 47540.000 4 430583.45000 -703887.91000 -25.40000 171220.00000
MSG 0 47459.805 $GPGGA,171220,4305.8345,N,07038.8791,W,1,10,0.8,7.0,M,-32.4,M,,*72
MSG 0 47459.947 $GPGSA,A,3,,06,10,13,16,20,21,23,,30,31,32,1.3,0.8,0.9*33
MSG 0 47460.070 $GPGSV,3,3,12,29,00,029,00,30,54,052,50,31,23,103,45,32,02,211,42*7D
MSG 0 47460.215 $PGRME,5.3,M,6.0,M,8.0,M*26
MSG 0 47460.276 $PGRMB,0.0,200,,,,K,,N,N*31
MSG 0 47460.336 $PGRMM,WGS 84*06
MSG 0 47460.655 $GPRMC,171221,A,4305.8344,N,07038.8788,W,000.4,107.7,030712,016.1,W*7E
POS 0 47541.000 365886.622 4772931.196
QUA 0 47541.000 7 9.200 0.800 10.000 1.000 0.000 0.000 0.000
RAW 0 47541.000 4 430583.44000 -703887.88000 -25.40000 171221.00000
MSG 0 47460.805 $GPGGA,171221,4305.8344,N,07038.8788,W,1,10,0.8,7.0,M,-32.4,M,,*7A
MSG 0 47460.946 $GPGSA,A,3,,06,10,13,16,20,21,23,,30,31,32,1.2,0.8,0.9*32
MSG 0 47461.069 $GPGSV,3,1,12,03,46,175,32,06,55,149,49,10,07,318,41,13,37,311,45*71
MSG 0 47461.215 $PGRME,5.3,M,6.0,M,8.0,M*26
MSG 0 47461.275 $PGRMB,0.0,200,,,,K,,N,N*31
MSG 0 47461.336 $PGRMM,WGS 84*06
MSG 0 47461.631 $GPRMC,171222,A,4305.8345,N,07038.8789,W,000.0,107.7,030712,016.1,W*79
POS 0 47542.000 365886.490 4772931.384
QUA 0 47542.000 7 9.200 0.800 10.000 1.000 0.000 0.000 0.000
RAW 0 47542.000 4 430583.45000 -703887.89000 -25.30000 171222.00000
MSG 0 47461.781 $GPGGA,171222,4305.8345,N,07038.8789,W,1,10,0.8,7.1,M,-32.4,M,,*78
MSG 0 47461.923 $GPGSA,A,3,,06,10,13,16,20,21,23,,30,31,32,1.2,0.8,0.9*32
MSG 0 47462.046 $GPGSV,3,2,12,16,80,000,49,20,05,234,40,21,07,073,41,23,61,269,50*74
MSG 0 47462.191 $PGRME,5.3,M,6.0,M,8.0,M*26
MSG 0 47462.252 $PGRMB,0.0,200,,,,K,,N,N*31
MSG 0 47462.312 $PGRMM,WGS 84*06
MSG 0 47462.652 $GPRMC,171223,A,4305.8345,N,07038.8789,W,000.2,094.9,030712,016.1,W*7F
POS 0 47543.000 365886.490 4772931.384
QUA 0 47543.000 7 9.200 0.800 10.000 1.000 0.000 0.000 0.000
RAW 0 47543.000 4 430583.45000 -703887.89000 -25.40000 171223.00000
MSG 0 47462.802 $GPGGA,171223,4305.8345,N,07038.8789,W,1,10,0.8,7.0,M,-32.4,M,,*78
MSG 0 47462.944 $GPGSA,A,3,,06,10,13,16,20,21,23,,30,31,32,1.2,0.8,0.9*32
MSG 0 47463.067 $GPGSV,3,3,12,29,00,029,00,30,54,052,50,31,23,103,46,32,02,211,41*7D
MSG 0 47463.212 $PGRME,5.3,M,6.0,M,8.0,M*26
MSG 0 47463.273 $PGRMB,0.0,200,,,,K,,N,N*31
MSG 0 47463.333 $PGRMM,WGS 84*06
MSG 0 47463.648 $GPRMC,171224,A,4305.8343,N,07038.8786,W,000.5,117.9,030712,016.1,W*7C
POS 0 47544.000 365886.890 4772931.006
QUA 0 47544.000 7 9.200 0.800 10.000 1.000 0.000 0.000 0.000
RAW 0 47544.000 4 430583.43000 -703887.86000 -25.70000 171224.00000
MSG 0 47463.798 $GPGGA,171224,4305.8343,N,07038.8786,W,1,10,0.8,6.7,M,-32.4,M,,*70
MSG 0 47463.940 $GPGSA,A,3,,06,10,13,16,20,21,23,,30,31,32,1.2,0.8,0.9*32
MSG 0 47464.062 $GPGSV,3,1,12,03,46,175,00,06,55,149,49,10,07,318,40,13,37,311,44*70
MSG 0 47464.208 $PGRME,5.3,M,6.0,M,8.0,M*26
MSG 0 47464.269 $PGRMB,0.0,200,,,,K,,N,N*31
MSG 0 47464.329 $PGRMM,WGS 84*06
MSG 0 47464.638 $GPRMC,171225,A,4305.8344,N,07038.8786,W,000.2,117.9,030712,016.1,W*7D
POS 0 47545.000 365886.894 4772931.191
QUA 0 47545.000 7 9.200 0.800 10.000 1.000 0.000 0.000 0.000
RAW 0 47545.000 4 430583.44000 -703887.86000 -25.50000 171225.00000
MSG 0 47464.788 $GPGGA,171225,4305.8344,N,07038.8786,W,1,10,0.8,6.9,M,-32.4,M,,*78
MSG 0 47464.930 $GPGSA,A,3,,06,10,13,16,20,21,23,,30,31,32,1.2,0.8,0.9*32
MSG 0 47465.053 $GPGSV,3,2,12,16,80,000,50,20,05,234,40,21,07,073,42,23,61,269,50*7F
MSG 0 47465.198 $PGRME,5.3,M,6.0,M,8.0,M*26
MSG 0 47465.259 $PGRMB,0.0,200,,,,K,,N,N*31
MSG 0 47465.319 $PGRMM,WGS 84*06
MSG 0 47465.648 $GPRMC,171226,A,4305.8344,N,07038.8787,W,000.0,117.9,030712,016.1,W*7D
POS 0 47546.000 365886.758 4772931.194
QUA 0 47546.000 7 9.200 0.800 10.000 1.000 0.000 0.000 0.000
RAW 0 47546.000 4 430583.44000 -703887.87000 -25.40000 171226.00000
MSG 0 47465.798 $GPGGA,171226,4305.8344,N,07038.8787,W,1,10,0.8,7.0,M,-32.4,M,,*72
MSG 0 47465.940 $GPGSA,A,3,,06,10,13,16,20,21,23,,30,31,32,1.2,0.8,0.9*32
MSG 0 47466.063 $GPGSV,3,3,12,29,00,029,00,30,54,052,50,31,23,103,46,32,02,211,41*7D
MSG 0 47466.208 $PGRME,5.3,M,6.0,M,8.0,M*26
MSG 0 47466.269 $PGRMB,0.0,200,,,,K,,N,N*31
MSG 0 47466.329 $PGRMM,WGS 84*06
MSG 0 47466.638 $GPRMC,171227,A,4305.8343,N,07038.8785,W,000.5,113.3,030712,016.1,W*72
POS 0 47547.000 365887.026 4772931.003
QUA 0 47547.000 7 9.200 0.800 10.000 1.000 0.000 0.000 0.000
RAW 0 47547.000 4 430583.43000 -703887.85000 -25.60000 171227.00000
MSG 0 47466.788 $GPGGA,171227,4305.8343,N,07038.8785,W,1,10,0.8,6.8,M,-32.4,M,,*7F
MSG 0 47466.929 $GPGSA,A,3,,06,10,13,16,20,21,23,,30,31,32,1.2,0.8,0.9*32
MSG 0 47467.052 $GPGSV,3,1,12,03,46,175,33,06,55,149,49,10,07,318,39,13,37,311,44*7E
MSG 0 47467.198 $PGRME,5.3,M,6.0,M,8.0,M*26
MSG 0 47467.258 $PGRMB,0.0,200,,,,K,,N,N*31
MSG 0 47467.319 $PGRMM,WGS 84*06
MSG 0 47467.638 $GPRMC,171228,A,4305.8342,N,07038.8783,W,000.3,115.0,030712,016.1,W*79
POS 0 47548.000 365887.293 4772930.813
QUA 0 47548.000 7 9.200 0.800 10.000 1.000 0.000 0.000 0.000
RAW 0 47548.000 4 430583.42000 -703887.83000 -25.80000 171228.00000
MSG 0 47467.787 $GPGGA,171228,4305.8342,N,07038.8783,W,1,10,0.8,6.6,M,-32.4,M,,*79
MSG 0 47467.929 $GPGSA,A,3,,06,10,13,16,20,21,23,,30,31,32,1.2,0.8,0.9*32
MSG 0 47468.052 $GPGSV,3,2,12,16,80,000,50,20,05,234,40,21,07,073,42,23,61,269,51*7E
MSG 0 47468.198 $PGRME,5.3,M,6.0,M,8.0,M*26
MSG 0 47468.258 $PGRMB,0.0,200,,,,K,,N,N*31
MSG 0 47468.318 $PGRMM,WGS 84*06
MSG 0 47468.657 $GPRMC,171229,A,4305.8342,N,07038.8783,W,000.2,094.6,030712,016.1,W*77
POS 0 47549.000 365887.293 4772930.813
QUA 0 47549.000 7 9.200 0.800 10.000 1.000 0.000 0.000 0.000
RAW 0 47549.000 4 430583.42000 -703887.83000 -25.70000 171229.00000
MSG 0 47468.807 $GPGGA,171229,4305.8342,N,07038.8783,W,1,10,0.8,6.7,M,-32.4,M,,*79
MSG 0 47468.948 $GPGSA,A,3,,06,10,13,16,20,21,23,,30,31,32,1.2,0.8,0.9*32
MSG 0 47469.071 $GPGSV,3,3,12,29,00,029,00,30,54,052,50,31,23,103,45,32,02,211,41*7E
MSG 0 47469.217 $PGRME,5.3,M,6.0,M,8.0,M*26
MSG 0 47469.277 $PGRMB,0.0,200,,,,K,,N,N*31
MSG 0 47469.338 $PGRMM,WGS 84*06
MSG 0 47469.637 $GPRMC,171230,A,4305.8342,N,07038.8782,W,000.2,099.8,030712,016.1,W*7D
POS 0 47550.000 365887.429 4772930.810
QUA 0 47550.000 7 9.200 0.800 10.000 1.000 0.000 0.000 0.000
RAW 0 47550.000 4 430583.42000 -703887.82000 -25.50000 171230.00000
MSG 0 47469.787 $GPGGA,171230,4305.8342,N,07038.8782,W,1,10,0.8,6.9,M,-32.4,M,,*7E
MSG 0 47469.928 $GPGSA,A,3,,06,10,13,16,20,21,23,,30,31,32,1.2,0.8,0.9*32
MSG 0 47470.051 $GPGSV,3,1,12,03,46,175,33,06,55,149,49,10,07,318,39,13,37,311,45*7F
MSG 0 47470.197 $PGRME,5.3,M,6.0,M,8.0,M*26
MSG 0 47470.257 $PGRMB,0.0,200,,,,K,,N,N*31
MSG 0 47470.318 $PGRMM,WGS 84*06
MSG 0 47470.652 $GPRMC,171231,A,4305.8342,N,07038.8781,W,000.3,116.5,030712,016.1,W*75
POS 0 47551.000 365887.564 4772930.808
QUA 0 47551.000 7 9.200 0.800 10.000 1.000 0.000 0.000 0.000
RAW 0 47551.000 4 430583.42000 -703887.81000 -25.60000 171231.00000
MSG 0 47470.802 $GPGGA,171231,4305.8342,N,07038.8781,W,1,10,0.8,6.8,M,-32.4,M,,*7D
MSG 0 47470.943 $GPGSA,A,3,,06,10,13,16,20,21,23,,30,31,32,1.2,0.8,0.9*32
MSG 0 47471.066 $GPGSV,3,2,12,16,80,000,50,20,05,234,41,21,07,073,42,23,61,269,50*7E
MSG 0 47471.212 $PGRME,5.3,M,6.0,M,8.0,M*26
MSG 0 47471.272 $PGRMB,0.0,200,,,,K,,N,N*31
MSG 0 47471.333 $PGRMM,WGS 84*06
MSG 0 47471.639 $GPRMC,171232,A,4305.8341,N,07038.8781,W,000.1,116.5,030712,016.1,W*77
POS 0 47552.000 365887.561 4772930.623
QUA 0 47552.000 7 9.200 0.800 10.000 1.000 0.000 0.000 0.000
RAW 0 47552.000 4 430583.41000 -703887.81000 -25.80000 171232.00000
MSG 0 47471.789 $GPGGA,171232,4305.8341,N,07038.8781,W,1,10,0.8,6.6,M,-32.4,M,,*73
MSG 0 47471.931 $GPGSA,A,3,,06,10,13,16,20,21,23,,30,31,32,1.2,0.8,0.9*32
MSG 0 47472.053 $GPGSV,3,3,12,29,00,029,00,30,54,052,50,31,23,103,45,32,02,211,41*7E
MSG 0 47472.199 $PGRME,5.3,M,6.0,M,8.0,M*26
MSG 0 47472.260 $PGRMB,0.0,200,,,,K,,N,N*31
MSG 0 47472.320 $PGRMM,WGS 84*06
MSG 0 47472.637 $GPRMC,171233,A,4305.8342,N,07038.8782,W,000.1,116.5,030712,016.1,W*76
POS 0 47553.000 365887.429 4772930.810
QUA 0 47553.000 7 9.200 0.800 10.000 1.000 0.000 0.000 0.000
RAW 0 47553.000 4 430583.42000 -703887.82000 -25.70000 171233.00000
MSG 0 47472.787 $GPGGA,171233,4305.8342,N,07038.8782,W,1,10,0.8,6.7,M,-32.4,M,,*73
MSG 0 47472.929 $GPGSA,A,3,,06,10,13,16,20,21,23,,30,31,32,1.2,0.8,0.9*32
MSG 0 47473.051 $GPGSV,3,1,12,03,46,175,00,06,55,149,49,10,07,318,40,13,37,311,44*70
MSG 0 47473.197 $PGRME,5.3,M,6.0,M,8.0,M*26
MSG 0 47473.258 $PGRMB,0.0,200,,,,K,,N,N*31
MSG 0 47473.318 $PGRMM,WGS 84*06
MSG 0 47473.637 $GPRMC,171234,A,4305.8341,N,07038.8780,W,000.3,108.8,030712,016.1,W*70
POS 0 47554.000 365887.696 4772930.620
QUA 0 47554.000 7 9.200 0.800 10.000 1.000 0.000 0.000 0.000
RAW 0 47554.000 4 430583.41000 -703887.80000 -26.00000 171234.00000
MSG 0 47473.787 $GPGGA,171234,4305.8341,N,07038.8780,W,1,10,0.8,6.4,M,-32.4,M,,*76
MSG 0 47473.929 $GPGSA,A,3,,06,10,13,16,20,21,23,,30,31,32,1.2,0.8,0.9*32
MSG 0 47474.052 $GPGSV,3,2,12,16,80,000,50,20,05,234,41,21,07,073,42,23,61,269,50*7E
MSG 0 47474.197 $PGRME,5.3,M,6.0,M,8.0,M*26
MSG 0 47474.258 $PGRMT,GPS 17-HVS Ver. 2.80,P,P,R,R,P,,41,R*0E
MSG 0 47474.358 $PGRMB,0.0,200,,,,K,,N,N*31
MSG 0 47474.418 $PGRMM,WGS 84*06
MSG 0 47474.652 $GPRMC,171235,A,4305.8340,N,07038.8777,W,000.6,129.0,030712,016.1,W*76
POS 0 47555.000 365888.100 4772930.427
QUA 0 47555.000 7 9.200 0.800 10.000 1.000 0.000 0.000 0.000
RAW 0 47555.000 4 430583.40000 -703887.77000 -26.00000 171235.00000
MSG 0 47474.802 $GPGGA,171235,4305.8340,N,07038.8777,W,1,10,0.8,6.4,M,-32.4,M,,*7E
MSG 0 47474.943 $GPGSA,A,3,,06,10,13,16,20,21,23,,30,31,32,1.2,0.8,0.9*32
MSG 0 47475.066 $GPGSV,3,3,12,29,00,029,00,30,54,052,50,31,23,103,43,32,02,211,42*7B
MSG 0 47475.212 $PGRME,5.3,M,6.0,M,8.0,M*26
MSG 0 47475.272 $PGRMB,0.0,200,,,,K,,N,N*31
MSG 0 47475.333 $PGRMM,WGS 84*06
MSG 0 47475.637 $GPRMC,171236,A,4305.8342,N,07038.8778,W,000.3,037.1,030712,016.1,W*72
POS 0 47556.000 365887.971 4772930.800
QUA 0 47556.000 7 9.200 0.800 10.000 1.000 0.000 0.000 0.000
RAW 0 47556.000 4 430583.42000 -703887.78000 -25.70000 171236.00000
MSG 0 47475.787 $GPGGA,171236,4305.8342,N,07038.8778,W,1,10,0.8,6.7,M,-32.4,M,,*73
MSG 0 47475.928 $GPGSA,A,3,,06,10,13,16,20,21,23,,30,31,32,1.2,0.8,0.9*32
MSG 0 47476.051 $GPGSV,3,1,12,03,46,175,00,06,55,149,49,10,07,318,40,13,38,310,45*7F
MSG 0 47476.197 $PGRME,5.3,M,6.0,M,8.0,M*26
MSG 0 47476.257 $PGRMB,0.0,200,,,,K,,N,N*31
MSG 0 47476.318 $PGRMM,WGS 84*06
MSG 0 47476.638 $GPRMC,171237,A,4305.8340,N,07038.8776,W,000.3,116.3,030712,016.1,W*7F
POS 0 47557.000 365888.235 4772930.424
QUA 0 47557.000 7 9.200 0.800 10.000 1.000 0.000 0.000 0.000
RAW 0 47557.000 4 430583.40000 -703887.76000 -25.90000 171237.00000
MSG 0 47476.788 $GPGGA,171237,4305.8340,N,07038.8776,W,1,10,0.8,6.5,M,-32.4,M,,*7C
MSG 0 47476.929 $GPGSA,A,3,,06,10,13,16,20,21,23,,30,31,32,1.2,0.8,0.9*32
MSG 0 47477.052 $GPGSV,3,2,12,16,80,000,50,20,05,234,41,21,07,073,42,23,61,269,50*7E
MSG 0 47477.198 $PGRME,5.3,M,6.0,M,8.0,M*26
MSG 0 47477.258 $PGRMB,0.0,200,,,,K,,N,N*31
MSG 0 47477.319 $PGRMM,WGS 84*06
MSG 0 47477.644 $GPRMC,171238,A,4305.8340,N,07038.8774,W,000.4,118.3,030712,016.1,W*7B
POS 0 47558.000 365888.507 4772930.419
QUA 0 47558.000 7 9.200 0.800 10.000 1.000 0.000 0.000 0.000
RAW 0 47558.000 4 430583.40000 -703887.74000 -25.90000 171238.00000
MSG 0 47477.794 $GPGGA,171238,4305.8340,N,07038.8774,W,1,10,0.8,6.5,M,-32.4,M,,*71
MSG 0 47477.936 $GPGSA,A,3,,06,10,13,16,20,21,23,,30,31,32,1.2,0.8,0.9*32
MSG 0 47478.058 $GPGSV,3,3,12,29,00,029,00,30,54,052,50,31,23,103,44,32,02,211,44*7A
MSG 0 47478.204 $PGRME,5.3,M,6.0,M,8.0,M*26
MSG 0 47478.265 $PGRMB,0.0,200,,,,K,,N,N*31
MSG 0 47478.325 $PGRMM,WGS 84*06
MSG 0 47478.637 $GPRMC,171239,A,4305.8342,N,07038.8776,W,000.3,346.7,030712,016.1,W*70
POS 0 47559.000 365888.243 4772930.794
QUA 0 47559.000 7 9.200 0.800 10.000 1.000 0.000 0.000 0.000
RAW 0 47559.000 4 430583.42000 -703887.76000 -25.60000 171239.00000
MSG 0 47478.787 $GPGGA,171239,4305.8342,N,07038.8776,W,1,10,0.8,6.8,M,-32.4,M,,*7D
MSG 0 47478.928 $GPGSA,A,3,,06,10,13,16,20,21,23,,30,31,32,1.2,0.8,0.9*32
MSG 0 47479.051 $GPGSV,3,1,12,03,46,175,33,06,55,149,49,10,07,318,40,13,38,310,45*7F
MSG 0 47479.197 $PGRME,5.3,M,6.0,M,8.0,M*26
MSG 0 47479.257 $PGRMB,0.0,200,,,,K,,N,N*31
MSG 0 47479.317 $PGRMM,WGS 84*06
MSG 0 47479.639 $GPRMC,171240,A,4305.8340,N,07038.8775,W,000.2,146.8,030712,016.1,W*73
POS 0 47560.000 365888.371 4772930.421
QUA 0 47560.000 7 9.200 0.800 10.000 1.000 0.000 0.000 0.000
RAW 0 47560.000 4 430583.40000 -703887.75000 -26.00000 171240.00000
MSG 0 47479.789 $GPGGA,171240,4305.8340,N,07038.8775,W,1,10,0.8,6.4,M,-32.4,M,,*7E
MSG 0 47479.930 $GPGSA,A,3,,06,10,13,16,20,21,23,,30,31,32,1.2,0.8,0.9*32
MSG 0 47480.053 $GPGSV,3,2,12,16,80,000,49,20,05,234,41,21,07,073,42,23,61,269,50*76
MSG 0 47480.199 $PGRME,5.3,M,6.0,M,8.0,M*26
MSG 0 47480.259 $PGRMB,0.0,200,,,,K,,N,N*31
MSG 0 47480.320 $PGRMM,WGS 84*06
MSG 0 47480.650 $GPRMC,171241,A,4305.8338,N,07038.8773,W,000.5,132.2,030712,016.1,W*75
POS 0 47561.000 365888.635 4772930.046
QUA 0 47561.000 7 9.200 0.800 10.000 1.000 0.000 0.000 0.000
RAW 0 47561.000 4 430583.38000 -703887.73000 -26.00000 171241.00000
MSG 0 47480.800 $GPGGA,171241,4305.8338,N,07038.8773,W,1,10,0.8,6.4,M,-32.4,M,,*76
MSG 0 47480.941 $GPGSA,A,3,,06,10,13,16,20,21,23,,30,31,32,1.2,0.8,0.9*32
MSG 0 47481.064 $GPGSV,3,3,12,29,00,029,00,30,54,052,50,31,23,103,44,32,02,211,44*7A
MSG 0 47481.210 $PGRME,5.3,M,6.0,M,8.0,M*26
MSG 0 47481.270 $PGRMB,0.0,200,,,,K,,N,N*31
MSG 0 47481.331 $PGRMM,WGS 84*06
MSG 0 47481.637 $GPRMC,171242,A,4305.8341,N,07038.8776,W,000.4,332.1,030712,016.1,W*7D
POS 0 47562.000 365888.239 4772930.609
QUA 0 47562.000 7 9.200 0.800 10.000 1.000 0.000 0.000 0.000
RAW 0 47562.000 4 430583.41000 -703887.76000 -25.70000 171242.00000
MSG 0 47481.787 $GPGGA,171242,4305.8341,N,07038.8776,W,1,10,0.8,6.7,M,-32.4,M,,*7D
MSG 0 47481.928 $GPGSA,A,3,,06,10,13,16,20,21,23,,30,31,32,1.2,0.8,0.9*32
MSG 0 47482.051 $GPGSV,3,1,12,03,46,175,00,06,55,149,49,10,07,318,38,13,38,310,46*73
MSG 0 47482.197 $PGRME,5.3,M,6.0,M,8.0,M*26
MSG 0 47482.257 $PGRMB,0.0,200,,,,K,,N,N*31
MSG 0 47482.318 $PGRMM,WGS 84*06
MSG 0 47482.639 $GPRMC,171243,A,4305.8339,N,07038.8773,W,000.4,125.9,030712,016.1,W*7A
POS 0 47563.000 365888.639 4772930.231
QUA 0 47563.000 7 9.200 0.800 10.000 1.000 0.000 0.000 0.000
RAW 0 47563.000 4 430583.39000 -703887.73000 -26.20000 171243.00000
MSG 0 47482.789 $GPGGA,171243,4305.8339,N,07038.8773,W,1,10,0.8,6.2,M,-32.4,M,,*73
MSG 0 47482.930 $GPGSA,A,3,,06,10,13,16,20,21,23,,30,31,32,1.3,0.8,0.9*33
MSG 0 47483.053 $GPGSV,3,2,12,16,80,000,49,20,05,234,40,21,07,073,41,23,61,269,50*74
MSG 0 47483.199 $PGRME,5.3,M,6.0,M,8.0,M*26
MSG 0 47483.259 $PGRMB,0.0,200,,,,K,,N,N*31
MSG 0 47483.320 $PGRMM,WGS 84*06
MSG 0 47483.637 $GPRMC,171244,A,4305.8337,N,07038.8770,W,000.6,119.9,030712,016.1,W*7D
POS 0 47564.000 365889.038 4772929.853
QUA 0 47564.000 7 9.200 0.800 10.000 1.000 0.000 0.000 0.000
RAW 0 47564.000 4 430583.37000 -703887.70000 -26.30000 171244.00000
MSG 0 47483.787 $GPGGA,171244,4305.8337,N,07038.8770,W,1,10,0.8,6.1,M,-32.4,M,,*7A
MSG 0 47483.928 $GPGSA,A,3,,06,10,13,16,20,21,23,,30,31,32,1.2,0.8,0.9*32
MSG 0 47484.051 $GPGSV,3,3,12,29,00,029,00,30,54,052,50,31,23,103,43,32,02,211,44*7D
MSG 0 47484.197 $PGRME,5.3,M,6.0,M,8.0,M*26
MSG 0 47484.257 $PGRMB,0.0,200,,,,K,,N,N*31
MSG 0 47484.318 $PGRMM,WGS 84*06
FIX 99 47484.663 103 365889.038 4772929.853
