FTP NEW 2
VER 11.0.6.21
INF "" "" "" "" 0.000 0.000 0.000
ELL WGS-84 6378137.000 298.257223563
PRO TME -69.000000 0.999600 0.000000 0.000000 0.000000 500000.0000 0.0000
DTM 0.00 0.00 0.00 0.00000 0.00000 0.00000 0.00000
GEO ??? 0.000
HVU 1.0000000000 1.0000000000
TND 12:59:50 07/03/2012 240
DEV 0 32869 "Garmin GPS" 49156 C:\HYPACK 2011\devices\GPS.dll 11.0.10.6
OFF 0 0.000 0.000 0.000 0.000 0.000 0.000 0.000
DDT 0 SYN 
DEV 1 0 "Disabled" 0 Odom CV3 MK3 Disabled Unknown
USR "NOAA Joint Hydrographic Center" "HYPACK Inc." 0x8 15681181
EOH 0001FFFFFFFFFFFFFFFFFFFFFFFFFFFFFFFFFFFFFFFFFFFFFFFFFFFFFFFFFFFFFFFFFFFFFFFFFFFFFFFFFFFFFFFFFFFFFFFFFFFFFFFFFFFFFFFFFFFFFFFFFFFFFFFFFFFFFFFFFFFFFFFFFFFFFFFFFFFFFFFFFFFFFFFFFFFFFFFFFFFF003021300906052B0E03021A0500041454722804BDB07612F0D7C24C3975148A9D053DFF
MSG 0 46788.087 $GPGSV,3,3,12,29,03,031,43,30,59,048,50,31,27,099,47,32,06,214,42*73
MSG 0 46788.233 $PGRME,4.8,M,5.3,M,7.1,M*22
MSG 0 46788.293 $PGRMB,0.0,200,,,,K,,N,N*31
MSG 0 46788.354 $PGRMM,WGS 84*06
MSG 0 46788.668 $GPRMC,170109,A,4305.6406,N,07038.9214,W,000.2,134.1,030712,016.1,W*78
POS 0 46869.000 365821.787 4772573.630
QUA 0 46869.000 7 9.200 0.800 11.000 1.000 0.000 0.000 0.000
RAW 0 46869.000 4 430564.06000 -703892.14000 -24.20000 170109.00000
MSG 0 46788.818 $GPGGA,170109,4305.6406,N,07038.9214,W,1,11,0.8,8.2,M,-32.4,M,,*70
MSG 0 46788.960 $GPGSA,A,3,,06,10,13,16,20,21,23,29,30,31,32,1.1,0.8,0.9*3A
MSG 0 46789.087 $GPGSV,3,1,12,03,40,177,32,06,49,154,48,10,06,322,41,13,33,313,47*79
MSG 0 46789.233 $PGRME,4.8,M,5.3,M,7.1,M*22
MSG 0 46789.293 $PGRMB,0.0,200,,,,K,,N,N*31
MSG 0 46789.353 $PGRMM,WGS 84*06
MSG 0 46789.670 $GPRMC,170110,A,4305.6404,N,07038.9211,W,000.5,135.0,030712,016.1,W*70
POS 0 46870.000 365822.187 4772573.252
QUA 0 46870.000 7 9.200 0.800 11.000 1.000 0.000 0.000 0.000
RAW 0 46870.000 4 430564.04000 -703892.11000 -24.30000 170110.00000
MSG 0 46789.820 $GPGGA,170110,4305.6404,N,07038.9211,W,1,11,0.8,8.1,M,-32.4,M,,*7C
MSG 0 46789.961 $GPGSA,A,3,,06,10,13,16,20,21,23,29,30,31,32,1.1,0.8,0.9*3A
FIX 99 46790.316 96 365822.187 4772573.252
MSG 0 46790.088 $GPGSV,3,2,12,16,83,330,49,20,08,237,41,21,05,077,42,23,59,280,51*70
MSG 0 46790.234 $PGRME,4.8,M,5.3,M,7.1,M*22
MSG 0 46790.294 $PGRMB,0.0,200,,,,K,,N,N*31
MSG 0 46790.355 $PGRMM,WGS 84*06
MSG 0 46790.675 $GPRMC,170111,A,4305.6404,N,07038.9211,W,000.4,134.9,030712,016.1,W*78
POS 0 46871.000 365822.187 4772573.252
QUA 0 46871.000 7 9.200 0.800 11.000 1.000 0.000 0.000 0.000
RAW 0 46871.000 4 430564.04000 -703892.11000 -24.30000 170111.00000
MSG 0 46790.825 $GPGGA,170111,4305.6404,N,07038.9211,W,1,11,0.8,8.1,M,-32.4,M,,*7D
MSG 0 46790.966 $GPGSA,A,3,,06,10,13,16,20,21,23,29,30,31,32,1.2,0.8,0.9*39
MSG 0 46791.093 $GPGSV,3,3,12,29,03,031,43,30,59,048,50,31,27,099,47,32,06,214,42*73
MSG 0 46791.239 $PGRME,4.8,M,5.3,M,7.1,M*22
MSG 0 46791.299 $PGRMB,0.0,200,,,,K,,N,N*31
MSG 0 46791.360 $PGRMM,WGS 84*06
MSG 0 46791.667 $GPRMC,170112,A,4305.6404,N,07038.9210,W,000.2,121.8,030712,016.1,W*79
POS 0 46872.000 365822.322 4772573.250
QUA 0 46872.000 7 9.200 0.800 11.000 1.000 0.000 0.000 0.000
RAW 0 46872.000 4 430564.04000 -703892.10000 -24.30000 170112.00000
MSG 0 46791.817 $GPGGA,170112,4305.6404,N,07038.9210,W,1,11,0.8,8.1,M,-32.4,M,,*7F
MSG 0 46791.959 $GPGSA,A,3,,06,10,13,16,20,21,23,29,30,31,32,1.1,0.8,0.9*3A
MSG 0 46792.086 $GPGSV,3,1,12,03,40,177,32,06,49,154,49,10,06,322,38,13,33,313,47*76
MSG 0 46792.232 $PGRME,4.8,M,5.3,M,7.1,M*22
MSG 0 46792.292 $PGRMB,0.0,200,,,,K,,N,N*31
MSG 0 46792.352 $PGRMM,WGS 84*06
MSG 0 46792.668 $GPRMC,170113,A,4305.6402,N,07038.9210,W,000.4,152.7,030712,016.1,W*73
POS 0 46873.000 365822.315 4772572.879
QUA 0 46873.000 7 9.200 0.800 11.000 1.000 0.000 0.000 0.000
RAW 0 46873.000 4 430564.02000 -703892.10000 -24.40000 170113.00000
MSG 0 46792.818 $GPGGA,170113,4305.6402,N,07038.9210,W,1,11,0.8,8.0,M,-32.4,M,,*79
MSG 0 46792.960 $GPGSA,A,3,,06,10,13,16,20,21,23,29,30,31,32,1.1,0.8,0.9*3A
MSG 0 46793.087 $GPGSV,3,2,12,16,83,330,49,20,08,237,39,21,05,077,42,23,60,279,50*72
MSG 0 46793.232 $PGRME,4.8,M,5.3,M,7.1,M*22
MSG 0 46793.293 $PGRMB,0.0,200,,,,K,,N,N*31
MSG 0 46793.353 $PGRMM,WGS 84*06
MSG 0 46793.670 $GPRMC,170114,A,4305.6402,N,07038.9208,W,000.4,139.3,030712,016.1,W*74
POS 0 46874.000 365822.586 4772572.874
QUA 0 46874.000 7 9.200 0.800 11.000 1.000 0.000 0.000 0.000
RAW 0 46874.000 4 430564.02000 -703892.08000 -24.50000 170114.00000
MSG 0 46793.820 $GPGGA,170114,4305.6402,N,07038.9208,W,1,11,0.8,7.9,M,-32.4,M,,*71
MSG 0 46793.961 $GPGSA,A,3,,06,10,13,16,20,21,23,29,30,31,32,1.2,0.8,0.9*39
MSG 0 46794.088 $GPGSV,3,3,12,29,03,031,44,30,59,048,49,31,27,099,47,32,06,214,43*7D
MSG 0 46794.234 $PGRME,4.8,M,5.3,M,7.1,M*22
MSG 0 46794.294 $PGRMB,0.0,200,,,,K,,N,N*31
MSG 0 46794.355 $PGRMM,WGS 84*06
MSG 0 46794.668 $GPRMC,170115,A,4305.6402,N,07038.9209,W,000.2,151.6,030712,016.1,W*79
POS 0 46875.000 365822.451 4772572.877
QUA 0 46875.000 7 9.200 0.800 11.000 1.000 0.000 0.000 0.000
RAW 0 46875.000 4 430564.02000 -703892.09000 -24.60000 170115.00000
MSG 0 46794.818 $GPGGA,170115,4305.6402,N,07038.9209,W,1,11,0.8,7.8,M,-32.4,M,,*70
MSG 0 46794.960 $GPGSA,A,3,,06,10,13,16,20,21,23,29,30,31,32,1.1,0.8,0.9*3A
MSG 0 46795.087 $GPGSV,3,1,12,03,41,177,32,06,49,154,49,10,06,322,36,13,33,313,47*79
MSG 0 46795.233 $PGRME,4.8,M,5.3,M,7.1,M*22
MSG 0 46795.293 $PGRMB,0.0,200,,,,K,,N,N*31
MSG 0 46795.353 $PGRMM,WGS 84*06
MSG 0 46795.669 $GPRMC,170116,A,4305.6401,N,07038.9208,W,000.2,139.5,030712,016.1,W*75
POS 0 46876.000 365822.583 4772572.689
QUA 0 46876.000 7 9.200 0.800 11.000 1.000 0.000 0.000 0.000
RAW 0 46876.000 4 430564.01000 -703892.08000 -24.50000 170116.00000
MSG 0 46795.818 $GPGGA,170116,4305.6401,N,07038.9208,W,1,11,0.8,7.9,M,-32.4,M,,*70
MSG 0 46795.960 $GPGSA,A,3,,06,10,13,16,20,21,23,29,30,31,32,1.1,0.8,0.9*3A
MSG 0 46796.087 $GPGSV,3,2,12,16,83,330,48,20,08,237,38,21,05,077,41,23,60,279,50*71
MSG 0 46796.233 $PGRME,4.8,M,5.3,M,7.1,M*22
MSG 0 46796.293 $PGRMB,0.0,200,,,,K,,N,N*31
MSG 0 46796.354 $PGRMM,WGS 84*06
MSG 0 46796.682 $GPRMC,170117,A,4305.6399,N,07038.9205,W,000.6,136.0,030712,016.1,W*71
POS 0 46877.000 365822.982 4772572.311
QUA 0 46877.000 7 9.200 0.800 11.000 1.000 0.000 0.000 0.000
RAW 0 46877.000 4 430563.99000 -703892.05000 -24.50000 170117.00000
MSG 0 46796.832 $GPGGA,170117,4305.6399,N,07038.9205,W,1,11,0.8,7.9,M,-32.4,M,,*7A
MSG 0 46796.974 $GPGSA,A,3,,06,10,13,16,20,21,23,29,30,31,32,1.2,0.8,0.9*39
MSG 0 46797.101 $GPGSV,3,3,12,29,03,031,44,30,59,048,49,31,27,099,48,32,06,214,44*75
MSG 0 46797.246 $PGRME,4.8,M,5.3,M,7.1,M*22
MSG 0 46797.307 $PGRMB,0.0,200,,,,K,,N,N*31
MSG 0 46797.367 $PGRMM,WGS 84*06
MSG 0 46797.685 $GPRMC,170118,A,4305.6399,N,07038.9206,W,000.3,157.8,030712,016.1,W*77
POS 0 46878.000 365822.847 4772572.313
QUA 0 46878.000 7 9.200 0.800 11.000 1.000 0.000 0.000 0.000
RAW 0 46878.000 4 430563.99000 -703892.06000 -24.30000 170118.00000
MSG 0 46797.835 $GPGGA,170118,4305.6399,N,07038.9206,W,1,11,0.8,8.1,M,-32.4,M,,*71
MSG 0 46797.977 $GPGSA,A,3,,06,10,13,16,20,21,23,29,30,31,32,1.2,0.8,0.9*39
MSG 0 46798.104 $GPGSV,3,1,12,03,41,177,32,06,49,154,50,10,06,322,00,13,33,313,47*74
MSG 0 46798.250 $PGRME,4.8,M,5.3,M,7.2,M*21
MSG 0 46798.310 $PGRMB,0.0,200,,,,K,,N,N*31
MSG 0 46798.370 $PGRMM,WGS 84*06
MSG 0 46798.689 $GPRMC,170119,A,4305.6399,N,07038.9205,W,000.2,143.7,030712,016.1,W*7E
POS 0 46879.000 365822.982 4772572.311
QUA 0 46879.000 7 9.200 0.800 11.000 1.000 0.000 0.000 0.000
RAW 0 46879.000 4 430563.99000 -703892.05000 -24.20000 170119.00000
MSG 0 46798.839 $GPGGA,170119,4305.6399,N,07038.9205,W,1,11,0.8,8.2,M,-32.4,M,,*70
MSG 0 46798.980 $GPGSA,A,3,,06,10,13,16,20,21,23,29,30,31,32,1.2,0.8,0.9*39
MSG 0 46799.107 $GPGSV,3,2,12,16,83,330,48,20,08,237,37,21,05,077,42,23,60,279,50*7D
MSG 0 46799.253 $PGRME,4.8,M,5.3,M,7.2,M*21
MSG 0 46799.313 $PGRMB,0.0,200,,,,K,,N,N*31
MSG 0 46799.374 $PGRMM,WGS 84*06
MSG 0 46799.677 $GPRMC,170120,A,4305.6397,N,07038.9204,W,000.5,144.8,030712,016.1,W*74
POS 0 46880.000 365823.111 4772571.938
QUA 0 46880.000 7 9.200 0.800 11.000 1.000 0.000 0.000 0.000
RAW 0 46880.000 4 430563.97000 -703892.04000 -24.30000 170120.00000
MSG 0 46799.827 $GPGGA,170120,4305.6397,N,07038.9204,W,1,11,0.8,8.1,M,-32.4,M,,*76
MSG 0 46799.969 $GPGSA,A,3,,06,10,13,16,20,21,23,29,30,31,32,1.2,0.8,0.9*39
MSG 0 46800.096 $GPGSV,3,3,12,29,03,031,44,30,59,048,50,31,27,099,49,32,06,214,43*7B
MSG 0 46800.242 $PGRME,4.8,M,5.3,M,7.2,M*21
MSG 0 46800.302 $PGRMB,0.0,200,,,,K,,N,N*31
MSG 0 46800.362 $PGRMM,WGS 84*06
MSG 0 46800.676 $GPRMC,170121,A,4305.6397,N,07038.9203,W,000.4,131.4,030712,016.1,W*7D
POS 0 46881.000 365823.246 4772571.935
QUA 0 46881.000 7 9.200 0.800 11.000 1.000 0.000 0.000 0.000
RAW 0 46881.000 4 430563.97000 -703892.03000 -24.40000 170121.00000
MSG 0 46800.826 $GPGGA,170121,4305.6397,N,07038.9203,W,1,11,0.8,8.0,M,-32.4,M,,*71
MSG 0 46800.968 $GPGSA,A,3,,06,10,13,16,20,21,23,29,30,31,32,1.2,0.8,0.9*39
MSG 0 46801.095 $GPGSV,3,1,12,03,41,177,32,06,49,154,50,10,06,322,00,13,33,313,46*75
MSG 0 46801.241 $PGRME,4.8,M,5.3,M,7.2,M*21
MSG 0 46801.301 $PGRMB,0.0,200,,,,K,,N,N*31
MSG 0 46801.361 $PGRMM,WGS 84*06
MSG 0 46801.678 $GPRMC,170122,A,4305.6398,N,07038.9202,W,000.3,117.8,030712,016.1,W*7F
POS 0 46882.000 365823.386 4772572.118
QUA 0 46882.000 7 9.200 0.800 11.000 1.000 0.000 0.000 0.000
RAW 0 46882.000 4 430563.98000 -703892.02000 -24.40000 170122.00000
MSG 0 46801.828 $GPGGA,170122,4305.6398,N,07038.9202,W,1,11,0.8,8.0,M,-32.4,M,,*7C
MSG 0 46801.970 $GPGSA,A,3,,06,10,13,16,20,21,23,29,30,31,32,1.2,0.8,0.9*39
MSG 0 46802.097 $GPGSV,3,2,12,16,83,330,48,20,08,237,37,21,05,077,42,23,60,279,50*7D
MSG 0 46802.242 $PGRME,4.8,M,5.3,M,7.2,M*21
MSG 0 46802.303 $PGRMB,0.0,200,,,,K,,N,N*31
MSG 0 46802.363 $PGRMM,WGS 84*06
MSG 0 46802.676 $GPRMC,170123,A,4305.6397,N,07038.9201,W,000.4,123.7,030712,016.1,W*7D
POS 0 46883.000 365823.518 4772571.930
QUA 0 46883.000 7 9.200 0.800 11.000 1.000 0.000 0.000 0.000
RAW 0 46883.000 4 430563.97000 -703892.01000 -24.40000 170123.00000
MSG 0 46802.826 $GPGGA,170123,4305.6397,N,07038.9201,W,1,11,0.8,8.0,M,-32.4,M,,*71
MSG 0 46802.968 $GPGSA,A,3,,06,10,13,16,20,21,23,29,30,31,32,1.2,0.8,0.9*39
MSG 0 46803.095 $GPGSV,3,3,12,29,03,031,44,30,59,048,50,31,27,099,49,32,06,214,43*7B
MSG 0 46803.241 $PGRME,4.8,M,5.3,M,7.2,M*21
MSG 0 46803.301 $PGRMB,0.0,200,,,,K,,N,N*31
MSG 0 46803.361 $PGRMM,WGS 84*06
MSG 0 46803.680 $GPRMC,170124,A,4305.6396,N,07038.9201,W,000.3,153.5,030712,016.1,W*79
POS 0 46884.000 365823.514 4772571.745
QUA 0 46884.000 7 9.200 0.800 11.000 1.000 0.000 0.000 0.000
RAW 0 46884.000 4 430563.96000 -703892.01000 -24.30000 170124.00000
MSG 0 46803.830 $GPGGA,170124,4305.6396,N,07038.9201,W,1,11,0.8,8.1,M,-32.4,M,,*76
MSG 0 46803.971 $GPGSA,A,3,,06,10,13,16,20,21,23,29,30,31,32,1.2,0.8,0.9*39
MSG 0 46804.098 $GPGSV,3,1,12,03,41,177,32,06,49,154,51,10,06,322,00,13,33,313,46*74
MSG 0 46804.244 $PGRME,4.8,M,5.3,M,7.2,M*21
MSG 0 46804.304 $PGRMB,0.0,200,,,,K,,N,N*31
MSG 0 46804.365 $PGRMM,WGS 84*06
MSG 0 46804.685 $GPRMC,170125,A,4305.6396,N,07038.9201,W,000.3,153.7,030712,016.1,W*7A
POS 0 46885.000 365823.514 4772571.745
QUA 0 46885.000 7 9.200 0.800 11.000 1.000 0.000 0.000 0.000
RAW 0 46885.000 4 430563.96000 -703892.01000 -24.50000 170125.00000
MSG 0 46804.835 $GPGGA,170125,4305.6396,N,07038.9201,W,1,11,0.8,7.9,M,-32.4,M,,*70
MSG 0 46804.976 $GPGSA,A,3,,06,10,13,16,20,21,23,29,30,31,32,1.2,0.8,0.9*39
MSG 0 46805.104 $GPGSV,3,2,12,16,83,330,48,20,08,237,36,21,05,077,41,23,60,279,49*77
MSG 0 46805.249 $PGRME,4.8,M,5.3,M,7.2,M*21
MSG 0 46805.310 $PGRMB,0.0,200,,,,K,,N,N*31
MSG 0 46805.370 $PGRMM,WGS 84*06
MSG 0 46805.682 $GPRMC,170126,A,4305.6395,N,07038.9199,W,000.5,146.9,030712,016.1,W*74
POS 0 46886.000 365823.782 4772571.554
QUA 0 46886.000 7 9.200 0.800 10.000 1.000 0.000 0.000 0.000
RAW 0 46886.000 4 430563.95000 -703891.99000 -24.50000 170126.00000
MSG 0 46805.832 $GPGGA,170126,4305.6395,N,07038.9199,W,1,10,0.8,7.9,M,-32.4,M,,*73
MSG 0 46805.973 $GPGSA,A,3,,06,,13,16,20,21,23,29,30,31,32,1.2,0.8,0.9*38
MSG 0 46806.096 $GPGSV,3,3,12,29,03,031,44,30,59,048,50,31,27,099,48,32,06,214,44*7D
MSG 0 46806.242 $PGRME,4.8,M,5.3,M,7.2,M*21
MSG 0 46806.302 $PGRMB,0.0,200,,,,K,,N,N*31
MSG 0 46806.363 $PGRMM,WGS 84*06
MSG 0 46806.682 $GPRMC,170127,A,4305.6395,N,07038.9200,W,000.3,162.2,030712,016.1,W*7D
POS 0 46887.000 365823.646 4772571.557
QUA 0 46887.000 7 9.200 0.800 10.000 1.000 0.000 0.000 0.000
RAW 0 46887.000 4 430563.95000 -703892.00000 -24.20000 170127.00000
MSG 0 46806.832 $GPGGA,170127,4305.6395,N,07038.9200,W,1,10,0.8,8.2,M,-32.4,M,,*75
MSG 0 46806.974 $GPGSA,A,3,,06,,13,16,20,21,23,29,30,31,32,1.2,0.8,0.9*38
MSG 0 46807.096 $GPGSV,3,1,12,03,41,177,32,06,49,154,50,10,06,322,00,13,33,313,46*75
MSG 0 46807.242 $PGRME,4.8,M,5.3,M,7.2,M*21
MSG 0 46807.303 $PGRMB,0.0,200,,,,K,,N,N*31
MSG 0 46807.363 $PGRMM,WGS 84*06
MSG 0 46807.672 $GPRMC,170128,A,4305.6393,N,07038.9197,W,000.6,136.0,030712,016.1,W*7F
POS 0 46888.000 365824.046 4772571.179
QUA 0 46888.000 7 9.200 0.800 10.000 1.000 0.000 0.000 0.000
RAW 0 46888.000 4 430563.93000 -703891.97000 -24.30000 170128.00000
MSG 0 46807.822 $GPGGA,170128,4305.6393,N,07038.9197,W,1,10,0.8,8.1,M,-32.4,M,,*72
MSG 0 46807.963 $GPGSA,A,3,,06,,13,16,20,21,23,29,30,31,32,1.2,0.8,0.9*38
MSG 0 46808.086 $GPGSV,3,2,12,16,83,330,48,20,08,237,38,21,05,077,40,23,60,279,49*78
MSG 0 46808.232 $PGRME,4.8,M,5.3,M,7.2,M*21
MSG 0 46808.292 $PGRMB,0.0,200,,,,K,,N,N*31
MSG 0 46808.353 $PGRMM,WGS 84*06
MSG 0 46808.672 $GPRMC,170129,A,4305.6392,N,07038.9198,W,000.5,158.4,030712,016.1,W*7F
POS 0 46889.000 365823.907 4772570.996
QUA 0 46889.000 7 9.200 0.800 10.000 1.000 0.000 0.000 0.000
RAW 0 46889.000 4 430563.92000 -703891.98000 -24.20000 170129.00000
MSG 0 46808.822 $GPGGA,170129,4305.6392,N,07038.9198,W,1,10,0.8,8.2,M,-32.4,M,,*7E
MSG 0 46808.963 $GPGSA,A,3,,06,,13,16,20,21,23,29,30,31,32,1.2,0.8,0.9*38
MSG 0 46809.086 $GPGSV,3,3,12,29,03,031,45,30,59,048,51,31,27,099,47,32,06,214,44*72
MSG 0 46809.232 $PGRME,4.8,M,5.3,M,7.2,M*21
MSG 0 46809.292 $PGRMB,0.0,200,,,,K,,N,N*31
MSG 0 46809.352 $PGRMM,WGS 84*06
MSG 0 46809.681 $GPRMC,170130,A,4305.6393,N,07038.9197,W,000.2,114.4,030712,016.1,W*76
POS 0 46890.000 365824.046 4772571.179
QUA 0 46890.000 7 9.200 0.800 10.000 1.000 0.000 0.000 0.000
RAW 0 46890.000 4 430563.93000 -703891.97000 -24.10000 170130.00000
MSG 0 46809.831 $GPGGA,170130,4305.6393,N,07038.9197,W,1,10,0.8,8.3,M,-32.4,M,,*79
MSG 0 46809.972 $GPGSA,A,3,,06,,13,16,20,21,23,29,30,31,32,1.2,0.8,0.9*38
MSG 0 46810.095 $GPGSV,3,1,12,03,41,177,32,06,49,154,50,10,06,322,00,13,33,313,46*75
MSG 0 46810.241 $PGRME,4.8,M,5.3,M,7.2,M*21
MSG 0 46810.301 $PGRMB,0.0,200,,,,K,,N,N*31
MSG 0 46810.362 $PGRMM,WGS 84*06
MSG 0 46810.680 $GPRMC,170131,A,4305.6392,N,07038.9196,W,000.3,141.0,030712,016.1,W*72
POS 0 46891.000 365824.178 4772570.991
QUA 0 46891.000 7 9.200 0.800 10.000 1.000 0.000 0.000 0.000
RAW 0 46891.000 4 430563.92000 -703891.96000 -24.30000 170131.00000
MSG 0 46810.830 $GPGGA,170131,4305.6392,N,07038.9196,W,1,10,0.8,8.1,M,-32.4,M,,*7A
MSG 0 46810.972 $GPGSA,A,3,,06,,13,16,20,21,23,29,30,31,32,1.2,0.8,0.9*38
MSG 0 46811.095 $GPGSV,3,2,12,16,83,330,48,20,08,237,39,21,05,077,40,23,60,279,49*79
MSG 0 46811.240 $PGRME,4.8,M,5.3,M,7.2,M*21
MSG 0 46811.301 $PGRMB,0.0,200,,,,K,,N,N*31
MSG 0 46811.361 $PGRMM,WGS 84*06
MSG 0 46811.666 $GPRMC,170132,A,4305.6391,N,07038.9195,W,000.5,141.1,030712,016.1,W*76
POS 0 46892.000 365824.310 4772570.803
QUA 0 46892.000 7 9.200 0.800 10.000 1.000 0.000 0.000 0.000
RAW 0 46892.000 4 430563.91000 -703891.95000 -24.50000 170132.00000
MSG 0 46811.816 $GPGGA,170132,4305.6391,N,07038.9195,W,1,10,0.8,7.9,M,-32.4,M,,*7E
MSG 0 46811.957 $GPGSA,A,3,,06,,13,16,20,21,23,29,30,31,32,1.2,0.8,0.9*38
MSG 0 46812.080 $GPGSV,3,3,12,29,03,031,46,30,59,048,50,31,27,099,46,32,06,214,44*71
MSG 0 46812.226 $PGRME,4.8,M,5.3,M,7.2,M*21
MSG 0 46812.286 $PGRMB,0.0,200,,,,K,,N,N*31
MSG 0 46812.347 $PGRMM,WGS 84*06
MSG 0 46812.666 $GPRMC,170133,A,4305.6391,N,07038.9193,W,000.4,119.7,030712,016.1,W*7B
POS 0 46893.000 365824.581 4772570.798
QUA 0 46893.000 7 9.200 0.800 10.000 1.000 0.000 0.000 0.000
RAW 0 46893.000 4 430563.91000 -703891.93000 -24.50000 170133.00000
MSG 0 46812.816 $GPGGA,170133,4305.6391,N,07038.9193,W,1,10,0.8,7.9,M,-32.4,M,,*79
MSG 0 46812.958 $GPGSA,A,3,,06,,13,16,20,21,23,29,30,31,32,1.2,0.8,0.9*38
MSG 0 46813.081 $GPGSV,3,1,12,03,41,177,32,06,49,154,50,10,06,322,37,13,33,313,46*71
MSG 0 46813.227 $PGRME,4.8,M,5.3,M,7.2,M*21
MSG 0 46813.287 $PGRMB,0.0,200,,,,K,,N,N*31
MSG 0 46813.347 $PGRMM,WGS 84*06
MSG 0 46813.667 $GPRMC,170134,A,4305.6390,N,07038.9193,W,000.4,140.6,030712,016.1,W*70
POS 0 46894.000 365824.577 4772570.613
QUA 0 46894.000 7 9.200 0.800 11.000 1.000 0.000 0.000 0.000
RAW 0 46894.000 4 430563.90000 -703891.93000 -24.30000 170134.00000
MSG 0 46813.817 $GPGGA,170134,4305.6390,N,07038.9193,W,1,11,0.8,8.1,M,-32.4,M,,*79
MSG 0 46813.958 $GPGSA,A,3,,06,10,13,16,20,21,23,29,30,31,32,1.2,0.8,0.9*39
MSG 0 46814.085 $GPGSV,3,2,12,16,83,330,48,20,08,237,40,21,05,077,40,23,60,279,49*77
MSG 0 46814.231 $PGRME,4.8,M,5.3,M,7.2,M*21
MSG 0 46814.291 $PGRMT,GPS 17-HVS Ver. 2.80,P,P,R,R,P,,40,R*0F
MSG 0 46814.391 $PGRMB,0.0,200,,,,K,,N,N*31
MSG 0 46814.452 $PGRMM,WGS 84*06
MSG 0 46814.666 $GPRMC,170135,A,4305.6389,N,07038.9191,W,000.6,138.1,030712,016.1,W*71
POS 0 46895.000 365824.845 4772570.423
QUA 0 46895.000 7 9.200 0.800 11.000 1.000 0.000 0.000 0.000
RAW 0 46895.000 4 430563.89000 -703891.91000 -24.20000 170135.00000
MSG 0 46814.816 $GPGGA,170135,4305.6389,N,07038.9191,W,1,11,0.8,8.2,M,-32.4,M,,*71
MSG 0 46814.957 $GPGSA,A,3,,06,10,13,16,20,21,23,29,30,31,32,1.1,0.8,0.9*3A
MSG 0 46815.084 $GPGSV,3,3,12,29,02,031,46,30,59,048,50,31,27,099,46,32,06,214,44*70
MSG 0 46815.230 $PGRME,4.8,M,5.3,M,7.2,M*21
MSG 0 46815.290 $PGRMB,0.0,200,,,,K,,N,N*31
MSG 0 46815.351 $PGRMM,WGS 84*06
MSG 0 46815.698 $GPRMC,170136,A,4305.6388,N,07038.9192,W,000.4,174.1,030712,016.1,W*7A
POS 0 46896.000 365824.706 4772570.240
QUA 0 46896.000 7 9.200 0.800 11.000 1.000 0.000 0.000 0.000
RAW 0 46896.000 4 430563.88000 -703891.92000 -24.10000 170136.00000
MSG 0 46815.848 $GPGGA,170136,4305.6388,N,07038.9192,W,1,11,0.8,8.3,M,-32.4,M,,*71
MSG 0 46815.990 $GPGSA,A,3,,06,10,13,16,20,21,23,29,30,31,32,1.1,0.8,0.9*3A
MSG 0 46816.117 $GPGSV,3,1,12,03,41,177,32,06,49,154,50,10,06,322,36,13,33,313,45*73
MSG 0 46816.262 $PGRME,4.8,M,5.3,M,7.2,M*21
MSG 0 46816.323 $PGRMB,0.0,200,,,,K,,N,N*31
MSG 0 46816.383 $PGRMM,WGS 84*06
MSG 0 46816.683 $GPRMC,170137,A,4305.6388,N,07038.9191,W,000.2,174.1,030712,016.1,W*7E
POS 0 46897.000 365824.841 4772570.237
QUA 0 46897.000 7 9.200 0.800 11.000 1.000 0.000 0.000 0.000
RAW 0 46897.000 4 430563.88000 -703891.91000 -24.20000 170137.00000
MSG 0 46816.833 $GPGGA,170137,4305.6388,N,07038.9191,W,1,11,0.8,8.2,M,-32.4,M,,*72
MSG 0 46816.975 $GPGSA,A,3,,06,10,13,16,20,21,23,29,30,31,32,1.2,0.8,0.9*39
MSG 0 46817.102 $GPGSV,3,2,12,16,83,330,48,20,08,237,39,21,05,077,40,23,60,279,49*79
MSG 0 46817.248 $PGRME,4.8,M,5.3,M,7.2,M*21
MSG 0 46817.308 $PGRMB,0.0,200,,,,K,,N,N*31
MSG 0 46817.368 $PGRMM,WGS 84*06
MSG 0 46817.667 $GPRMC,170138,A,4305.6387,N,07038.9191,W,000.3,152.8,030712,016.1,W*72
POS 0 46898.000 365824.838 4772570.052
QUA 0 46898.000 7 9.200 0.800 11.000 1.000 0.000 0.000 0.000
RAW 0 46898.000 4 430563.87000 -703891.91000 -24.30000 170138.00000
MSG 0 46817.817 $GPGGA,170138,4305.6387,N,07038.9191,W,1,11,0.8,8.1,M,-32.4,M,,*71
MSG 0 46817.958 $GPGSA,A,3,,06,10,13,16,20,21,23,29,30,31,32,1.2,0.8,0.9*39
MSG 0 46818.085 $GPGSV,3,3,12,29,02,031,45,30,58,049,50,31,27,099,46,32,06,214,44*73
MSG 0 46818.231 $PGRME,4.8,M,5.3,M,7.2,M*21
MSG 0 46818.291 $PGRMB,0.0,200,,,,K,,N,N*31
MSG 0 46818.352 $PGRMM,WGS 84*06
MSG 0 46818.666 $GPRMC,170139,A,4305.6385,N,07038.9189,W,000.7,153.2,030712,016.1,W*77
POS 0 46899.000 365825.102 4772569.677
QUA 0 46899.000 7 9.200 0.800 11.000 1.000 0.000 0.000 0.000
RAW 0 46899.000 4 430563.85000 -703891.89000 -24.30000 170139.00000
MSG 0 46818.816 $GPGGA,170139,4305.6385,N,07038.9189,W,1,11,0.8,8.1,M,-32.4,M,,*7B
MSG 0 46818.957 $GPGSA,A,3,,06,10,13,16,20,21,23,29,30,31,32,1.2,0.8,0.9*39
MSG 0 46819.084 $GPGSV,3,1,12,03,41,177,32,06,49,154,50,10,06,322,35,13,33,313,46*73
MSG 0 46819.230 $PGRME,4.8,M,5.3,M,7.2,M*21
MSG 0 46819.290 $PGRMB,0.0,200,,,,K,,N,N*31
MSG 0 46819.351 $PGRMM,WGS 84*06
MSG 0 46819.666 $GPRMC,170140,A,4305.6385,N,07038.9187,W,000.5,122.3,030712,016.1,W*72
POS 0 46900.000 365825.373 4772569.671
QUA 0 46900.000 7 9.200 0.800 11.000 1.000 0.000 0.000 0.000
RAW 0 46900.000 4 430563.85000 -703891.87000 -24.00000 170140.00000
MSG 0 46819.816 $GPGGA,170140,4305.6385,N,07038.9187,W,1,11,0.8,8.4,M,-32.4,M,,*7E
MSG 0 46819.957 $GPGSA,A,3,,06,10,13,16,20,21,23,29,30,31,32,1.2,0.8,0.9*39
MSG 0 46820.084 $GPGSV,3,2,12,16,83,330,47,20,08,237,40,21,05,077,41,23,60,279,49*79
MSG 0 46820.230 $PGRME,4.8,M,5.4,M,7.3,M*27
MSG 0 46820.290 $PGRMB,0.0,200,,,,K,,N,N*31
MSG 0 46820.351 $PGRMM,WGS 84*06
MSG 0 46820.685 $GPRMC,170141,A,4305.6385,N,07038.9187,W,000.4,145.4,030712,016.1,W*74
POS 0 46901.000 365825.373 4772569.671
QUA 0 46901.000 7 9.200 0.800 11.000 1.000 0.000 0.000 0.000
RAW 0 46901.000 4 430563.85000 -703891.87000 -24.00000 170141.00000
MSG 0 46820.835 $GPGGA,170141,4305.6385,N,07038.9187,W,1,11,0.8,8.4,M,-32.4,M,,*7F
MSG 0 46820.976 $GPGSA,A,3,,06,10,13,16,20,21,23,29,30,31,32,1.2,0.8,0.9*39
MSG 0 46821.103 $GPGSV,3,3,12,29,02,031,45,30,58,049,50,31,27,100,46,32,06,214,44*72
MSG 0 46821.249 $PGRME,4.8,M,5.3,M,7.2,M*21
MSG 0 46821.309 $PGRMB,0.0,200,,,,K,,N,N*31
MSG 0 46821.370 $PGRMM,WGS 84*06
MSG 0 46821.666 $GPRMC,170142,A,4305.6382,N,07038.9185,W,000.8,147.5,030712,016.1,W*7D
POS 0 46902.000 365825.633 4772569.111
QUA 0 46902.000 7 9.200 0.800 11.000 1.000 0.000 0.000 0.000
RAW 0 46902.000 4 430563.82000 -703891.85000 -24.00000 170142.00000
MSG 0 46821.816 $GPGGA,170142,4305.6382,N,07038.9185,W,1,11,0.8,8.4,M,-32.4,M,,*79
MSG 0 46821.958 $GPGSA,A,3,,06,10,13,16,20,21,23,29,30,31,32,1.1,0.8,0.9*3A
MSG 0 46822.085 $GPGSV,3,1,12,03,41,177,32,06,49,154,50,10,06,322,35,13,33,313,46*73
MSG 0 46822.231 $PGRME,4.8,M,5.3,M,7.2,M*21
MSG 0 46822.291 $PGRMB,0.0,200,,,,K,,N,N*31
MSG 0 46822.351 $PGRMM,WGS 84*06
MSG 0 46822.687 $GPRMC,170143,A,4305.6382,N,07038.9185,W,000.4,150.8,030712,016.1,W*7B
POS 0 46903.000 365825.633 4772569.111
QUA 0 46903.000 7 9.200 0.800 11.000 1.000 0.000 0.000 0.000
RAW 0 46903.000 4 430563.82000 -703891.85000 -23.90000 170143.00000
MSG 0 46822.836 $GPGGA,170143,4305.6382,N,07038.9185,W,1,11,0.8,8.5,M,-32.4,M,,*79
MSG 0 46822.978 $GPGSA,A,3,,06,10,13,16,20,21,23,29,30,31,32,1.1,0.8,0.9*3A
MSG 0 46823.105 $GPGSV,3,2,12,16,83,330,48,20,08,237,39,21,05,077,42,23,60,279,49*7B
MSG 0 46823.251 $PGRME,4.8,M,5.3,M,7.2,M*21
MSG 0 46823.311 $PGRMB,0.0,200,,,,K,,N,N*31
MSG 0 46823.372 $PGRMM,WGS 84*06
MSG 0 46823.668 $GPRMC,170144,A,4305.6383,N,07038.9184,W,000.2,150.8,030712,016.1,W*7A
POS 0 46904.000 365825.773 4772569.293
QUA 0 46904.000 7 9.200 0.800 11.000 1.000 0.000 0.000 0.000
RAW 0 46904.000 4 430563.83000 -703891.84000 -23.80000 170144.00000
MSG 0 46823.818 $GPGGA,170144,4305.6383,N,07038.9184,W,1,11,0.8,8.6,M,-32.4,M,,*7D
MSG 0 46823.959 $GPGSA,A,3,,06,10,13,16,20,21,23,29,30,31,32,1.2,0.8,0.9*39
MSG 0 46824.086 $GPGSV,3,3,12,29,02,031,45,30,58,049,50,31,27,100,46,32,06,214,44*72
MSG 0 46824.232 $PGRME,4.8,M,5.3,M,7.2,M*21
MSG 0 46824.292 $PGRMB,0.0,200,,,,K,,N,N*31
MSG 0 46824.353 $PGRMM,WGS 84*06
MSG 0 46824.672 $GPRMC,170145,A,4305.6381,N,07038.9183,W,000.5,151.5,030712,016.1,W*75
POS 0 46905.000 365825.901 4772568.920
QUA 0 46905.000 7 9.200 0.800 11.000 1.000 0.000 0.000 0.000
RAW 0 46905.000 4 430563.81000 -703891.83000 -24.00000 170145.00000
MSG 0 46824.822 $GPGGA,170145,4305.6381,N,07038.9183,W,1,11,0.8,8.4,M,-32.4,M,,*7B
MSG 0 46824.963 $GPGSA,A,3,,06,10,13,16,20,21,23,29,30,31,32,1.2,0.8,0.9*39
MSG 0 46825.090 $GPGSV,3,1,12,03,41,177,32,06,49,154,49,10,06,322,34,13,33,313,46*7A
MSG 0 46825.236 $PGRME,4.8,M,5.3,M,7.2,M*21
MSG 0 46825.296 $PGRMB,0.0,200,,,,K,,N,N*31
MSG 0 46825.357 $PGRMM,WGS 84*06
MSG 0 46825.668 $GPRMC,170146,A,4305.6379,N,07038.9181,W,000.7,149.1,030712,016.1,W*7C
POS 0 46906.000 365826.165 4772568.545
QUA 0 46906.000 7 9.200 0.800 11.000 1.000 0.000 0.000 0.000
RAW 0 46906.000 4 430563.79000 -703891.81000 -24.10000 170146.00000
MSG 0 46825.818 $GPGGA,170146,4305.6379,N,07038.9181,W,1,11,0.8,8.3,M,-32.4,M,,*7A
MSG 0 46825.959 $GPGSA,A,3,,06,10,13,16,20,21,23,29,30,31,32,1.2,0.8,0.9*39
MSG 0 46826.086 $GPGSV,3,2,12,16,83,330,48,20,08,237,39,21,05,077,42,23,60,279,49*7B
MSG 0 46826.232 $PGRME,4.8,M,5.3,M,7.2,M*21
MSG 0 46826.292 $PGRMB,0.0,200,,,,K,,N,N*31
MSG 0 46826.353 $PGRMM,WGS 84*06
MSG 0 46826.666 $GPRMC,170147,A,4305.6380,N,07038.9181,W,000.2,123.6,030712,016.1,W*75
POS 0 46907.000 365826.169 4772568.730
QUA 0 46907.000 7 9.200 0.800 11.000 1.000 0.000 0.000 0.000
RAW 0 46907.000 4 430563.80000 -703891.81000 -23.70000 170147.00000
MSG 0 46826.816 $GPGGA,170147,4305.6380,N,07038.9181,W,1,11,0.8,8.7,M,-32.4,M,,*79
MSG 0 46826.958 $GPGSA,A,3,,06,10,13,16,20,21,23,29,30,31,32,1.2,0.8,0.9*39
MSG 0 46827.085 $GPGSV,3,3,12,29,02,031,45,30,58,049,50,31,27,100,46,32,05,213,44*76
MSG 0 46827.230 $PGRME,4.8,M,5.3,M,7.2,M*21
MSG 0 46827.291 $PGRMB,0.0,200,,,,K,,N,N*31
MSG 0 46827.351 $PGRMM,WGS 84*06
MSG 0 46827.663 $GPRMC,170148,A,4305.6378,N,07038.9181,W,000.4,144.0,030712,016.1,W*7C
POS 0 46908.000 365826.161 4772568.360
QUA 0 46908.000 7 9.200 0.800 11.000 1.000 0.000 0.000 0.000
RAW 0 46908.000 4 430563.78000 -703891.81000 -23.60000 170148.00000
MSG 0 46827.813 $GPGGA,170148,4305.6378,N,07038.9181,W,1,11,0.8,8.8,M,-32.4,M,,*7E
MSG 0 46827.954 $GPGSA,A,3,,06,10,13,16,20,21,23,29,30,31,32,1.2,0.8,0.9*39
MSG 0 46828.081 $GPGSV,3,1,12,03,41,177,32,06,49,154,49,10,06,322,34,13,33,313,46*7A
MSG 0 46828.227 $PGRME,4.8,M,5.3,M,7.2,M*21
MSG 0 46828.288 $PGRMB,0.0,200,,,,K,,N,N*31
MSG 0 46828.348 $PGRMM,WGS 84*06
MSG 0 46828.667 $GPRMC,170149,A,4305.6376,N,07038.9179,W,000.7,158.9,030712,016.1,W*73
POS 0 46909.000 365826.426 4772567.984
QUA 0 46909.000 7 9.200 0.800 11.000 1.000 0.000 0.000 0.000
RAW 0 46909.000 4 430563.76000 -703891.79000 -23.70000 170149.00000
MSG 0 46828.817 $GPGGA,170149,4305.6376,N,07038.9179,W,1,11,0.8,8.7,M,-32.4,M,,*79
MSG 0 46828.959 $GPGSA,A,3,,06,10,13,16,20,21,23,29,30,31,32,1.2,0.8,0.9*39
MSG 0 46829.086 $GPGSV,3,2,12,16,83,330,48,20,08,237,40,21,05,077,41,23,60,279,49*76
MSG 0 46829.232 $PGRME,4.8,M,5.3,M,7.2,M*21
MSG 0 46829.292 $PGRMB,0.0,200,,,,K,,N,N*31
MSG 0 46829.352 $PGRMM,WGS 84*06
MSG 0 46829.666 $GPRMC,170150,A,4305.6377,N,07038.9180,W,000.2,162.5,030712,016.1,W*7C
POS 0 46910.000 365826.294 4772568.172
QUA 0 46910.000 7 9.200 0.800 11.000 1.000 0.000 0.000 0.000
RAW 0 46910.000 4 430563.77000 -703891.80000 -23.70000 170150.00000
MSG 0 46829.816 $GPGGA,170150,4305.6377,N,07038.9180,W,1,11,0.8,8.7,M,-32.4,M,,*76
MSG 0 46829.957 $GPGSA,A,3,,06,10,13,16,20,21,23,29,30,31,32,1.1,0.8,0.9*3A
MSG 0 46830.084 $GPGSV,3,3,12,29,02,031,45,30,58,049,50,31,27,100,46,32,05,213,44*76
MSG 0 46830.230 $PGRME,4.8,M,5.3,M,7.2,M*21
MSG 0 46830.291 $PGRMB,0.0,200,,,,K,,N,N*31
MSG 0 46830.351 $PGRMM,WGS 84*06
MSG 0 46830.674 $GPRMC,170151,A,4305.6377,N,07038.9179,W,000.0,162.5,030712,016.1,W*79
POS 0 46911.000 365826.429 4772568.169
QUA 0 46911.000 7 9.200 0.800 11.000 1.000 0.000 0.000 0.000
RAW 0 46911.000 4 430563.77000 -703891.79000 -23.70000 170151.00000
MSG 0 46830.824 $GPGGA,170151,4305.6377,N,07038.9179,W,1,11,0.8,8.7,M,-32.4,M,,*71
MSG 0 46830.966 $GPGSA,A,3,,06,10,13,16,20,21,23,29,30,31,32,1.2,0.8,0.9*39
MSG 0 46831.093 $GPGSV,3,1,12,03,41,177,32,06,49,154,49,10,06,322,33,13,33,313,46*7D
MSG 0 46831.239 $PGRME,4.8,M,5.3,M,7.2,M*21
MSG 0 46831.299 $PGRMB,0.0,200,,,,K,,N,N*31
MSG 0 46831.359 $PGRMM,WGS 84*06
MSG 0 46831.683 $GPRMC,170152,A,4305.6376,N,07038.9179,W,000.5,153.1,030712,016.1,W*78
POS 0 46912.000 365826.426 4772567.984
QUA 0 46912.000 7 9.200 0.800 11.000 1.000 0.000 0.000 0.000
RAW 0 46912.000 4 430563.76000 -703891.79000 -24.00000 170152.00000
MSG 0 46831.833 $GPGGA,170152,4305.6376,N,07038.9179,W,1,11,0.8,8.4,M,-32.4,M,,*70
MSG 0 46831.975 $GPGSA,A,3,,06,10,13,16,20,21,23,29,30,31,32,1.2,0.8,0.9*39
MSG 0 46832.102 $GPGSV,3,2,12,16,83,330,48,20,08,237,38,21,05,077,41,23,60,279,49*79
MSG 0 46832.248 $PGRME,4.9,M,5.3,M,7.2,M*20
MSG 0 46832.308 $PGRMB,0.0,200,,,,K,,N,N*31
MSG 0 46832.368 $PGRMM,WGS 84*06
MSG 0 46832.665 $GPRMC,170153,A,4305.6372,N,07038.9174,W,001.0,143.5,030712,016.1,W*71
POS 0 46913.000 365827.089 4772567.231
QUA 0 46913.000 7 9.200 0.800 11.000 1.000 0.000 0.000 0.000
RAW 0 46913.000 4 430563.72000 -703891.74000 -24.30000 170153.00000
MSG 0 46832.815 $GPGGA,170153,4305.6372,N,07038.9174,W,1,11,0.8,8.1,M,-32.4,M,,*7D
MSG 0 46832.957 $GPGSA,A,3,,06,10,13,16,20,21,23,29,30,31,32,1.2,0.8,0.9*39
MSG 0 46833.084 $GPGSV,3,3,12,29,02,031,45,30,58,049,50,31,27,100,47,32,05,213,43*70
MSG 0 46833.229 $PGRME,4.9,M,5.3,M,7.2,M*20
MSG 0 46833.290 $PGRMB,0.0,200,,,,K,,N,N*31
MSG 0 46833.350 $PGRMM,WGS 84*06
MSG 0 46833.664 $GPRMC,170154,A,4305.6372,N,07038.9173,W,000.5,130.2,030712,016.1,W*76
POS 0 46914.000 365827.225 4772567.228
QUA 0 46914.000 7 9.200 0.800 11.000 1.000 0.000 0.000 0.000
RAW 0 46914.000 4 430563.72000 -703891.73000 -23.90000 170154.00000
MSG 0 46833.814 $GPGGA,170154,4305.6372,N,07038.9173,W,1,11,0.8,8.5,M,-32.4,M,,*79
MSG 0 46833.955 $GPGSA,A,3,,06,10,13,16,20,21,23,29,30,31,32,1.2,0.8,0.9*39
MSG 0 46834.082 $GPGSV,3,1,12,03,41,177,32,06,49,154,49,10,06,322,33,13,33,313,46*7D
MSG 0 46834.228 $PGRME,4.8,M,5.3,M,7.2,M*21
MSG 0 46834.289 $PGRMB,0.0,200,,,,K,,N,N*31
MSG 0 46834.349 $PGRMM,WGS 84*06
MSG 0 46834.665 $GPRMC,170155,A,4305.6372,N,07038.9173,W,000.5,136.2,030712,016.1,W*71
POS 0 46915.000 365827.225 4772567.228
QUA 0 46915.000 7 9.200 0.800 11.000 1.000 0.000 0.000 0.000
RAW 0 46915.000 4 430563.72000 -703891.73000 -23.60000 170155.00000
MSG 0 46834.815 $GPGGA,170155,4305.6372,N,07038.9173,W,1,11,0.8,8.8,M,-32.4,M,,*75
MSG 0 46834.957 $GPGSA,A,3,,06,10,13,16,20,21,23,29,30,31,32,1.2,0.8,0.9*39
MSG 0 46835.084 $GPGSV,3,2,12,16,83,330,48,20,08,237,41,21,05,077,41,23,60,279,49*77
MSG 0 46835.229 $PGRME,4.8,M,5.3,M,7.2,M*21
MSG 0 46835.290 $PGRMB,0.0,200,,,,K,,N,N*31
MSG 0 46835.350 $PGRMM,WGS 84*06
MSG 0 46835.688 $GPRMC,170156,A,4305.6370,N,07038.9172,W,000.5,148.2,030712,016.1,W*78
POS 0 46916.000 365827.353 4772566.855
QUA 0 46916.000 7 9.200 0.800 11.000 1.000 0.000 0.000 0.000
RAW 0 46916.000 4 430563.70000 -703891.72000 -23.40000 170156.00000
MSG 0 46835.838 $GPGGA,170156,4305.6370,N,07038.9172,W,1,11,0.8,9.0,M,-32.4,M,,*7C
MSG 0 46835.980 $GPGSA,A,3,,06,10,13,16,20,21,23,29,30,31,32,1.2,0.8,0.9*39
MSG 0 46836.107 $GPGSV,3,3,12,29,02,031,46,30,58,049,50,31,27,100,47,32,05,213,43*73
MSG 0 46836.252 $PGRME,4.8,M,5.3,M,7.2,M*21
MSG 0 46836.313 $PGRMB,0.0,200,,,,K,,N,N*31
MSG 0 46836.373 $PGRMM,WGS 84*06
MSG 0 46836.680 $GPRMC,170157,A,4305.6370,N,07038.9173,W,000.3,173.4,030712,016.1,W*70
POS 0 46917.000 365827.218 4772566.858
QUA 0 46917.000 7 9.200 0.800 11.000 1.000 0.000 0.000 0.000
RAW 0 46917.000 4 430563.70000 -703891.73000 -23.80000 170157.00000
MSG 0 46836.830 $GPGGA,170157,4305.6370,N,07038.9173,W,1,11,0.8,8.6,M,-32.4,M,,*7B
MSG 0 46836.972 $GPGSA,A,3,,06,10,13,16,20,21,23,29,30,31,32,1.2,0.8,0.9*39
MSG 0 46837.099 $GPGSV,3,1,12,03,41,176,32,06,49,154,49,10,06,322,00,13,33,313,46*7C
MSG 0 46837.244 $PGRME,4.9,M,5.4,M,7.2,M*27
MSG 0 46837.305 $PGRMB,0.0,200,,,,K,,N,N*31
MSG 0 46837.365 $PGRMM,WGS 84*06
MSG 0 46837.685 $GPRMC,170158,A,4305.6370,N,07038.9172,W,000.1,173.4,030712,016.1,W*7C
POS 0 46918.000 365827.353 4772566.855
QUA 0 46918.000 7 9.200 0.800 11.000 1.000 0.000 0.000 0.000
RAW 0 46918.000 4 430563.70000 -703891.72000 -24.10000 170158.00000
MSG 0 46837.835 $GPGGA,170158,4305.6370,N,07038.9172,W,1,11,0.8,8.3,M,-32.4,M,,*70
MSG 0 46837.977 $GPGSA,A,3,,06,10,13,16,20,21,23,29,30,31,32,1.2,0.8,0.9*39
MSG 0 46838.104 $GPGSV,3,2,12,16,83,330,48,20,08,237,40,21,05,077,41,23,60,279,49*76
MSG 0 46838.249 $PGRME,4.9,M,5.4,M,7.2,M*27
MSG 0 46838.310 $PGRMB,0.0,200,,,,K,,N,N*31
MSG 0 46838.370 $PGRMM,WGS 84*06
MSG 0 46838.666 $GPRMC,170159,A,4305.6369,N,07038.9170,W,000.5,147.1,030712,016.1,W*71
POS 0 46919.000 365827.621 4772566.665
QUA 0 46919.000 7 9.200 0.800 11.000 1.000 0.000 0.000 0.000
RAW 0 46919.000 4 430563.69000 -703891.70000 -24.20000 170159.00000
MSG 0 46838.815 $GPGGA,170159,4305.6369,N,07038.9170,W,1,11,0.8,8.2,M,-32.4,M,,*7A
MSG 0 46838.957 $GPGSA,A,3,,06,10,13,16,20,21,23,29,30,31,32,1.2,0.8,0.9*39
MSG 0 46839.084 $GPGSV,3,3,12,29,02,031,46,30,58,049,49,31,27,100,47,32,05,213,43*7B
MSG 0 46839.230 $PGRME,4.9,M,5.4,M,7.2,M*27
MSG 0 46839.290 $PGRMB,0.0,200,,,,K,,N,N*31
MSG 0 46839.351 $PGRMM,WGS 84*06
MSG 0 46839.665 $GPRMC,170200,A,4305.6366,N,07038.9168,W,000.8,146.7,030712,016.1,W*72
POS 0 46920.000 365827.881 4772566.104
QUA 0 46920.000 7 9.200 0.800 11.000 1.000 0.000 0.000 0.000
RAW 0 46920.000 4 430563.66000 -703891.68000 -24.00000 170200.00000
MSG 0 46839.815 $GPGGA,170200,4305.6366,N,07038.9168,W,1,11,0.8,8.4,M,-32.4,M,,*75
MSG 0 46839.957 $GPGSA,A,3,,06,10,13,16,20,21,23,29,30,31,32,1.2,0.8,0.9*39
MSG 0 46840.084 $GPGSV,3,1,12,03,41,176,32,06,49,154,49,10,06,322,34,13,33,313,47*7A
MSG 0 46840.229 $PGRME,4.8,M,5.3,M,7.2,M*21
MSG 0 46840.290 $PGRMB,0.0,200,,,,K,,N,N*31
MSG 0 46840.350 $PGRMM,WGS 84*06
MSG 0 46840.666 $GPRMC,170201,A,4305.6365,N,07038.9167,W,000.6,143.5,030712,016.1,W*76
POS 0 46921.000 365828.013 4772565.916
QUA 0 46921.000 7 9.200 0.800 11.000 1.000 0.000 0.000 0.000
RAW 0 46921.000 4 430563.65000 -703891.67000 -23.80000 170201.00000
MSG 0 46840.816 $GPGGA,170201,4305.6365,N,07038.9167,W,1,11,0.8,8.6,M,-32.4,M,,*7A
MSG 0 46840.957 $GPGSA,A,3,,06,10,13,16,20,21,23,29,30,31,32,1.1,0.8,0.9*3A
MSG 0 46841.084 $GPGSV,3,2,12,16,83,330,48,20,08,237,41,21,05,077,42,23,60,279,49*74
MSG 0 46841.230 $PGRME,4.8,M,5.3,M,7.2,M*21
MSG 0 46841.290 $PGRMB,0.0,200,,,,K,,N,N*31
MSG 0 46841.351 $PGRMM,WGS 84*06
MSG 0 46841.665 $GPRMC,170202,A,4305.6365,N,07038.9167,W,000.4,154.3,030712,016.1,W*77
POS 0 46922.000 365828.013 4772565.916
QUA 0 46922.000 7 9.200 0.800 11.000 1.000 0.000 0.000 0.000
RAW 0 46922.000 4 430563.65000 -703891.67000 -23.60000 170202.00000
MSG 0 46841.815 $GPGGA,170202,4305.6365,N,07038.9167,W,1,11,0.8,8.8,M,-32.4,M,,*77
MSG 0 46841.957 $GPGSA,A,3,,06,10,13,16,20,21,23,29,30,31,32,1.1,0.8,0.9*3A
MSG 0 46842.084 $GPGSV,3,3,12,29,02,031,46,30,58,049,50,31,27,100,47,32,05,213,44*74
MSG 0 46842.230 $PGRME,4.8,M,5.3,M,7.2,M*21
MSG 0 46842.290 $PGRMB,0.0,200,,,,K,,N,N*31
MSG 0 46842.350 $PGRMM,WGS 84*06
MSG 0 46842.665 $GPRMC,170203,A,4305.6364,N,07038.9165,W,000.5,142.9,030712,016.1,W*79
POS 0 46923.000 365828.281 4772565.726
QUA 0 46923.000 7 9.200 0.800 11.000 1.000 0.000 0.000 0.000
RAW 0 46923.000 4 430563.64000 -703891.65000 -23.80000 170203.00000
MSG 0 46842.815 $GPGGA,170203,4305.6364,N,07038.9165,W,1,11,0.8,8.6,M,-32.4,M,,*7B
MSG 0 46842.957 $GPGSA,A,3,,06,10,13,16,20,21,23,29,30,31,32,1.2,0.8,0.9*39
MSG 0 46843.084 $GPGSV,3,1,12,03,41,176,32,06,49,154,49,10,06,322,32,13,33,313,47*7C
MSG 0 46843.229 $PGRME,4.8,M,5.3,M,7.2,M*21
MSG 0 46843.290 $PGRMB,0.0,200,,,,K,,N,N*31
MSG 0 46843.350 $PGRMM,WGS 84*06
MSG 0 46843.665 $GPRMC,170204,A,4305.6361,N,07038.9164,W,000.7,158.3,030712,016.1,W*79
POS 0 46924.000 365828.406 4772565.168
QUA 0 46924.000 7 9.200 0.800 11.000 1.000 0.000 0.000 0.000
RAW 0 46924.000 4 430563.61000 -703891.64000 -24.10000 170204.00000
MSG 0 46843.815 $GPGGA,170204,4305.6361,N,07038.9164,W,1,11,0.8,8.3,M,-32.4,M,,*7D
MSG 0 46843.957 $GPGSA,A,3,,06,10,13,16,20,21,23,29,30,31,32,1.1,0.8,0.9*3A
MSG 0 46844.084 $GPGSV,3,2,12,16,83,330,48,20,08,237,41,21,05,077,42,23,60,279,50*7C
MSG 0 46844.229 $PGRME,4.8,M,5.3,M,7.2,M*21
MSG 0 46844.290 $PGRMB,0.0,200,,,,K,,N,N*31
MSG 0 46844.350 $PGRMM,WGS 84*06
MSG 0 46844.665 $GPRMC,170205,A,4305.6362,N,07038.9163,W,000.3,128.2,030712,016.1,W*7E
POS 0 46925.000 365828.545 4772565.350
QUA 0 46925.000 7 9.200 0.800 11.000 1.000 0.000 0.000 0.000
RAW 0 46925.000 4 430563.62000 -703891.63000 -23.60000 170205.00000
MSG 0 46844.816 $GPGGA,170205,4305.6362,N,07038.9163,W,1,11,0.8,8.8,M,-32.4,M,,*73
MSG 0 46844.957 $GPGSA,A,3,,06,10,13,16,20,21,23,29,30,31,32,1.2,0.8,0.9*39
MSG 0 46845.084 $GPGSV,3,3,12,29,02,031,46,30,58,049,50,31,27,100,48,32,05,213,43*7C
MSG 0 46845.230 $PGRME,4.8,M,5.3,M,7.2,M*21
MSG 0 46845.290 $PGRMB,0.0,200,,,,K,,N,N*31
MSG 0 46845.351 $PGRMM,WGS 84*06
MSG 0 46845.666 $GPRMC,170206,A,4305.6361,N,07038.9163,W,000.2,133.0,030712,016.1,W*77
POS 0 46926.000 365828.541 4772565.165
QUA 0 46926.000 7 9.200 0.800 11.000 1.000 0.000 0.000 0.000
RAW 0 46926.000 4 430563.61000 -703891.63000 -23.50000 170206.00000
MSG 0 46845.815 $GPGGA,170206,4305.6361,N,07038.9163,W,1,11,0.8,8.9,M,-32.4,M,,*72
MSG 0 46845.957 $GPGSA,A,3,,06,10,13,16,20,21,23,29,30,31,32,1.1,0.8,0.9*3A
MSG 0 46846.084 $GPGSV,3,1,12,03,41,176,32,06,49,154,49,10,06,322,34,13,33,313,47*7A
MSG 0 46846.230 $PGRME,4.8,M,5.3,M,7.2,M*21
MSG 0 46846.290 $PGRMB,0.0,200,,,,K,,N,N*31
MSG 0 46846.351 $PGRMM,WGS 84*06
MSG 0 46846.685 $GPRMC,170207,A,4305.6359,N,07038.9162,W,000.6,154.6,030712,016.1,W*7F
POS 0 46927.000 365828.670 4772564.793
QUA 0 46927.000 7 9.200 0.800 11.000 1.000 0.000 0.000 0.000
RAW 0 46927.000 4 430563.59000 -703891.62000 -23.70000 170207.00000
MSG 0 46846.835 $GPGGA,170207,4305.6359,N,07038.9162,W,1,11,0.8,8.7,M,-32.4,M,,*77
MSG 0 46846.977 $GPGSA,A,3,,06,10,13,16,20,21,23,29,30,31,32,1.1,0.8,0.9*3A
MSG 0 46847.104 $GPGSV,3,2,12,16,83,330,48,20,08,237,42,21,05,077,41,23,60,279,49*74
MSG 0 46847.249 $PGRME,4.8,M,5.3,M,7.2,M*21
MSG 0 46847.310 $PGRMB,0.0,200,,,,K,,N,N*31
MSG 0 46847.370 $PGRMM,WGS 84*06
MSG 0 46847.684 $GPRMC,170208,A,4305.6358,N,07038.9161,W,000.5,159.8,030712,016.1,W*72
POS 0 46928.000 365828.802 4772564.605
QUA 0 46928.000 7 9.200 0.800 11.000 1.000 0.000 0.000 0.000
RAW 0 46928.000 4 430563.58000 -703891.61000 -23.90000 170208.00000
MSG 0 46847.834 $GPGGA,170208,4305.6358,N,07038.9161,W,1,11,0.8,8.5,M,-32.4,M,,*78
MSG 0 46847.975 $GPGSA,A,3,,06,10,13,16,20,21,23,29,30,31,32,1.2,0.8,0.9*39
MSG 0 46848.102 $GPGSV,3,3,12,29,02,031,45,30,58,049,49,31,27,100,47,32,05,213,43*78
MSG 0 46848.248 $PGRME,4.9,M,5.4,M,7.2,M*27
MSG 0 46848.309 $PGRMB,0.0,200,,,,K,,N,N*31
MSG 0 46848.369 $PGRMM,WGS 84*06
MSG 0 46848.667 $GPRMC,170209,A,4305.6358,N,07038.9160,W,000.3,114.9,030712,016.1,W*7C
POS 0 46929.000 365828.937 4772564.602
QUA 0 46929.000 7 9.200 0.800 11.000 1.000 0.000 0.000 0.000
RAW 0 46929.000 4 430563.58000 -703891.60000 -23.80000 170209.00000
MSG 0 46848.817 $GPGGA,170209,4305.6358,N,07038.9160,W,1,11,0.8,8.6,M,-32.4,M,,*7B
MSG 0 46848.958 $GPGSA,A,3,,06,10,13,16,20,21,23,29,30,31,32,1.2,0.8,0.9*39
MSG 0 46849.085 $GPGSV,3,1,12,03,41,176,32,06,50,153,49,10,06,322,38,13,33,313,47*79
MSG 0 46849.231 $PGRME,4.9,M,5.4,M,7.2,M*27
MSG 0 46849.291 $PGRMB,0.0,200,,,,K,,N,N*31
MSG 0 46849.352 $PGRMM,WGS 84*06
MSG 0 46849.668 $GPRMC,170210,A,4305.6356,N,07038.9158,W,000.6,140.2,030712,016.1,W*7E
POS 0 46930.000 365829.201 4772564.227
QUA 0 46930.000 7 9.200 0.800 11.000 1.000 0.000 0.000 0.000
RAW 0 46930.000 4 430563.56000 -703891.58000 -23.80000 170210.00000
MSG 0 46849.818 $GPGGA,170210,4305.6356,N,07038.9158,W,1,11,0.8,8.6,M,-32.4,M,,*76
MSG 0 46849.959 $GPGSA,A,3,,06,10,13,16,20,21,23,29,30,31,32,1.2,0.8,0.9*39
MSG 0 46850.086 $GPGSV,3,2,12,16,83,330,48,20,08,237,41,21,05,077,42,23,60,279,49*74
MSG 0 46850.232 $PGRME,4.8,M,5.3,M,7.2,M*21
MSG 0 46850.293 $PGRMB,0.0,200,,,,K,,N,N*31
MSG 0 46850.353 $PGRMM,WGS 84*06
MSG 0 46850.684 $GPRMC,170211,A,4305.6353,N,07038.9156,W,000.9,150.0,030712,016.1,W*78
POS 0 46931.000 365829.462 4772563.666
QUA 0 46931.000 7 9.200 0.800 11.000 1.000 0.000 0.000 0.000
RAW 0 46931.000 4 430563.53000 -703891.56000 -23.90000 170211.00000
MSG 0 46850.834 $GPGGA,170211,4305.6353,N,07038.9156,W,1,11,0.8,8.5,M,-32.4,M,,*7F
MSG 0 46850.975 $GPGSA,A,3,,06,10,13,16,20,21,23,29,30,31,32,1.1,0.8,0.9*3A
MSG 0 46851.102 $GPGSV,3,3,12,29,02,031,45,30,58,049,49,31,27,100,47,32,05,213,42*79
MSG 0 46851.248 $PGRME,4.8,M,5.3,M,7.2,M*21
MSG 0 46851.308 $PGRMB,0.0,200,,,,K,,N,N*31
MSG 0 46851.369 $PGRMM,WGS 84*06
MSG 0 46851.664 $GPRMC,170212,A,4305.6354,N,07038.9156,W,000.3,136.3,030712,016.1,W*75
POS 0 46932.000 365829.465 4772563.851
QUA 0 46932.000 7 9.200 0.800 11.000 1.000 0.000 0.000 0.000
RAW 0 46932.000 4 430563.54000 -703891.56000 -23.50000 170212.00000
MSG 0 46851.814 $GPGGA,170212,4305.6354,N,07038.9156,W,1,11,0.8,8.9,M,-32.4,M,,*77
MSG 0 46851.955 $GPGSA,A,3,,06,10,13,16,20,21,23,29,30,31,32,1.2,0.8,0.9*39
MSG 0 46852.082 $GPGSV,3,1,12,03,41,176,32,06,50,153,48,10,06,322,38,13,33,313,46*79
MSG 0 46852.228 $PGRME,4.8,M,5.3,M,7.2,M*21
MSG 0 46852.288 $PGRMB,0.0,200,,,,K,,N,N*31
MSG 0 46852.349 $PGRMM,WGS 84*06
MSG 0 46852.666 $GPRMC,170213,A,4305.6354,N,07038.9155,W,000.3,126.0,030712,016.1,W*75
POS 0 46933.000 365829.601 4772563.848
QUA 0 46933.000 7 9.200 0.800 11.000 1.000 0.000 0.000 0.000
RAW 0 46933.000 4 430563.54000 -703891.55000 -23.50000 170213.00000
MSG 0 46852.816 $GPGGA,170213,4305.6354,N,07038.9155,W,1,11,0.8,8.9,M,-32.4,M,,*75
MSG 0 46852.958 $GPGSA,A,3,,06,10,13,16,20,21,23,29,30,31,32,1.1,0.8,0.9*3A
MSG 0 46853.085 $GPGSV,3,2,12,16,83,330,48,20,08,237,42,21,05,077,42,23,60,279,49*77
MSG 0 46853.231 $PGRME,4.8,M,5.3,M,7.2,M*21
MSG 0 46853.291 $PGRMB,0.0,200,,,,K,,N,N*31
MSG 0 46853.351 $PGRMM,WGS 84*06
MSG 0 46853.665 $GPRMC,170214,A,4305.6350,N,07038.9154,W,000.9,163.6,030712,016.1,W*7A
POS 0 46934.000 365829.722 4772563.105
QUA 0 46934.000 7 9.200 0.800 11.000 1.000 0.000 0.000 0.000
RAW 0 46934.000 4 430563.50000 -703891.54000 -23.90000 170214.00000
MSG 0 46853.815 $GPGGA,170214,4305.6350,N,07038.9154,W,1,11,0.8,8.5,M,-32.4,M,,*7B
MSG 0 46853.957 $GPGSA,A,3,,06,10,13,16,20,21,23,29,30,31,32,1.1,0.8,0.9*3A
MSG 0 46854.084 $GPGSV,3,3,12,29,02,031,44,30,58,049,49,31,27,100,47,32,05,213,42*78
MSG 0 46854.230 $PGRME,4.8,M,5.3,M,7.2,M*21
MSG 0 46854.290 $PGRMB,0.0,200,,,,K,,N,N*31
MSG 0 46854.350 $PGRMM,WGS 84*06
MSG 0 46854.666 $GPRMC,170215,A,4305.6350,N,07038.9153,W,000.6,149.5,030712,016.1,W*78
POS 0 46935.000 365829.858 4772563.103
QUA 0 46935.000 7 9.200 0.800 11.000 1.000 0.000 0.000 0.000
RAW 0 46935.000 4 430563.50000 -703891.53000 -23.80000 170215.00000
MSG 0 46854.816 $GPGGA,170215,4305.6350,N,07038.9153,W,1,11,0.8,8.6,M,-32.4,M,,*7E
MSG 0 46854.958 $GPGSA,A,3,,06,10,13,16,20,21,23,29,30,31,32,1.1,0.8,0.9*3A
MSG 0 46855.085 $GPGSV,3,1,12,03,41,176,32,06,50,153,49,10,06,322,38,13,33,313,46*78
MSG 0 46855.231 $PGRME,4.8,M,5.3,M,7.2,M*21
MSG 0 46855.291 $PGRMB,0.0,200,,,,K,,N,N*31
MSG 0 46855.351 $PGRMM,WGS 84*06
MSG 0 46855.665 $GPRMC,170216,A,4305.6351,N,07038.9152,W,000.3,080.2,030712,016.1,W*7D
POS 0 46936.000 365829.997 4772563.285
QUA 0 46936.000 7 9.200 0.800 11.000 1.000 0.000 0.000 0.000
RAW 0 46936.000 4 430563.51000 -703891.52000 -23.40000 170216.00000
MSG 0 46855.815 $GPGGA,170216,4305.6351,N,07038.9152,W,1,11,0.8,9.0,M,-32.4,M,,*7A
MSG 0 46855.957 $GPGSA,A,3,,06,10,13,16,20,21,23,29,30,31,32,1.1,0.8,0.9*3A
FIX 99 46856.100 97 365829.997 4772563.285
