FTP NEW 2
VER 11.0.6.21
INF "" "" "" "" 0.000 0.000 0.000
ELL WGS-84 6378137.000 298.257223563
PRO TME -69.000000 0.999600 0.000000 0.000000 0.000000 500000.0000 0.0000
DTM 0.00 0.00 0.00 0.00000 0.00000 0.00000 0.00000
GEO ??? 0.000
HVU 1.0000000000 1.0000000000
TND 13:17:22 07/03/2012 240
DEV 0 32869 "Garmin GPS" 49156 C:\HYPACK 2011\devices\GPS.dll 11.0.10.6
OFF 0 0.000 0.000 0.000 0.000 0.000 0.000 0.000
DDT 0 SYN 
DEV 1 0 "Disabled" 0 Odom CV3 MK3 Disabled Unknown
USR "NOAA Joint Hydrographic Center" "HYPACK Inc." 0x8 15681181
EOH 0001FFFFFFFFFFFFFFFFFFFFFFFFFFFFFFFFFFFFFFFFFFFFFFFFFFFFFFFFFFFFFFFFFFFFFFFFFFFFFFFFFFFFFFFFFFFFFFFFFFFFFFFFFFFFFFFFFFFFFFFFFFFFFFFFFFFFFFFFFFFFFFFFFFFFFFFFFFFFFFFFFFFFFFFFFFFFFFFFFFFF003021300906052B0E03021A05000414E479D3F64AE853E3D469C14CE32867CE049DDE72
MSG 0 47840.657 $GPRMC,171841,A,4305.7018,N,07038.3663,W,000.2,140.2,030712,016.1,W*78
POS 0 47921.000 366576.961 4772672.140
QUA 0 47921.000 7 9.200 0.800 11.000 1.000 0.000 0.000 0.000
RAW 0 47921.000 4 430570.18000 -703836.63000 -23.90000 171841.00000
MSG 0 47840.807 $GPGGA,171841,4305.7018,N,07038.3663,W,1,11,0.8,8.5,M,-32.4,M,,*77
MSG 0 47840.949 $GPGSA,A,3,,06,07,10,13,16,20,21,23,30,31,32,1.2,0.8,0.9*35
MSG 0 47841.076 $GPGSV,3,3,12,23,61,263,51,30,51,053,46,31,21,105,45,32,00,209,44*72
MSG 0 47841.221 $PGRME,5.5,M,6.0,M,8.2,M*22
MSG 0 47841.282 $PGRMB,0.0,200,,,,K,,N,N*31
MSG 0 47841.342 $PGRMM,WGS 84*06
MSG 0 47841.629 $GPRMC,171842,A,4305.7016,N,07038.3661,W,000.3,119.4,030712,016.1,W*7C
POS 0 47922.000 366577.225 4772671.764
QUA 0 47922.000 7 9.200 0.800 11.000 1.000 0.000 0.000 0.000
RAW 0 47922.000 4 430570.16000 -703836.61000 -23.80000 171842.00000
MSG 0 47841.779 $GPGGA,171842,4305.7016,N,07038.3661,W,1,11,0.8,8.6,M,-32.4,M,,*7B
MSG 0 47841.920 $GPGSA,A,3,,06,07,10,13,16,20,21,23,30,31,32,1.3,0.8,0.9*34
MSG 0 47842.047 $GPGSV,3,1,12,03,49,174,00,06,57,146,51,07,13,297,44,10,07,315,42*79
MSG 0 47842.193 $PGRME,5.5,M,6.0,M,8.2,M*22
MSG 0 47842.254 $PGRMB,0.0,200,,,,K,,N,N*31
MSG 0 47842.314 $PGRMM,WGS 84*06
FIX 99 47842.742 104 366577.225 4772671.764
MSG 0 47842.636 $GPRMC,171843,A,4305.7015,N,07038.3661,W,000.2,152.0,030712,016.1,W*74
POS 0 47923.000 366577.221 4772671.579
QUA 0 47923.000 7 9.200 0.800 11.000 1.000 0.000 0.000 0.000
RAW 0 47923.000 4 430570.15000 -703836.61000 -23.90000 171843.00000
MSG 0 47842.786 $GPGGA,171843,4305.7015,N,07038.3661,W,1,11,0.8,8.5,M,-32.4,M,,*7A
MSG 0 47842.927 $GPGSA,A,3,,06,07,10,13,16,20,21,23,30,31,32,1.3,0.8,0.9*34
MSG 0 47843.054 $GPGSV,3,2,12,13,40,308,47,16,78,011,48,20,04,233,39,21,08,071,00*72
MSG 0 47843.200 $PGRME,5.5,M,6.0,M,8.2,M*22
MSG 0 47843.260 $PGRMB,0.0,200,,,,K,,N,N*31
MSG 0 47843.321 $PGRMM,WGS 84*06
MSG 0 47843.619 $GPRMC,171844,A,4305.7015,N,07038.3659,W,000.4,118.3,030712,016.1,W*73
POS 0 47924.000 366577.492 4772671.574
QUA 0 47924.000 7 9.200 0.800 11.000 1.000 0.000 0.000 0.000
RAW 0 47924.000 4 430570.15000 -703836.59000 -24.10000 171844.00000
MSG 0 47843.769 $GPGGA,171844,4305.7015,N,07038.3659,W,1,11,0.8,8.3,M,-32.4,M,,*70
MSG 0 47843.910 $GPGSA,A,3,,06,07,10,13,16,20,21,23,30,31,32,1.3,0.8,0.9*34
MSG 0 47844.037 $GPGSV,3,3,12,23,61,263,51,30,51,053,46,31,21,105,45,32,00,209,43*75
MSG 0 47844.183 $PGRME,5.5,M,6.0,M,8.2,M*22
MSG 0 47844.243 $PGRMB,0.0,200,,,,K,,N,N*31
MSG 0 47844.304 $PGRMM,WGS 84*06
MSG 0 47844.637 $GPRMC,171845,A,4305.7014,N,07038.3658,W,000.4,122.1,030712,016.1,W*79
POS 0 47925.000 366577.624 4772671.386
QUA 0 47925.000 7 9.200 0.800 11.000 1.000 0.000 0.000 0.000
RAW 0 47925.000 4 430570.14000 -703836.58000 -24.00000 171845.00000
MSG 0 47844.787 $GPGGA,171845,4305.7014,N,07038.3658,W,1,11,0.8,8.4,M,-32.4,M,,*76
MSG 0 47844.928 $GPGSA,A,3,,06,07,10,13,16,20,21,23,30,31,32,1.3,0.8,0.9*34
MSG 0 47845.055 $GPGSV,3,1,12,03,49,174,32,06,57,146,51,07,13,297,45,10,07,315,42*79
MSG 0 47845.201 $PGRME,5.5,M,6.0,M,8.2,M*22
MSG 0 47845.261 $PGRMB,0.0,200,,,,K,,N,N*31
MSG 0 47845.322 $PGRMM,WGS 84*06
MSG 0 47845.628 $GPRMC,171846,A,4305.7013,N,07038.3659,W,000.3,168.6,030712,016.1,W*72
POS 0 47926.000 366577.485 4772671.204
QUA 0 47926.000 7 9.200 0.800 11.000 1.000 0.000 0.000 0.000
RAW 0 47926.000 4 430570.13000 -703836.59000 -23.90000 171846.00000
MSG 0 47845.778 $GPGGA,171846,4305.7013,N,07038.3659,W,1,11,0.8,8.5,M,-32.4,M,,*72
MSG 0 47845.920 $GPGSA,A,3,,06,07,10,13,16,20,21,23,30,31,32,1.3,0.8,0.9*34
MSG 0 47846.047 $GPGSV,3,2,12,13,40,308,47,16,78,013,47,20,04,233,38,21,08,071,00*7E
MSG 0 47846.193 $PGRME,5.5,M,6.0,M,8.2,M*22
MSG 0 47846.253 $PGRMB,0.0,200,,,,K,,N,N*31
MSG 0 47846.313 $PGRMM,WGS 84*06
MSG 0 47846.621 $GPRMC,171847,A,4305.7012,N,07038.3658,W,000.2,157.6,030712,016.1,W*7E
POS 0 47927.000 366577.617 4772671.016
QUA 0 47927.000 7 9.200 0.800 10.000 1.000 0.000 0.000 0.000
RAW 0 47927.000 4 430570.12000 -703836.58000 -23.70000 171847.00000
MSG 0 47846.771 $GPGGA,171847,4305.7012,N,07038.3658,W,1,10,0.8,8.7,M,-32.4,M,,*70
MSG 0 47846.913 $GPGSA,A,3,,06,07,10,13,16,20,,23,30,31,32,1.3,0.8,0.9*37
MSG 0 47847.036 $GPGSV,3,3,12,23,61,263,52,30,51,053,46,31,21,105,45,32,00,209,41*74
MSG 0 47847.181 $PGRME,5.5,M,6.0,M,8.2,M*22
MSG 0 47847.242 $PGRMB,0.0,200,,,,K,,N,N*31
MSG 0 47847.302 $PGRMM,WGS 84*06
MSG 0 47847.629 $GPRMC,171848,A,4305.7013,N,07038.3657,W,000.2,078.8,030712,016.1,W*7D
POS 0 47928.000 366577.756 4772671.198
QUA 0 47928.000 7 9.200 0.800 10.000 1.000 0.000 0.000 0.000
RAW 0 47928.000 4 430570.13000 -703836.57000 -23.50000 171848.00000
MSG 0 47847.779 $GPGGA,171848,4305.7013,N,07038.3657,W,1,10,0.8,8.9,M,-32.4,M,,*7F
MSG 0 47847.921 $GPGSA,A,3,,06,07,10,13,16,20,,23,30,31,32,1.3,0.8,0.9*37
MSG 0 47848.044 $GPGSV,3,1,12,03,49,174,32,06,57,146,51,07,13,297,44,10,07,315,43*79
MSG 0 47848.189 $PGRME,5.5,M,6.0,M,8.2,M*22
MSG 0 47848.250 $PGRMB,0.0,200,,,,K,,N,N*31
MSG 0 47848.310 $PGRMM,WGS 84*06
MSG 0 47848.635 $GPRMC,171849,A,4305.7012,N,07038.3659,W,000.2,078.8,030712,016.1,W*73
POS 0 47929.000 366577.482 4772671.019
QUA 0 47929.000 7 9.200 0.800 10.000 1.000 0.000 0.000 0.000
RAW 0 47929.000 4 430570.12000 -703836.59000 -23.70000 171849.00000
MSG 0 47848.784 $GPGGA,171849,4305.7012,N,07038.3659,W,1,10,0.8,8.7,M,-32.4,M,,*7F
MSG 0 47848.926 $GPGSA,A,3,,06,07,10,13,16,20,,23,30,31,32,1.3,0.8,0.9*37
MSG 0 47849.049 $GPGSV,3,2,12,13,40,308,47,16,78,013,48,20,04,233,37,21,08,071,00*7E
MSG 0 47849.195 $PGRME,5.5,M,6.0,M,8.2,M*22
MSG 0 47849.255 $PGRMB,0.0,200,,,,K,,N,N*31
MSG 0 47849.315 $PGRMM,WGS 84*06
MSG 0 47849.619 $GPRMC,171850,A,4305.7011,N,07038.3658,W,000.2,154.5,030712,016.1,W*7B
POS 0 47930.000 366577.614 4772670.831
QUA 0 47930.000 7 9.200 0.800 10.000 1.000 0.000 0.000 0.000
RAW 0 47930.000 4 430570.11000 -703836.58000 -23.90000 171850.00000
MSG 0 47849.768 $GPGGA,171850,4305.7011,N,07038.3658,W,1,10,0.8,8.5,M,-32.4,M,,*77
MSG 0 47849.910 $GPGSA,A,3,,06,07,10,13,16,20,,23,30,31,32,1.3,0.8,0.9*37
MSG 0 47850.033 $GPGSV,3,3,12,23,61,263,52,30,51,053,46,31,21,105,44,32,00,209,41*75
MSG 0 47850.179 $PGRME,5.5,M,6.1,M,8.2,M*23
MSG 0 47850.239 $PGRMB,0.0,200,,,,K,,N,N*31
MSG 0 47850.299 $PGRMM,WGS 84*06
MSG 0 47850.634 $GPRMC,171851,A,4305.7012,N,07038.3657,W,000.2,154.5,030712,016.1,W*76
POS 0 47931.000 366577.753 4772671.013
QUA 0 47931.000 7 9.100 0.900 11.000 1.000 0.000 0.000 0.000
RAW 0 47931.000 4 430570.12000 -703836.57000 -24.00000 171851.00000
MSG 0 47850.784 $GPGGA,171851,4305.7012,N,07038.3657,W,1,11,0.9,8.4,M,-32.4,M,,*7B
MSG 0 47850.925 $GPGSA,A,3,,06,07,10,13,16,20,21,23,30,31,32,1.3,0.9,1.0*3D
MSG 0 47851.052 $GPGSV,3,1,12,03,49,174,32,06,57,146,51,07,13,297,44,10,07,315,41*7B
MSG 0 47851.198 $PGRME,5.5,M,6.0,M,8.2,M*22
MSG 0 47851.259 $PGRMB,0.0,200,,,,K,,N,N*31
MSG 0 47851.319 $PGRMM,WGS 84*06
MSG 0 47851.622 $GPRMC,171852,A,4305.7010,N,07038.3655,W,000.4,125.9,030712,016.1,W*79
POS 0 47932.000 366578.017 4772670.638
QUA 0 47932.000 7 9.100 0.900 11.000 1.000 0.000 0.000 0.000
RAW 0 47932.000 4 430570.10000 -703836.55000 -24.00000 171852.00000
MSG 0 47851.772 $GPGGA,171852,4305.7010,N,07038.3655,W,1,11,0.9,8.4,M,-32.4,M,,*78
MSG 0 47851.914 $GPGSA,A,3,,06,07,10,13,16,20,21,23,30,31,32,1.3,0.9,1.0*3D
MSG 0 47852.041 $GPGSV,3,2,12,13,40,308,47,16,78,013,48,20,04,233,37,21,08,071,37*7A
MSG 0 47852.187 $PGRME,5.5,M,6.0,M,8.2,M*22
MSG 0 47852.247 $PGRMB,0.0,200,,,,K,,N,N*31
MSG 0 47852.307 $PGRMM,WGS 84*06
MSG 0 47852.633 $GPRMC,171853,A,4305.7008,N,07038.3656,W,000.4,171.8,030712,016.1,W*72
POS 0 47933.000 366577.874 4772670.270
QUA 0 47933.000 7 9.100 0.900 11.000 1.000 0.000 0.000 0.000
RAW 0 47933.000 4 430570.08000 -703836.56000 -24.10000 171853.00000
MSG 0 47852.783 $GPGGA,171853,4305.7008,N,07038.3656,W,1,11,0.9,8.3,M,-32.4,M,,*74
MSG 0 47852.925 $GPGSA,A,3,,06,07,10,13,16,20,21,23,30,31,32,1.3,0.9,1.0*3D
MSG 0 47853.052 $GPGSV,3,3,12,23,61,263,51,30,51,053,46,31,21,105,45,32,00,209,45*73
MSG 0 47853.198 $PGRME,5.5,M,6.0,M,8.2,M*22
MSG 0 47853.258 $PGRMB,0.0,200,,,,K,,N,N*31
MSG 0 47853.318 $PGRMM,WGS 84*06
MSG 0 47853.627 $GPRMC,171854,A,4305.7009,N,07038.3653,W,000.3,093.7,030712,016.1,W*74
POS 0 47934.000 366578.285 4772670.447
QUA 0 47934.000 7 9.100 0.900 11.000 1.000 0.000 0.000 0.000
RAW 0 47934.000 4 430570.09000 -703836.53000 -23.90000 171854.00000
MSG 0 47853.777 $GPGGA,171854,4305.7009,N,07038.3653,W,1,11,0.9,8.5,M,-32.4,M,,*71
MSG 0 47853.919 $GPGSA,A,3,,06,07,10,13,16,20,21,23,30,31,32,1.3,0.9,1.0*3D
MSG 0 47854.046 $GPGSV,3,1,12,03,49,174,00,06,57,146,50,07,13,297,44,10,07,315,42*78
MSG 0 47854.192 $PGRME,5.5,M,6.0,M,8.2,M*22
MSG 0 47854.252 $PGRMB,0.0,200,,,,K,,N,N*31
MSG 0 47854.312 $PGRMM,WGS 84*06
MSG 0 47854.619 $GPRMC,171855,A,4305.7008,N,07038.3652,W,000.4,110.8,030712,016.1,W*77
POS 0 47935.000 366578.417 4772670.260
QUA 0 47935.000 7 9.200 0.800 11.000 1.000 0.000 0.000 0.000
RAW 0 47935.000 4 430570.08000 -703836.52000 -23.70000 171855.00000
MSG 0 47854.769 $GPGGA,171855,4305.7008,N,07038.3652,W,1,11,0.8,8.7,M,-32.4,M,,*73
MSG 0 47854.910 $GPGSA,A,3,,06,07,10,13,16,20,21,23,30,31,32,1.2,0.8,0.9*35
MSG 0 47855.037 $GPGSV,3,2,12,13,40,308,48,16,78,013,48,20,04,233,37,21,08,071,36*74
MSG 0 47855.183 $PGRME,5.5,M,6.0,M,8.2,M*22
MSG 0 47855.243 $PGRMB,0.0,200,,,,K,,N,N*31
MSG 0 47855.304 $PGRMM,WGS 84*06
MSG 0 47855.630 $GPRMC,171856,A,4305.7007,N,07038.3655,W,000.4,223.6,030712,016.1,W*71
POS 0 47936.000 366578.006 4772670.082
QUA 0 47936.000 7 9.200 0.800 11.000 1.000 0.000 0.000 0.000
RAW 0 47936.000 4 430570.07000 -703836.55000 -23.60000 171856.00000
MSG 0 47855.780 $GPGGA,171856,4305.7007,N,07038.3655,W,1,11,0.8,8.8,M,-32.4,M,,*77
MSG 0 47855.922 $GPGSA,A,3,,06,07,10,13,16,20,21,23,30,31,32,1.2,0.8,0.9*35
MSG 0 47856.049 $GPGSV,3,3,12,23,61,263,51,30,51,053,46,31,21,105,45,32,00,209,48*7E
MSG 0 47856.194 $PGRME,5.5,M,6.0,M,8.2,M*22
MSG 0 47856.255 $PGRMB,0.0,200,,,,K,,N,N*31
MSG 0 47856.315 $PGRMM,WGS 84*06
MSG 0 47856.650 $GPRMC,171857,A,4305.7006,N,07038.3654,W,000.2,161.9,030712,016.1,W*7C
POS 0 47937.000 366578.138 4772669.895
QUA 0 47937.000 7 9.200 0.800 11.000 1.000 0.000 0.000 0.000
RAW 0 47937.000 4 430570.06000 -703836.54000 -23.50000 171857.00000
MSG 0 47856.800 $GPGGA,171857,4305.7006,N,07038.3654,W,1,11,0.8,8.9,M,-32.4,M,,*77
MSG 0 47856.941 $GPGSA,A,3,,06,07,10,13,16,20,21,23,30,31,32,1.2,0.8,0.9*35
MSG 0 47857.068 $GPGSV,3,1,12,03,49,174,31,06,57,146,50,07,13,297,44,10,07,315,43*7B
MSG 0 47857.214 $PGRME,5.5,M,6.0,M,8.2,M*22
MSG 0 47857.275 $PGRMB,0.0,200,,,,K,,N,N*31
MSG 0 47857.335 $PGRMM,WGS 84*06
MSG 0 47857.636 $GPRMC,171858,A,4305.7007,N,07038.3651,W,000.4,079.7,030712,016.1,W*77
POS 0 47938.000 366578.549 4772670.072
QUA 0 47938.000 7 9.200 0.800 11.000 1.000 0.000 0.000 0.000
RAW 0 47938.000 4 430570.07000 -703836.51000 -23.70000 171858.00000
MSG 0 47857.786 $GPGGA,171858,4305.7007,N,07038.3651,W,1,11,0.8,8.7,M,-32.4,M,,*72
MSG 0 47857.927 $GPGSA,A,3,,06,07,10,13,16,20,21,23,30,31,32,1.2,0.8,0.9*35
MSG 0 47858.054 $GPGSV,3,2,12,13,40,308,48,16,78,013,48,20,04,233,36,21,08,071,36*75
MSG 0 47858.200 $PGRME,5.5,M,6.0,M,8.2,M*22
MSG 0 47858.260 $PGRMB,0.0,200,,,,K,,N,N*31
MSG 0 47858.321 $PGRMM,WGS 84*06
MSG 0 47858.619 $GPRMC,171859,A,4305.7005,N,07038.3653,W,000.3,189.4,030712,016.1,W*7C
POS 0 47939.000 366578.270 4772669.707
QUA 0 47939.000 7 9.200 0.800 11.000 1.000 0.000 0.000 0.000
RAW 0 47939.000 4 430570.05000 -703836.53000 -23.70000 171859.00000
MSG 0 47858.769 $GPGGA,171859,4305.7005,N,07038.3653,W,1,11,0.8,8.7,M,-32.4,M,,*73
MSG 0 47858.911 $GPGSA,A,3,,06,07,10,13,16,20,21,23,30,31,32,1.2,0.8,0.9*35
MSG 0 47859.038 $GPGSV,3,3,12,23,61,263,51,30,51,053,47,31,21,105,46,32,00,209,47*73
MSG 0 47859.184 $PGRME,5.5,M,6.0,M,8.2,M*22
MSG 0 47859.244 $PGRMB,0.0,200,,,,K,,N,N*31
MSG 0 47859.304 $PGRMM,WGS 84*06
MSG 0 47859.618 $GPRMC,171900,A,4305.7003,N,07038.3654,W,000.3,195.0,030712,016.1,W*79
POS 0 47940.000 366578.127 4772669.339
QUA 0 47940.000 7 9.200 0.800 11.000 1.000 0.000 0.000 0.000
RAW 0 47940.000 4 430570.03000 -703836.54000 -23.70000 171900.00000
MSG 0 47859.768 $GPGGA,171900,4305.7003,N,07038.3654,W,1,11,0.8,8.7,M,-32.4,M,,*7F
MSG 0 47859.909 $GPGSA,A,3,,06,07,10,13,16,20,21,23,30,31,32,1.2,0.8,0.9*35
MSG 0 47860.036 $GPGSV,3,1,12,03,49,174,32,06,57,146,50,07,13,297,44,10,07,315,43*78
MSG 0 47860.182 $PGRME,5.5,M,6.0,M,8.2,M*22
MSG 0 47860.243 $PGRMB,0.0,200,,,,K,,N,N*31
MSG 0 47860.303 $PGRMM,WGS 84*06
MSG 0 47860.619 $GPRMC,171901,A,4305.7004,N,07038.3650,W,000.5,083.0,030712,016.1,W*7B
POS 0 47941.000 366578.673 4772669.514
QUA 0 47941.000 7 9.200 0.800 11.000 1.000 0.000 0.000 0.000
RAW 0 47941.000 4 430570.04000 -703836.50000 -23.70000 171901.00000
MSG 0 47860.769 $GPGGA,171901,4305.7004,N,07038.3650,W,1,11,0.8,8.7,M,-32.4,M,,*7D
MSG 0 47860.911 $GPGSA,A,3,,06,07,10,13,16,20,21,23,30,31,32,1.2,0.8,0.9*35
MSG 0 47861.038 $GPGSV,3,2,12,13,40,308,48,16,78,013,48,20,03,232,35,21,08,071,36*70
MSG 0 47861.183 $PGRME,5.5,M,6.0,M,8.2,M*22
MSG 0 47861.244 $PGRMB,0.0,200,,,,K,,N,N*31
MSG 0 47861.304 $PGRMM,WGS 84*06
MSG 0 47861.634 $GPRMC,171902,A,4305.7003,N,07038.3651,W,000.2,143.1,030712,016.1,W*75
POS 0 47942.000 366578.534 4772669.332
QUA 0 47942.000 7 9.200 0.800 11.000 1.000 0.000 0.000 0.000
RAW 0 47942.000 4 430570.03000 -703836.51000 -23.60000 171902.00000
MSG 0 47861.784 $GPGGA,171902,4305.7003,N,07038.3651,W,1,11,0.8,8.8,M,-32.4,M,,*77
MSG 0 47861.926 $GPGSA,A,3,,06,07,10,13,16,20,21,23,30,31,32,1.2,0.8,0.9*35
MSG 0 47862.053 $GPGSV,3,3,12,23,61,263,51,30,51,053,46,31,21,105,46,32,00,209,45*70
MSG 0 47862.198 $PGRME,5.5,M,6.0,M,8.2,M*22
MSG 0 47862.259 $PGRMB,0.0,200,,,,K,,N,N*31
MSG 0 47862.319 $PGRMM,WGS 84*06
MSG 0 47862.632 $GPRMC,171903,A,4305.7000,N,07038.3652,W,000.5,193.0,030712,016.1,W*7F
POS 0 47943.000 366578.388 4772668.779
QUA 0 47943.000 7 9.200 0.800 11.000 1.000 0.000 0.000 0.000
RAW 0 47943.000 4 430570.00000 -703836.52000 -23.70000 171903.00000
MSG 0 47862.782 $GPGGA,171903,4305.7000,N,07038.3652,W,1,11,0.8,8.7,M,-32.4,M,,*79
MSG 0 47862.923 $GPGSA,A,3,,06,07,10,13,16,20,21,23,30,31,32,1.2,0.8,0.9*35
MSG 0 47863.050 $GPGSV,3,1,12,03,49,174,32,06,57,146,49,07,13,297,44,10,07,315,43*70
MSG 0 47863.196 $PGRME,5.5,M,6.0,M,8.2,M*22
MSG 0 47863.256 $PGRMB,0.0,200,,,,K,,N,N*31
MSG 0 47863.317 $PGRMM,WGS 84*06
MSG 0 47863.620 $GPRMC,171904,A,4305.7001,N,07038.3651,W,000.2,112.9,030712,016.1,W*7D
POS 0 47944.000 366578.527 4772668.961
QUA 0 47944.000 7 9.200 0.800 11.000 1.000 0.000 0.000 0.000
RAW 0 47944.000 4 430570.01000 -703836.51000 -23.50000 171904.00000
MSG 0 47863.770 $GPGGA,171904,4305.7001,N,07038.3651,W,1,11,0.8,8.9,M,-32.4,M,,*72
MSG 0 47863.911 $GPGSA,A,3,,06,07,10,13,16,20,21,23,30,31,32,1.2,0.8,0.9*35
MSG 0 47864.038 $GPGSV,3,2,12,13,40,308,48,16,78,013,48,20,03,232,35,21,08,071,38*7E
MSG 0 47864.184 $PGRME,5.5,M,6.0,M,8.2,M*22
MSG 0 47864.244 $PGRMB,0.0,200,,,,K,,N,N*31
MSG 0 47864.305 $PGRMM,WGS 84*06
MSG 0 47864.626 $GPRMC,171905,A,4305.7001,N,07038.3649,W,000.4,090.2,030712,016.1,W*73
POS 0 47945.000 366578.798 4772668.956
QUA 0 47945.000 7 9.200 0.800 11.000 1.000 0.000 0.000 0.000
RAW 0 47945.000 4 430570.01000 -703836.49000 -23.40000 171905.00000
MSG 0 47864.776 $GPGGA,171905,4305.7001,N,07038.3649,W,1,11,0.8,9.0,M,-32.4,M,,*72
MSG 0 47864.918 $GPGSA,A,3,,06,07,10,13,16,20,21,23,30,31,32,1.2,0.8,0.9*35
MSG 0 47865.045 $GPGSV,3,3,12,23,61,263,51,30,51,053,47,31,21,105,45,32,00,209,41*76
MSG 0 47865.190 $PGRME,5.5,M,6.0,M,8.2,M*22
MSG 0 47865.251 $PGRMB,0.0,200,,,,K,,N,N*31
MSG 0 47865.311 $PGRMM,WGS 84*06
MSG 0 47865.619 $GPRMC,171906,A,4305.6999,N,07038.3651,W,000.3,194.3,030712,016.1,W*73
POS 0 47946.000 366578.520 4772668.591
QUA 0 47946.000 7 9.200 0.800 11.000 1.000 0.000 0.000 0.000
RAW 0 47946.000 4 430569.99000 -703836.51000 -23.60000 171906.00000
MSG 0 47865.769 $GPGGA,171906,4305.6999,N,07038.3651,W,1,11,0.8,8.8,M,-32.4,M,,*78
MSG 0 47865.910 $GPGSA,A,3,,06,07,10,13,16,20,21,23,30,31,32,1.2,0.8,0.9*35
MSG 0 47866.037 $GPGSV,3,1,12,03,49,174,32,06,57,146,50,07,13,297,44,10,07,315,43*78
MSG 0 47866.183 $PGRME,5.5,M,6.0,M,8.2,M*22
MSG 0 47866.244 $PGRMB,0.0,200,,,,K,,N,N*31
MSG 0 47866.304 $PGRMM,WGS 84*06
MSG 0 47866.621 $GPRMC,171907,A,4305.6998,N,07038.3652,W,000.3,206.8,030712,016.1,W*73
POS 0 47947.000 366578.380 4772668.409
QUA 0 47947.000 7 9.200 0.800 11.000 1.000 0.000 0.000 0.000
RAW 0 47947.000 4 430569.98000 -703836.52000 -23.70000 171907.00000
MSG 0 47866.771 $GPGGA,171907,4305.6998,N,07038.3652,W,1,11,0.8,8.7,M,-32.4,M,,*74
MSG 0 47866.913 $GPGSA,A,3,,06,07,10,13,16,20,21,23,30,31,32,1.2,0.8,0.9*35
MSG 0 47867.040 $GPGSV,3,2,12,13,40,308,48,16,78,013,48,20,03,232,34,21,08,070,39*7F
MSG 0 47867.185 $PGRME,5.5,M,6.0,M,8.2,M*22
MSG 0 47867.246 $PGRMB,0.0,200,,,,K,,N,N*31
MSG 0 47867.306 $PGRMM,WGS 84*06
MSG 0 47867.639 $GPRMC,171908,A,4305.6997,N,07038.3647,W,000.5,108.4,030712,016.1,W*70
POS 0 47948.000 366579.055 4772668.210
QUA 0 47948.000 7 9.200 0.800 11.000 1.000 0.000 0.000 0.000
RAW 0 47948.000 4 430569.97000 -703836.47000 -23.50000 171908.00000
MSG 0 47867.789 $GPGGA,171908,4305.6997,N,07038.3647,W,1,11,0.8,8.9,M,-32.4,M,,*7E
MSG 0 47867.930 $GPGSA,A,3,,06,07,10,13,16,20,21,23,30,31,32,1.2,0.8,0.9*35
MSG 0 47868.057 $GPGSV,3,3,12,23,61,263,50,30,51,053,47,31,21,105,45,32,00,209,39*78
MSG 0 47868.203 $PGRME,5.5,M,6.0,M,8.2,M*22
MSG 0 47868.263 $PGRMB,0.0,200,,,,K,,N,N*31
MSG 0 47868.324 $PGRMM,WGS 84*06
MSG 0 47868.636 $GPRMC,171909,A,4305.6997,N,07038.3647,W,000.3,118.0,030712,016.1,W*72
POS 0 47949.000 366579.055 4772668.210
QUA 0 47949.000 7 9.200 0.800 11.000 1.000 0.000 0.000 0.000
RAW 0 47949.000 4 430569.97000 -703836.47000 -23.40000 171909.00000
MSG 0 47868.786 $GPGGA,171909,4305.6997,N,07038.3647,W,1,11,0.8,9.0,M,-32.4,M,,*77
MSG 0 47868.927 $GPGSA,A,3,,06,07,10,13,16,20,21,23,30,31,32,1.2,0.8,0.9*35
MSG 0 47869.054 $GPGSV,3,1,12,03,49,174,32,06,57,146,50,07,13,297,44,10,07,315,43*78
MSG 0 47869.200 $PGRME,5.6,M,6.1,M,8.3,M*21
MSG 0 47869.260 $PGRMB,0.0,200,,,,K,,N,N*31
MSG 0 47869.321 $PGRMM,WGS 84*06
MSG 0 47869.636 $GPRMC,171910,A,4305.6994,N,07038.3651,W,000.6,214.1,030712,016.1,W*75
POS 0 47950.000 366578.502 4772667.666
QUA 0 47950.000 7 9.200 0.800 11.000 1.000 0.000 0.000 0.000
RAW 0 47950.000 4 430569.94000 -703836.51000 -23.40000 171910.00000
MSG 0 47869.786 $GPGGA,171910,4305.6994,N,07038.3651,W,1,11,0.8,9.0,M,-32.4,M,,*7B
MSG 0 47869.927 $GPGSA,A,3,,06,07,10,13,16,20,21,23,30,31,32,1.2,0.8,0.9*35
MSG 0 47870.054 $GPGSV,3,2,12,13,40,308,48,16,78,013,48,20,03,232,00,21,08,070,39*78
MSG 0 47870.200 $PGRME,5.6,M,6.1,M,8.3,M*21
MSG 0 47870.261 $PGRMB,0.0,200,,,,K,,N,N*31
MSG 0 47870.321 $PGRMM,WGS 84*06
MSG 0 47870.625 $GPRMC,171911,A,4305.6996,N,07038.3646,W,000.5,085.1,030712,016.1,W*79
POS 0 47951.000 366579.187 4772668.023
QUA 0 47951.000 7 9.200 0.800 11.000 1.000 0.000 0.000 0.000
RAW 0 47951.000 4 430569.96000 -703836.46000 -23.10000 171911.00000
MSG 0 47870.775 $GPGGA,171911,4305.6996,N,07038.3646,W,1,11,0.8,9.3,M,-32.4,M,,*7D
MSG 0 47870.917 $GPGSA,A,3,,06,07,10,13,16,20,21,23,30,31,32,1.2,0.8,0.9*35
MSG 0 47871.044 $GPGSV,3,3,12,23,61,263,50,30,51,053,47,31,21,105,44,32,00,209,38*78
MSG 0 47871.190 $PGRME,5.6,M,6.1,M,8.3,M*21
MSG 0 47871.250 $PGRMB,0.0,200,,,,K,,N,N*31
MSG 0 47871.310 $PGRMM,WGS 84*06
MSG 0 47871.637 $GPRMC,171912,A,4305.6996,N,07038.3645,W,000.3,078.2,030712,016.1,W*7E
POS 0 47952.000 366579.323 4772668.020
QUA 0 47952.000 7 9.200 0.800 11.000 1.000 0.000 0.000 0.000
RAW 0 47952.000 4 430569.96000 -703836.45000 -23.10000 171912.00000
MSG 0 47871.787 $GPGGA,171912,4305.6996,N,07038.3645,W,1,11,0.8,9.3,M,-32.4,M,,*7D
MSG 0 47871.928 $GPGSA,A,3,,06,07,10,13,16,20,21,23,30,31,32,1.2,0.8,0.9*35
MSG 0 47872.055 $GPGSV,3,1,12,03,49,174,32,06,57,146,50,07,13,297,43,10,07,315,43*7F
MSG 0 47872.201 $PGRME,5.6,M,6.1,M,8.3,M*21
MSG 0 47872.261 $PGRMB,0.0,200,,,,K,,N,N*31
MSG 0 47872.322 $PGRMM,WGS 84*06
MSG 0 47872.619 $GPRMC,171913,A,4305.6994,N,07038.3648,W,000.3,235.0,030712,016.1,W*79
POS 0 47953.000 366578.908 4772667.658
QUA 0 47953.000 7 9.200 0.800 11.000 1.000 0.000 0.000 0.000
RAW 0 47953.000 4 430569.94000 -703836.48000 -23.00000 171913.00000
MSG 0 47872.769 $GPGGA,171913,4305.6994,N,07038.3648,W,1,11,0.8,9.4,M,-32.4,M,,*74
MSG 0 47872.911 $GPGSA,A,3,,06,07,10,13,16,20,21,23,30,31,32,1.2,0.8,0.9*35
MSG 0 47873.038 $GPGSV,3,2,12,13,40,308,48,16,78,013,48,20,03,232,35,21,08,070,39*7E
MSG 0 47873.183 $PGRME,5.6,M,6.1,M,8.3,M*21
MSG 0 47873.244 $PGRMB,0.0,200,,,,K,,N,N*31
MSG 0 47873.304 $PGRMM,WGS 84*06
MSG 0 47873.619 $GPRMC,171914,A,4305.6994,N,07038.3646,W,000.2,235.0,030712,016.1,W*71
POS 0 47954.000 366579.180 4772667.652
QUA 0 47954.000 7 9.200 0.800 11.000 1.000 0.000 0.000 0.000
RAW 0 47954.000 4 430569.94000 -703836.46000 -23.00000 171914.00000
MSG 0 47873.769 $GPGGA,171914,4305.6994,N,07038.3646,W,1,11,0.8,9.4,M,-32.4,M,,*7D
MSG 0 47873.910 $GPGSA,A,3,,06,07,10,13,16,20,21,23,30,31,32,1.2,0.8,0.9*35
MSG 0 47874.037 $GPGSV,3,3,12,23,61,261,50,30,51,053,47,31,21,105,44,32,00,209,39*7B
MSG 0 47874.183 $PGRME,5.5,M,6.1,M,8.2,M*23
MSG 0 47874.243 $PGRMB,0.0,200,,,,K,,N,N*31
MSG 0 47874.304 $PGRMM,WGS 84*06
MSG 0 47874.623 $GPRMC,171915,A,4305.6993,N,07038.3644,W,000.3,104.0,030712,016.1,W*75
POS 0 47955.000 366579.447 4772667.462
QUA 0 47955.000 7 9.200 0.800 11.000 1.000 0.000 0.000 0.000
RAW 0 47955.000 4 430569.93000 -703836.44000 -23.00000 171915.00000
MSG 0 47874.772 $GPGGA,171915,4305.6993,N,07038.3644,W,1,11,0.8,9.4,M,-32.4,M,,*79
MSG 0 47874.914 $GPGSA,A,3,,06,07,10,13,16,20,21,23,30,31,32,1.2,0.8,0.9*35
MSG 0 47875.041 $GPGSV,3,1,12,03,49,174,32,06,57,146,50,07,13,297,43,10,07,315,43*7F
MSG 0 47875.187 $PGRME,5.5,M,6.1,M,8.2,M*23
MSG 0 47875.247 $PGRMB,0.0,200,,,,K,,N,N*31
MSG 0 47875.308 $PGRMM,WGS 84*06
MSG 0 47875.629 $GPRMC,171916,A,4305.6992,N,07038.3645,W,000.3,174.1,030712,016.1,W*70
POS 0 47956.000 366579.308 4772667.280
QUA 0 47956.000 7 9.200 0.800 11.000 1.000 0.000 0.000 0.000
RAW 0 47956.000 4 430569.92000 -703836.45000 -23.20000 171916.00000
MSG 0 47875.779 $GPGGA,171916,4305.6992,N,07038.3645,W,1,11,0.8,9.2,M,-32.4,M,,*7C
MSG 0 47875.920 $GPGSA,A,3,,06,07,10,13,16,20,21,23,30,31,32,1.2,0.8,0.9*35
MSG 0 47876.047 $GPGSV,3,2,12,13,40,308,49,16,78,013,48,20,03,232,34,21,08,070,36*71
MSG 0 47876.193 $PGRME,5.5,M,6.1,M,8.2,M*23
MSG 0 47876.253 $PGRMB,0.0,200,,,,K,,N,N*31
MSG 0 47876.314 $PGRMM,WGS 84*06
MSG 0 47876.628 $GPRMC,171917,A,4305.6989,N,07038.3647,W,000.5,193.2,030712,016.1,W*75
POS 0 47957.000 366579.026 4772666.730
QUA 0 47957.000 7 9.200 0.800 11.000 1.000 0.000 0.000 0.000
RAW 0 47957.000 4 430569.89000 -703836.47000 -23.20000 171917.00000
MSG 0 47876.778 $GPGGA,171917,4305.6989,N,07038.3647,W,1,11,0.8,9.2,M,-32.4,M,,*75
MSG 0 47876.919 $GPGSA,A,3,,06,07,10,13,16,20,21,23,30,31,32,1.2,0.8,0.9*35
MSG 0 47877.046 $GPGSV,3,3,12,23,61,261,50,30,51,053,48,31,21,105,45,32,00,209,38*74
MSG 0 47877.192 $PGRME,5.5,M,6.1,M,8.2,M*23
MSG 0 47877.252 $PGRMB,0.0,200,,,,K,,N,N*31
MSG 0 47877.313 $PGRMM,WGS 84*06
MSG 0 47877.631 $GPRMC,171918,A,4305.6989,N,07038.3644,W,000.3,137.9,030712,016.1,W*7A
POS 0 47958.000 366579.433 4772666.722
QUA 0 47958.000 7 9.100 0.900 11.000 1.000 0.000 0.000 0.000
RAW 0 47958.000 4 430569.89000 -703836.44000 -23.10000 171918.00000
MSG 0 47877.781 $GPGGA,171918,4305.6989,N,07038.3644,W,1,11,0.9,9.3,M,-32.4,M,,*79
MSG 0 47877.922 $GPGSA,A,3,,06,07,10,13,16,20,21,23,30,31,32,1.3,0.9,1.0*3D
MSG 0 47878.049 $GPGSV,3,1,12,03,49,174,32,06,57,146,50,07,13,297,44,10,07,315,43*78
MSG 0 47878.195 $PGRME,5.6,M,6.1,M,8.3,M*21
MSG 0 47878.255 $PGRMB,0.0,200,,,,K,,N,N*31
MSG 0 47878.316 $PGRMM,WGS 84*06
MSG 0 47878.648 $GPRMC,171919,A,4305.6988,N,07038.3642,W,000.5,112.1,030712,016.1,W*75
POS 0 47959.000 366579.701 4772666.531
QUA 0 47959.000 7 9.100 0.900 11.000 1.000 0.000 0.000 0.000
RAW 0 47959.000 4 430569.88000 -703836.42000 -22.80000 171919.00000
MSG 0 47878.798 $GPGGA,171919,4305.6988,N,07038.3642,W,1,11,0.9,9.6,M,-32.4,M,,*7A
MSG 0 47878.940 $GPGSA,A,3,,06,07,10,13,16,20,21,23,30,31,32,1.3,0.9,1.0*3D
MSG 0 47879.067 $GPGSV,3,2,12,13,40,308,49,16,78,013,48,20,03,232,00,21,08,070,00*73
MSG 0 47879.213 $PGRME,5.6,M,6.2,M,8.4,M*25
MSG 0 47879.273 $PGRMB,0.0,200,,,,K,,N,N*31
MSG 0 47879.334 $PGRMM,WGS 84*06
MSG 0 47879.633 $GPRMC,171920,A,4305.6988,N,07038.3646,W,000.4,256.8,030712,016.1,W*70
POS 0 47960.000 366579.158 4772666.542
QUA 0 47960.000 7 9.100 0.900 11.000 1.000 0.000 0.000 0.000
RAW 0 47960.000 4 430569.88000 -703836.46000 -22.90000 171920.00000
MSG 0 47879.783 $GPGGA,171920,4305.6988,N,07038.3646,W,1,11,0.9,9.5,M,-32.4,M,,*77
MSG 0 47879.924 $GPGSA,A,3,,06,07,10,13,16,20,21,23,30,31,32,1.3,0.9,1.0*3D
MSG 0 47880.051 $GPGSV,3,3,12,23,61,261,50,30,51,053,48,31,21,105,44,32,00,209,36*7B
MSG 0 47880.197 $PGRME,5.6,M,6.2,M,8.4,M*25
MSG 0 47880.257 $PGRMB,0.0,200,,,,K,,N,N*31
MSG 0 47880.318 $PGRMM,WGS 84*06
MSG 0 47880.649 $GPRMC,171921,A,4305.6986,N,07038.3645,W,000.3,188.7,030712,016.1,W*74
POS 0 47961.000 366579.286 4772666.169
QUA 0 47961.000 7 9.000 1.000 11.000 1.000 0.000 0.000 0.000
RAW 0 47961.000 4 430569.86000 -703836.45000 -23.00000 171921.00000
MSG 0 47880.798 $GPGGA,171921,4305.6986,N,07038.3645,W,1,11,1.0,9.4,M,-32.4,M,,*72
MSG 0 47880.940 $GPGSA,A,3,,06,07,10,13,16,20,21,23,30,31,32,1.4,1.0,1.0*32
MSG 0 47881.067 $GPGSV,3,1,12,03,49,174,32,06,57,146,50,07,13,297,44,10,07,315,43*78
MSG 0 47881.213 $PGRME,5.6,M,6.2,M,8.4,M*25
MSG 0 47881.273 $PGRMB,0.0,200,,,,K,,N,N*31
MSG 0 47881.334 $PGRMM,WGS 84*06
MSG 0 47881.648 $GPRMC,171922,A,4305.6987,N,07038.3640,W,000.6,095.1,030712,016.1,W*7D
POS 0 47962.000 366579.968 4772666.341
QUA 0 47962.000 7 9.000 1.000 11.000 1.000 0.000 0.000 0.000
RAW 0 47962.000 4 430569.87000 -703836.40000 -23.10000 171922.00000
MSG 0 47881.798 $GPGGA,171922,4305.6987,N,07038.3640,W,1,11,1.0,9.3,M,-32.4,M,,*72
MSG 0 47881.940 $GPGSA,A,3,,06,07,10,13,16,20,21,23,30,31,32,1.4,1.0,1.0*32
MSG 0 47882.067 $GPGSV,3,2,12,13,40,308,49,16,78,013,48,20,03,232,36,21,08,070,00*76
MSG 0 47882.213 $PGRME,5.7,M,6.3,M,8.5,M*24
MSG 0 47882.273 $PGRMB,0.0,200,,,,K,,N,N*31
MSG 0 47882.333 $PGRMM,WGS 84*06
MSG 0 47882.642 $GPRMC,171923,A,4305.6984,N,07038.3644,W,000.5,196.2,030712,016.1,W*79
POS 0 47963.000 366579.415 4772665.796
QUA 0 47963.000 7 9.000 1.000 11.000 1.000 0.000 0.000 0.000
RAW 0 47963.000 4 430569.84000 -703836.44000 -23.40000 171923.00000
MSG 0 47882.792 $GPGGA,171923,4305.6984,N,07038.3644,W,1,11,1.0,9.0,M,-32.4,M,,*77
MSG 0 47882.934 $GPGSA,A,3,,06,07,10,13,16,20,21,23,30,31,32,1.4,1.0,1.0*32
MSG 0 47883.061 $GPGSV,3,3,12,23,61,261,49,30,51,053,48,31,21,105,43,32,00,209,00*71
MSG 0 47883.207 $PGRME,5.7,M,6.3,M,8.5,M*24
MSG 0 47883.267 $PGRMB,0.0,200,,,,K,,N,N*31
MSG 0 47883.327 $PGRMM,WGS 84*06
MSG 0 47883.649 $GPRMC,171924,A,4305.6982,N,07038.3643,W,000.5,181.4,030712,016.1,W*7F
POS 0 47964.000 366579.543 4772665.423
QUA 0 47964.000 7 9.000 1.000 11.000 1.000 0.000 0.000 0.000
RAW 0 47964.000 4 430569.82000 -703836.43000 -23.20000 171924.00000
MSG 0 47883.799 $GPGGA,171924,4305.6982,N,07038.3643,W,1,11,1.0,9.2,M,-32.4,M,,*73
MSG 0 47883.941 $GPGSA,A,3,,06,07,10,13,16,20,21,23,30,31,32,1.4,1.0,1.0*32
MSG 0 47884.068 $GPGSV,3,1,12,03,49,174,32,06,57,146,50,07,13,297,46,10,07,315,42*7B
MSG 0 47884.213 $PGRME,5.7,M,6.3,M,8.5,M*24
MSG 0 47884.274 $PGRMB,0.0,200,,,,K,,N,N*31
MSG 0 47884.334 $PGRMM,WGS 84*06
MSG 0 47884.673 $GPRMC,171925,A,4305.6982,N,07038.3642,W,000.3,137.1,030712,016.1,W*71
POS 0 47965.000 366579.679 4772665.421
QUA 0 47965.000 7 9.000 1.000 11.000 1.000 0.000 0.000 0.000
RAW 0 47965.000 4 430569.82000 -703836.42000 -22.90000 171925.00000
MSG 0 47884.823 $GPGGA,171925,4305.6982,N,07038.3642,W,1,11,1.0,9.5,M,-32.4,M,,*74
MSG 0 47884.965 $GPGSA,A,3,,06,07,10,13,16,20,21,23,30,31,32,1.5,1.0,1.0*33
MSG 0 47885.092 $GPGSV,3,2,12,13,40,308,49,16,78,013,47,20,03,232,00,21,08,070,00*7C
MSG 0 47885.237 $PGRME,5.7,M,6.3,M,8.5,M*24
MSG 0 47885.298 $PGRMB,0.0,200,,,,K,,N,N*31
MSG 0 47885.358 $PGRMM,WGS 84*06
MSG 0 47885.673 $GPRMC,171926,A,4305.6980,N,07038.3641,W,000.4,146.2,030712,016.1,W*71
POS 0 47966.000 366579.807 4772665.048
QUA 0 47966.000 7 9.000 1.000 11.000 1.000 0.000 0.000 0.000
RAW 0 47966.000 4 430569.80000 -703836.41000 -22.90000 171926.00000
MSG 0 47885.823 $GPGGA,171926,4305.6980,N,07038.3641,W,1,11,1.0,9.5,M,-32.4,M,,*76
MSG 0 47885.965 $GPGSA,A,3,,06,07,10,13,16,20,21,23,30,31,32,1.5,1.0,1.0*33
MSG 0 47886.092 $GPGSV,3,3,12,23,61,261,49,30,51,053,49,31,21,105,42,32,00,209,00*71
MSG 0 47886.237 $PGRME,5.7,M,6.4,M,8.6,M*20
MSG 0 47886.298 $PGRMB,0.0,200,,,,K,,N,N*31
MSG 0 47886.358 $PGRMM,WGS 84*06
MSG 0 47886.673 $GPRMC,171927,A,4305.6979,N,07038.3645,W,000.5,243.0,030712,016.1,W*77
POS 0 47967.000 366579.261 4772664.873
QUA 0 47967.000 7 9.000 1.000 10.000 1.000 0.000 0.000 0.000
RAW 0 47967.000 4 430569.79000 -703836.45000 -23.20000 171927.00000
MSG 0 47886.823 $GPGGA,171927,4305.6979,N,07038.3645,W,1,10,1.0,9.2,M,-32.4,M,,*73
MSG 0 47886.964 $GPGSA,A,3,,06,07,10,13,16,20,,23,30,31,32,1.5,1.0,1.0*30
MSG 0 47887.087 $GPGSV,3,1,12,03,49,174,00,06,57,146,50,07,13,297,46,10,07,315,42*7A
MSG 0 47887.233 $PGRME,5.7,M,6.4,M,8.6,M*20
MSG 0 47887.293 $PGRMB,0.0,200,,,,K,,N,N*31
MSG 0 47887.353 $PGRMM,WGS 84*06
MSG 0 47887.659 $GPRMC,171928,A,4305.6977,N,07038.3644,W,000.4,187.3,030712,016.1,W*7E
POS 0 47968.000 366579.390 4772664.501
QUA 0 47968.000 7 9.000 1.000 10.000 1.000 0.000 0.000 0.000
RAW 0 47968.000 4 430569.77000 -703836.44000 -23.30000 171928.00000
MSG 0 47887.809 $GPGGA,171928,4305.6977,N,07038.3644,W,1,10,1.0,9.1,M,-32.4,M,,*70
MSG 0 47887.951 $GPGSA,A,3,,06,07,10,13,16,20,,23,30,31,32,1.5,1.0,1.0*30
MSG 0 47888.074 $GPGSV,3,2,12,13,40,308,49,16,78,013,47,20,03,232,00,21,08,070,00*7C
MSG 0 47888.219 $PGRME,5.7,M,6.4,M,8.6,M*20
MSG 0 47888.280 $PGRMB,0.0,200,,,,K,,N,N*31
MSG 0 47888.340 $PGRMM,WGS 84*06
MSG 0 47888.632 $GPRMC,171929,A,4305.6977,N,07038.3642,W,000.4,112.9,030712,016.1,W*7F
POS 0 47969.000 366579.661 4772664.495
QUA 0 47969.000 7 9.000 1.000 10.000 1.000 0.000 0.000 0.000
RAW 0 47969.000 4 430569.77000 -703836.42000 -23.40000 171929.00000
MSG 0 47888.782 $GPGGA,171929,4305.6977,N,07038.3642,W,1,10,1.0,9.0,M,-32.4,M,,*76
MSG 0 47888.924 $GPGSA,A,3,,06,07,10,13,16,20,,23,30,31,32,1.5,1.0,1.0*30
MSG 0 47889.046 $GPGSV,3,3,12,23,61,261,49,30,51,053,49,31,21,105,41,32,00,209,38*79
MSG 0 47889.192 $PGRME,5.7,M,6.4,M,8.6,M*20
MSG 0 47889.253 $PGRMB,0.0,200,,,,K,,N,N*31
MSG 0 47889.313 $PGRMM,WGS 84*06
MSG 0 47889.635 $GPRMC,171930,A,4305.6975,N,07038.3643,W,000.5,175.0,030712,016.1,W*7D
POS 0 47970.000 366579.518 4772664.128
QUA 0 47970.000 7 9.000 1.000 10.000 1.000 0.000 0.000 0.000
RAW 0 47970.000 4 430569.75000 -703836.43000 -23.50000 171930.00000
MSG 0 47889.785 $GPGGA,171930,4305.6975,N,07038.3643,W,1,10,1.0,8.9,M,-32.4,M,,*75
MSG 0 47889.926 $GPGSA,A,3,,06,07,10,13,16,20,,23,30,31,32,1.5,1.0,1.0*30
MSG 0 47890.049 $GPGSV,3,1,12,03,49,174,00,06,57,146,50,07,13,297,45,10,07,315,40*7B
MSG 0 47890.195 $PGRME,5.8,M,6.5,M,8.7,M*2F
MSG 0 47890.255 $PGRMB,0.0,200,,,,K,,N,N*31
MSG 0 47890.316 $PGRMM,WGS 84*06
MSG 0 47890.627 $GPRMC,171931,A,4305.6974,N,07038.3644,W,000.3,207.6,030712,016.1,W*7C
POS 0 47971.000 366579.379 4772663.945
QUA 0 47971.000 7 9.000 1.000 10.000 1.000 0.000 0.000 0.000
RAW 0 47971.000 4 430569.74000 -703836.44000 -23.50000 171931.00000
MSG 0 47890.776 $GPGGA,171931,4305.6974,N,07038.3644,W,1,10,1.0,8.9,M,-32.4,M,,*72
MSG 0 47890.918 $GPGSA,A,3,,06,07,10,13,16,20,,23,30,31,32,1.5,1.0,1.0*30
MSG 0 47891.041 $GPGSV,3,2,12,13,40,308,48,16,78,013,47,20,03,232,42,21,08,070,00*7B
MSG 0 47891.187 $PGRME,5.8,M,6.5,M,8.7,M*2F
MSG 0 47891.247 $PGRMB,0.0,200,,,,K,,N,N*31
MSG 0 47891.307 $PGRMM,WGS 84*06
MSG 0 47891.619 $GPRMC,171932,A,4305.6973,N,07038.3641,W,000.4,121.4,030712,016.1,W*7F
POS 0 47972.000 366579.782 4772663.752
QUA 0 47972.000 7 9.000 1.000 10.000 1.000 0.000 0.000 0.000
RAW 0 47972.000 4 430569.73000 -703836.41000 -23.00000 171932.00000
MSG 0 47891.769 $GPGGA,171932,4305.6973,N,07038.3641,W,1,10,1.0,9.4,M,-32.4,M,,*7F
MSG 0 47891.911 $GPGSA,A,3,,06,07,10,13,16,20,,23,30,31,32,1.5,1.0,1.0*30
MSG 0 47892.033 $GPGSV,3,3,12,23,61,261,50,30,51,053,48,31,21,105,42,32,00,209,38*73
MSG 0 47892.179 $PGRME,5.7,M,6.5,M,8.7,M*20
MSG 0 47892.240 $PGRMB,0.0,200,,,,K,,N,N*31
MSG 0 47892.300 $PGRMM,WGS 84*06
MSG 0 47892.634 $GPRMC,171933,A,4305.6972,N,07038.3642,W,000.2,154.8,030712,016.1,W*74
POS 0 47973.000 366579.643 4772663.570
QUA 0 47973.000 7 9.100 0.900 10.000 1.000 0.000 0.000 0.000
RAW 0 47973.000 4 430569.72000 -703836.42000 -23.10000 171933.00000
MSG 0 47892.784 $GPGGA,171933,4305.6972,N,07038.3642,W,1,10,0.9,9.3,M,-32.4,M,,*73
MSG 0 47892.926 $GPGSA,A,3,,06,07,10,13,16,20,,23,30,31,32,1.4,0.9,1.0*39
MSG 0 47893.048 $GPGSV,3,1,12,03,49,174,00,06,57,146,50,07,13,297,45,10,07,315,42*79
MSG 0 47893.194 $PGRME,5.7,M,6.5,M,8.7,M*20
MSG 0 47893.255 $PGRMB,0.0,200,,,,K,,N,N*31
MSG 0 47893.315 $PGRMM,WGS 84*06
MSG 0 47893.646 $GPRMC,171934,A,4305.6972,N,07038.3644,W,000.3,223.6,030712,016.1,W*79
POS 0 47974.000 366579.371 4772663.575
QUA 0 47974.000 7 9.100 0.900 10.000 1.000 0.000 0.000 0.000
RAW 0 47974.000 4 430569.72000 -703836.44000 -23.30000 171934.00000
MSG 0 47893.796 $GPGGA,171934,4305.6972,N,07038.3644,W,1,10,0.9,9.1,M,-32.4,M,,*70
MSG 0 47893.938 $GPGSA,A,3,,06,07,10,13,16,20,,23,30,31,32,1.4,0.9,1.0*39
MSG 0 47894.061 $GPGSV,3,2,12,13,40,308,49,16,78,013,48,20,03,232,40,21,08,070,00*77
MSG 0 47894.206 $PGRME,5.7,M,6.5,M,8.7,M*20
MSG 0 47894.267 $PGRMT,GPS 17-HVS Ver. 2.80,P,P,R,R,P,,41,R*0E
MSG 0 47894.367 $PGRMB,0.0,200,,,,K,,N,N*31
MSG 0 47894.427 $PGRMM,WGS 84*06
MSG 0 47894.655 $GPRMC,171935,A,4305.6971,N,07038.3643,W,000.1,223.6,030712,016.1,W*7E
POS 0 47975.000 366579.503 4772663.387
QUA 0 47975.000 7 9.100 0.900 10.000 1.000 0.000 0.000 0.000
RAW 0 47975.000 4 430569.71000 -703836.43000 -23.40000 171935.00000
MSG 0 47894.805 $GPGGA,171935,4305.6971,N,07038.3643,W,1,10,0.9,9.0,M,-32.4,M,,*74
MSG 0 47894.946 $GPGSA,A,3,,06,07,10,13,16,20,,23,30,31,32,1.4,0.9,1.0*39
MSG 0 47895.069 $GPGSV,3,3,12,23,61,261,50,30,51,053,48,31,21,105,43,32,00,209,38*72
MSG 0 47895.215 $PGRME,5.7,M,6.5,M,8.7,M*20
MSG 0 47895.275 $PGRMB,0.0,200,,,,K,,N,N*31
MSG 0 47895.336 $PGRMM,WGS 84*06
MSG 0 47895.635 $GPRMC,171936,A,4305.6970,N,07038.3642,W,000.4,133.4,030712,016.1,W*78
POS 0 47976.000 366579.635 4772663.200
QUA 0 47976.000 7 9.100 0.900 10.000 1.000 0.000 0.000 0.000
RAW 0 47976.000 4 430569.70000 -703836.42000 -23.30000 171936.00000
MSG 0 47895.785 $GPGGA,171936,4305.6970,N,07038.3642,W,1,10,0.9,9.1,M,-32.4,M,,*76
MSG 0 47895.927 $GPGSA,A,3,,06,07,10,13,16,20,,23,30,31,32,1.4,0.9,1.0*39
MSG 0 47896.049 $GPGSV,3,1,12,03,49,174,00,06,57,146,49,07,13,297,45,10,07,315,43*70
MSG 0 47896.195 $PGRME,5.7,M,6.5,M,8.7,M*20
MSG 0 47896.255 $PGRMB,0.0,200,,,,K,,N,N*31
MSG 0 47896.316 $PGRMM,WGS 84*06
MSG 0 47896.633 $GPRMC,171937,A,4305.6969,N,07038.3643,W,000.0,133.4,030712,016.1,W*74
POS 0 47977.000 366579.496 4772663.017
QUA 0 47977.000 7 9.100 0.900 10.000 1.000 0.000 0.000 0.000
RAW 0 47977.000 4 430569.69000 -703836.43000 -23.50000 171937.00000
MSG 0 47896.783 $GPGGA,171937,4305.6969,N,07038.3643,W,1,10,0.9,8.9,M,-32.4,M,,*77
MSG 0 47896.924 $GPGSA,A,3,,06,07,10,13,16,20,,23,30,31,32,1.4,0.9,1.0*39
MSG 0 47897.047 $GPGSV,3,2,12,13,40,308,49,16,78,013,48,20,03,232,38,21,08,070,00*78
MSG 0 47897.193 $PGRME,5.7,M,6.5,M,8.7,M*20
MSG 0 47897.253 $PGRMB,0.0,200,,,,K,,N,N*31
MSG 0 47897.314 $PGRMM,WGS 84*06
MSG 0 47897.617 $GPRMC,171938,A,4305.6969,N,07038.3643,W,000.3,170.7,030712,016.1,W*7C
POS 0 47978.000 366579.496 4772663.017
QUA 0 47978.000 7 9.100 0.900 10.000 1.000 0.000 0.000 0.000
RAW 0 47978.000 4 430569.69000 -703836.43000 -23.50000 171938.00000
MSG 0 47897.766 $GPGGA,171938,4305.6969,N,07038.3643,W,1,10,0.9,8.9,M,-32.4,M,,*78
MSG 0 47897.908 $GPGSA,A,3,,06,07,10,13,16,20,,23,30,31,32,1.4,0.9,1.0*39
MSG 0 47898.031 $GPGSV,3,3,12,23,61,261,50,30,51,053,47,31,21,105,45,32,00,209,38*7B
MSG 0 47898.177 $PGRME,5.7,M,6.5,M,8.7,M*20
MSG 0 47898.237 $PGRMB,0.0,200,,,,K,,N,N*31
MSG 0 47898.297 $PGRMM,WGS 84*06
MSG 0 47898.634 $GPRMC,171939,A,4305.6967,N,07038.3641,W,000.4,131.5,030712,016.1,W*71
POS 0 47979.000 366579.760 4772662.642
QUA 0 47979.000 7 9.100 0.900 10.000 1.000 0.000 0.000 0.000
RAW 0 47979.000 4 430569.67000 -703836.41000 -23.30000 171939.00000
MSG 0 47898.784 $GPGGA,171939,4305.6967,N,07038.3641,W,1,10,0.9,9.1,M,-32.4,M,,*7C
MSG 0 47898.926 $GPGSA,A,3,,06,07,10,13,16,20,,23,30,31,32,1.4,0.9,1.0*39
MSG 0 47899.048 $GPGSV,3,1,12,03,49,174,32,06,57,146,49,07,13,297,45,10,07,315,45*77
MSG 0 47899.194 $PGRME,5.7,M,6.5,M,8.7,M*20
MSG 0 47899.255 $PGRMB,0.0,200,,,,K,,N,N*31
MSG 0 47899.315 $PGRMM,WGS 84*06
MSG 0 47899.657 $GPRMC,171940,A,4305.6965,N,07038.3644,W,000.3,206.8,030712,016.1,W*75
POS 0 47980.000 366579.346 4772662.280
QUA 0 47980.000 7 9.100 0.900 10.000 1.000 0.000 0.000 0.000
RAW 0 47980.000 4 430569.65000 -703836.44000 -23.30000 171940.00000
MSG 0 47899.807 $GPGGA,171940,4305.6965,N,07038.3644,W,1,10,0.9,9.1,M,-32.4,M,,*75
MSG 0 47899.948 $GPGSA,A,3,,06,07,10,13,16,20,,23,30,31,32,1.4,0.9,1.0*39
MSG 0 47900.071 $GPGSV,3,2,12,13,40,308,48,16,78,013,48,20,03,232,38,21,08,070,00*79
MSG 0 47900.217 $PGRME,5.7,M,6.5,M,8.7,M*20
MSG 0 47900.277 $PGRMB,0.0,200,,,,K,,N,N*31
MSG 0 47900.338 $PGRMM,WGS 84*06
MSG 0 47900.637 $GPRMC,171941,A,4305.6964,N,07038.3644,W,000.3,202.7,030712,016.1,W*7E
POS 0 47981.000 366579.342 4772662.094
QUA 0 47981.000 7 9.100 0.900 10.000 1.000 0.000 0.000 0.000
RAW 0 47981.000 4 430569.64000 -703836.44000 -23.20000 171941.00000
MSG 0 47900.787 $GPGGA,171941,4305.6964,N,07038.3644,W,1,10,0.9,9.2,M,-32.4,M,,*76
MSG 0 47900.928 $GPGSA,A,3,,06,07,10,13,16,20,,23,30,31,32,1.4,0.9,1.0*39
MSG 0 47901.051 $GPGSV,3,3,12,23,61,261,50,30,50,054,47,31,21,105,45,32,00,209,39*7C
MSG 0 47901.197 $PGRME,5.7,M,6.5,M,8.7,M*20
MSG 0 47901.257 $PGRMB,0.0,200,,,,K,,N,N*31
MSG 0 47901.317 $PGRMM,WGS 84*06
MSG 0 47901.679 $GPRMC,171942,A,4305.6963,N,07038.3643,W,000.2,145.8,030712,016.1,W*73
POS 0 47982.000 366579.474 4772661.907
QUA 0 47982.000 7 9.100 0.900 10.000 1.000 0.000 0.000 0.000
RAW 0 47982.000 4 430569.63000 -703836.43000 -23.30000 171942.00000
MSG 0 47901.829 $GPGGA,171942,4305.6963,N,07038.3643,W,1,10,0.9,9.1,M,-32.4,M,,*76
MSG 0 47901.970 $GPGSA,A,3,,06,07,10,13,16,20,,23,30,31,32,1.4,0.9,1.0*39
MSG 0 47902.093 $GPGSV,3,1,12,03,49,174,32,06,57,146,49,07,13,297,44,10,07,315,45*76
MSG 0 47902.239 $PGRME,5.7,M,6.5,M,8.7,M*20
MSG 0 47902.299 $PGRMB,0.0,200,,,,K,,N,N*31
MSG 0 47902.360 $PGRMM,WGS 84*06
MSG 0 47902.657 $GPRMC,171943,A,4305.6963,N,07038.3643,W,000.2,145.8,030712,016.1,W*72
POS 0 47983.000 366579.474 4772661.907
QUA 0 47983.000 7 9.100 0.900 10.000 1.000 0.000 0.000 0.000
RAW 0 47983.000 4 430569.63000 -703836.43000 -23.40000 171943.00000
MSG 0 47902.807 $GPGGA,171943,4305.6963,N,07038.3643,W,1,10,0.9,9.0,M,-32.4,M,,*76
MSG 0 47902.948 $GPGSA,A,3,,06,07,10,13,16,20,,23,30,31,32,1.4,0.9,1.1*38
MSG 0 47903.071 $GPGSV,3,2,12,13,40,308,48,16,78,013,47,20,03,232,39,21,08,070,00*77
MSG 0 47903.217 $PGRME,5.7,M,6.5,M,8.7,M*20
MSG 0 47903.277 $PGRMB,0.0,200,,,,K,,N,N*31
MSG 0 47903.337 $PGRMM,WGS 84*06
MSG 0 47903.644 $GPRMC,171944,A,4305.6961,N,07038.3644,W,000.2,174.5,030712,016.1,W*7F
POS 0 47984.000 366579.332 4772661.539
QUA 0 47984.000 7 9.100 0.900 10.000 1.000 0.000 0.000 0.000
RAW 0 47984.000 4 430569.61000 -703836.44000 -23.70000 171944.00000
MSG 0 47903.794 $GPGGA,171944,4305.6961,N,07038.3644,W,1,10,0.9,8.7,M,-32.4,M,,*72
MSG 0 47903.935 $GPGSA,A,3,,06,07,10,13,16,20,,23,30,31,32,1.4,0.9,1.1*38
MSG 0 47904.058 $GPGSV,3,3,12,23,61,261,50,30,50,054,47,31,21,106,46,32,00,209,39*7C
MSG 0 47904.204 $PGRME,5.7,M,6.5,M,8.7,M*20
MSG 0 47904.264 $PGRMB,0.0,200,,,,K,,N,N*31
MSG 0 47904.325 $PGRMM,WGS 84*06
MSG 0 47904.628 $GPRMC,171945,A,4305.6960,N,07038.3642,W,000.3,132.0,030712,016.1,W*7F
POS 0 47985.000 366579.599 4772661.349
QUA 0 47985.000 7 9.100 0.900 10.000 1.000 0.000 0.000 0.000
RAW 0 47985.000 4 430569.60000 -703836.42000 -23.50000 171945.00000
MSG 0 47904.778 $GPGGA,171945,4305.6960,N,07038.3642,W,1,10,0.9,8.9,M,-32.4,M,,*7A
MSG 0 47904.920 $GPGSA,A,3,,06,07,10,13,16,20,,23,30,31,32,1.4,0.9,1.1*38
MSG 0 47905.043 $GPGSV,3,1,12,03,49,174,32,06,57,146,48,07,13,297,44,10,07,315,45*77
MSG 0 47905.188 $PGRME,5.7,M,6.5,M,8.7,M*20
MSG 0 47905.249 $PGRMB,0.0,200,,,,K,,N,N*31
MSG 0 47905.309 $PGRMM,WGS 84*06
MSG 0 47905.617 $GPRMC,171946,A,4305.6959,N,07038.3643,W,000.2,166.7,030712,016.1,W*70
POS 0 47986.000 366579.460 4772661.166
QUA 0 47986.000 7 9.100 0.900 10.000 1.000 0.000 0.000 0.000
RAW 0 47986.000 4 430569.59000 -703836.43000 -23.40000 171946.00000
MSG 0 47905.767 $GPGGA,171946,4305.6959,N,07038.3643,W,1,10,0.9,9.0,M,-32.4,M,,*7A
MSG 0 47905.909 $GPGSA,A,3,,06,07,10,13,16,20,,23,30,31,32,1.4,0.9,1.1*38
MSG 0 47906.032 $GPGSV,3,2,12,13,40,308,48,16,78,013,48,20,03,232,38,21,08,070,00*79
MSG 0 47906.177 $PGRME,5.7,M,6.5,M,8.7,M*20
MSG 0 47906.238 $PGRMB,0.0,200,,,,K,,N,N*31
MSG 0 47906.298 $PGRMM,WGS 84*06
MSG 0 47906.635 $GPRMC,171947,A,4305.6958,N,07038.3643,W,000.3,188.2,030712,016.1,W*74
POS 0 47987.000 366579.456 4772660.981
QUA 0 47987.000 7 9.100 0.900 10.000 1.000 0.000 0.000 0.000
RAW 0 47987.000 4 430569.58000 -703836.43000 -23.30000 171947.00000
MSG 0 47906.785 $GPGGA,171947,4305.6958,N,07038.3643,W,1,10,0.9,9.1,M,-32.4,M,,*7B
MSG 0 47906.926 $GPGSA,A,3,,06,07,10,13,16,20,,23,30,31,32,1.4,0.9,1.1*38
MSG 0 47907.049 $GPGSV,3,3,12,23,61,261,51,30,50,054,47,31,21,106,45,32,00,209,37*70
MSG 0 47907.195 $PGRME,5.7,M,6.5,M,8.7,M*20
MSG 0 47907.255 $PGRMB,0.0,200,,,,K,,N,N*31
MSG 0 47907.316 $PGRMM,WGS 84*06
MSG 0 47907.647 $GPRMC,171948,A,4305.6957,N,07038.3644,W,000.2,188.2,030712,016.1,W*72
POS 0 47988.000 366579.317 4772660.799
QUA 0 47988.000 7 9.100 0.900 10.000 1.000 0.000 0.000 0.000
RAW 0 47988.000 4 430569.57000 -703836.44000 -23.50000 171948.00000
MSG 0 47907.797 $GPGGA,171948,4305.6957,N,07038.3644,W,1,10,0.9,8.9,M,-32.4,M,,*75
MSG 0 47907.938 $GPGSA,A,3,,06,07,10,13,16,20,,23,30,31,32,1.4,0.9,1.1*38
MSG 0 47908.061 $GPGSV,3,1,12,03,49,174,32,06,57,146,48,07,13,297,44,10,07,315,45*77
MSG 0 47908.207 $PGRME,5.7,M,6.5,M,8.7,M*20
MSG 0 47908.267 $PGRMB,0.0,200,,,,K,,N,N*31
MSG 0 47908.328 $PGRMM,WGS 84*06
MSG 0 47908.657 $GPRMC,171949,A,4305.6955,N,07038.3642,W,000.4,146.7,030712,016.1,W*76
POS 0 47989.000 366579.581 4772660.423
QUA 0 47989.000 7 9.100 0.900 10.000 1.000 0.000 0.000 0.000
RAW 0 47989.000 4 430569.55000 -703836.42000 -23.50000 171949.00000
MSG 0 47908.807 $GPGGA,171949,4305.6955,N,07038.3642,W,1,10,0.9,8.9,M,-32.4,M,,*70
MSG 0 47908.949 $GPGSA,A,3,,06,07,10,13,16,20,,23,30,31,32,1.4,0.9,1.1*38
MSG 0 47909.072 $GPGSV,3,2,12,13,40,308,48,16,78,013,48,20,03,232,38,21,08,070,00*79
MSG 0 47909.218 $PGRME,5.7,M,6.5,M,8.7,M*20
MSG 0 47909.278 $PGRMB,0.0,200,,,,K,,N,N*31
MSG 0 47909.338 $PGRMM,WGS 84*06
MSG 0 47909.657 $GPRMC,171950,A,4305.6954,N,07038.3643,W,000.4,171.4,030712,016.1,W*79
POS 0 47990.000 366579.442 4772660.241
QUA 0 47990.000 7 9.100 0.900 10.000 1.000 0.000 0.000 0.000
RAW 0 47990.000 4 430569.54000 -703836.43000 -23.70000 171950.00000
MSG 0 47909.807 $GPGGA,171950,4305.6954,N,07038.3643,W,1,10,0.9,8.7,M,-32.4,M,,*76
MSG 0 47909.949 $GPGSA,A,3,,06,07,10,13,16,20,,23,30,31,32,1.4,0.9,1.1*38
MSG 0 47910.072 $GPGSV,3,3,12,23,61,261,50,30,50,054,46,31,21,106,45,32,00,209,36*71
MSG 0 47910.217 $PGRME,5.7,M,6.5,M,8.7,M*20
MSG 0 47910.278 $PGRMB,0.0,200,,,,K,,N,N*31
MSG 0 47910.338 $PGRMM,WGS 84*06
MSG 0 47910.684 $GPRMC,171951,A,4305.6953,N,07038.3643,W,000.3,181.2,030712,016.1,W*71
POS 0 47991.000 366579.438 4772660.056
QUA 0 47991.000 7 9.100 0.900 10.000 1.000 0.000 0.000 0.000
RAW 0 47991.000 4 430569.53000 -703836.43000 -23.60000 171951.00000
MSG 0 47910.833 $GPGGA,171951,4305.6953,N,07038.3643,W,1,10,0.9,8.8,M,-32.4,M,,*7F
MSG 0 47910.975 $GPGSA,A,3,,06,07,10,13,16,20,,23,30,31,32,1.4,0.9,1.1*38
MSG 0 47911.098 $GPGSV,3,1,12,03,49,174,32,06,57,146,48,07,13,297,44,10,07,315,44*76
MSG 0 47911.244 $PGRME,5.7,M,6.5,M,8.7,M*20
MSG 0 47911.304 $PGRMB,0.0,200,,,,K,,N,N*31
MSG 0 47911.364 $PGRMM,WGS 84*06
MSG 0 47911.641 $GPRMC,171952,A,4305.6952,N,07038.3643,W,000.3,173.9,030712,016.1,W*75
POS 0 47992.000 366579.435 4772659.871
QUA 0 47992.000 7 9.100 0.900 10.000 1.000 0.000 0.000 0.000
RAW 0 47992.000 4 430569.52000 -703836.43000 -23.50000 171952.00000
MSG 0 47911.791 $GPGGA,171952,4305.6952,N,07038.3643,W,1,10,0.9,8.9,M,-32.4,M,,*7C
MSG 0 47911.932 $GPGSA,A,3,,06,07,10,13,16,20,,23,30,31,32,1.4,0.9,1.1*38
MSG 0 47912.055 $GPGSV,3,2,12,13,40,308,48,16,78,013,48,20,03,232,38,21,08,070,00*79
MSG 0 47912.201 $PGRME,5.7,M,6.5,M,8.7,M*20
MSG 0 47912.261 $PGRMB,0.0,200,,,,K,,N,N*31
MSG 0 47912.322 $PGRMM,WGS 84*06
MSG 0 47912.640 $GPRMC,171953,A,4305.6950,N,07038.3645,W,000.4,215.6,030712,016.1,W*7B
POS 0 47993.000 366579.156 4772659.506
QUA 0 47993.000 7 9.100 0.900 10.000 1.000 0.000 0.000 0.000
RAW 0 47993.000 4 430569.50000 -703836.45000 -23.70000 171953.00000
MSG 0 47912.790 $GPGGA,171953,4305.6950,N,07038.3645,W,1,10,0.9,8.7,M,-32.4,M,,*77
MSG 0 47912.932 $GPGSA,A,3,,06,07,10,13,16,20,,23,30,31,32,1.4,0.9,1.1*38
MSG 0 47913.055 $GPGSV,3,3,12,23,61,261,50,30,50,054,46,31,21,106,45,32,00,209,34*73
MSG 0 47913.200 $PGRME,5.7,M,6.5,M,8.7,M*20
MSG 0 47913.261 $PGRMB,0.0,200,,,,K,,N,N*31
MSG 0 47913.321 $PGRMM,WGS 84*06
MSG 0 47913.685 $GPRMC,171954,A,4305.6949,N,07038.3644,W,000.3,179.6,030712,016.1,W*7B
POS 0 47994.000 366579.288 4772659.318
QUA 0 47994.000 7 9.100 0.900 10.000 1.000 0.000 0.000 0.000
RAW 0 47994.000 4 430569.49000 -703836.44000 -24.00000 171954.00000
MSG 0 47913.835 $GPGGA,171954,4305.6949,N,07038.3644,W,1,10,0.9,8.4,M,-32.4,M,,*7A
MSG 0 47913.976 $GPGSA,A,3,,06,07,10,13,16,20,,23,30,31,32,1.4,0.9,1.1*38
MSG 0 47914.099 $GPGSV,3,1,12,03,49,174,32,06,57,146,48,07,13,297,44,10,07,315,44*76
MSG 0 47914.245 $PGRME,5.7,M,6.5,M,8.7,M*20
MSG 0 47914.305 $PGRMB,0.0,200,,,,K,,N,N*31
MSG 0 47914.366 $PGRMM,WGS 84*06
MSG 0 47914.646 $GPRMC,171955,A,4305.6947,N,07038.3644,W,000.5,170.1,030712,016.1,W*7C
POS 0 47995.000 366579.281 4772658.948
QUA 0 47995.000 7 9.100 0.900 10.000 1.000 0.000 0.000 0.000
RAW 0 47995.000 4 430569.47000 -703836.44000 -24.00000 171955.00000
MSG 0 47914.796 $GPGGA,171955,4305.6947,N,07038.3644,W,1,10,0.9,8.4,M,-32.4,M,,*75
MSG 0 47914.937 $GPGSA,A,3,,06,07,10,13,16,20,,23,30,31,32,1.4,0.9,1.1*38
MSG 0 47915.060 $GPGSV,3,2,12,13,40,308,49,16,78,013,48,20,03,232,40,21,08,070,34*70
MSG 0 47915.206 $PGRME,5.7,M,6.5,M,8.7,M*20
MSG 0 47915.266 $PGRMB,0.0,200,,,,K,,N,N*31
MSG 0 47915.327 $PGRMM,WGS 84*06
MSG 0 47915.644 $GPRMC,171956,A,4305.6946,N,07038.3644,W,000.4,174.0,030712,016.1,W*7A
POS 0 47996.000 366579.277 4772658.763
QUA 0 47996.000 7 9.100 0.900 11.000 1.000 0.000 0.000 0.000
RAW 0 47996.000 4 430569.46000 -703836.44000 -24.10000 171956.00000
MSG 0 47915.794 $GPGGA,171956,4305.6946,N,07038.3644,W,1,11,0.9,8.3,M,-32.4,M,,*71
MSG 0 47915.935 $GPGSA,A,3,,06,07,10,13,16,20,21,23,30,31,32,1.4,0.9,1.1*3B
MSG 0 47916.062 $GPGSV,3,3,12,23,61,261,50,30,50,054,47,31,21,106,44,32,00,209,00*74
MSG 0 47916.208 $PGRME,5.5,M,6.1,M,8.2,M*23
FIX 99 47916.334 105 366579.277 4772658.763
