FTP NEW 2
VER 11.0.6.21
INF "" "" "" "" 0.000 0.000 0.000
ELL WGS-84 6378137.000 298.257223563
PRO TME -69.000000 0.999600 0.000000 0.000000 0.000000 500000.0000 0.0000
DTM 0.00 0.00 0.00 0.00000 0.00000 0.00000 0.00000
GEO ??? 0.000
HVU 1.0000000000 1.0000000000
TND 12:12:44 07/03/2012 240
DEV 0 32869 "Garmin GPS" 49156 C:\HYPACK 2011\devices\GPS.dll 11.0.10.6
OFF 0 0.000 0.000 0.000 0.000 0.000 0.000 0.000
DDT 0 SYN 
DEV 1 0 "Disabled" 0 Odom CV3 MK3 Disabled Unknown
USR "NOAA Joint Hydrographic Center" "HYPACK Inc." 0x8 15681181
EOH 0001FFFFFFFFFFFFFFFFFFFFFFFFFFFFFFFFFFFFFFFFFFFFFFFFFFFFFFFFFFFFFFFFFFFFFFFFFFFFFFFFFFFFFFFFFFFFFFFFFFFFFFFFFFFFFFFFFFFFFFFFFFFFFFFFFFFFFFFFFFFFFFFFFFFFFFFFFFFFFFFFFFFFFFFFFFFFFFFFFFFF003021300906052B0E03021A05000414011902824C0AF72E47BAB06B03D446FE51F9162C
MSG 0 43962.771 $GPRMC,161403,A,4303.4269,N,07039.0313,W,000.3,097.2,030712,016.1,W*78
POS 0 44043.000 365592.081 4768479.265
QUA 0 44043.000 7 9.200 0.800 10.000 1.000 0.000 0.000 0.000
RAW 0 44043.000 4 430342.69000 -703903.13000 -21.50000 161403.00000
MSG 0 43962.921 $GPGGA,161403,4303.4269,N,07039.0313,W,1,10,0.8,10.9,M,-32.4,M,,*49
MSG 0 43963.064 $GPGSA,A,3,,06,13,14,16,20,23,29,30,31,32,,1.4,0.8,1.1*31
MSG 0 43963.187 $GPGSV,3,1,11,03,19,181,30,06,28,165,45,13,14,317,39,14,01,143,00*7E
MSG 0 43963.333 $PGRME,4.5,M,6.1,M,7.6,M*29
MSG 0 43963.393 $PGRMB,0.0,200,,,,K,,N,N*31
MSG 0 43963.454 $PGRMM,WGS 84*06
MSG 0 43963.763 $GPRMC,161404,A,4303.4268,N,07039.0309,W,000.6,103.1,030712,016.1,W*7F
POS 0 44044.000 365592.621 4768479.069
QUA 0 44044.000 7 9.200 0.800 10.000 1.000 0.000 0.000 0.000
RAW 0 44044.000 4 430342.68000 -703903.09000 -21.50000 161404.00000
MSG 0 43963.913 $GPGGA,161404,4303.4268,N,07039.0309,W,1,10,0.8,10.9,M,-32.4,M,,*44
MSG 0 43964.057 $GPGSA,A,3,,06,13,14,16,20,23,29,30,31,32,,1.4,0.8,1.1*31
MSG 0 43964.180 $GPGSV,3,2,11,16,68,231,43,20,22,254,44,23,45,306,47,29,17,041,41*7C
MSG 0 43964.325 $PGRME,4.5,M,6.1,M,7.6,M*29
MSG 0 43964.386 $PGRMB,0.0,200,,,,K,,N,N*31
MSG 0 43964.446 $PGRMM,WGS 84*06
FIX 99 43964.840 86 365592.621 4768479.069
MSG 0 43964.748 $GPRMC,161405,A,4303.4268,N,07039.0307,W,000.4,091.1,030712,016.1,W*78
POS 0 44045.000 365592.892 4768479.064
QUA 0 44045.000 7 9.200 0.800 10.000 1.000 0.000 0.000 0.000
RAW 0 44045.000 4 430342.68000 -703903.07000 -21.30000 161405.00000
MSG 0 43964.897 $GPGGA,161405,4303.4268,N,07039.0307,W,1,10,0.8,11.1,M,-32.4,M,,*42
MSG 0 43965.041 $GPGSA,A,3,,06,13,14,16,20,23,29,30,31,32,,1.4,0.8,1.1*31
MSG 0 43965.164 $GPGSV,3,3,11,30,80,032,51,31,43,082,49,32,22,225,45*40
MSG 0 43965.283 $PGRME,4.6,M,6.1,M,7.7,M*2B
MSG 0 43965.343 $PGRMB,0.0,200,,,,K,,N,N*31
MSG 0 43965.403 $PGRMM,WGS 84*06
MSG 0 43965.746 $GPRMC,161406,A,4303.4269,N,07039.0308,W,000.2,027.4,030712,016.1,W*7B
POS 0 44046.000 365592.760 4768479.252
QUA 0 44046.000 7 9.200 0.800 10.000 1.000 0.000 0.000 0.000
RAW 0 44046.000 4 430342.69000 -703903.08000 -20.80000 161406.00000
MSG 0 43965.896 $GPGGA,161406,4303.4269,N,07039.0308,W,1,10,0.8,11.6,M,-32.4,M,,*48
MSG 0 43966.039 $GPGSA,A,3,,06,13,14,16,20,23,29,30,31,32,,1.4,0.8,1.2*32
MSG 0 43966.162 $GPGSV,3,1,11,03,19,181,31,06,29,165,46,13,14,317,40,14,01,143,42*75
MSG 0 43966.308 $PGRME,4.5,M,6.1,M,7.7,M*28
MSG 0 43966.368 $PGRMB,0.0,200,,,,K,,N,N*31
MSG 0 43966.429 $PGRMM,WGS 84*06
MSG 0 43966.761 $GPRMC,161407,A,4303.4269,N,07039.0307,W,000.2,027.4,030712,016.1,W*75
POS 0 44047.000 365592.896 4768479.249
QUA 0 44047.000 7 9.200 0.800 10.000 1.000 0.000 0.000 0.000
RAW 0 44047.000 4 430342.69000 -703903.07000 -20.60000 161407.00000
MSG 0 43966.911 $GPGGA,161407,4303.4269,N,07039.0307,W,1,10,0.8,11.8,M,-32.4,M,,*48
MSG 0 43967.054 $GPGSA,A,3,,06,13,14,16,20,23,29,30,31,32,,1.3,0.8,1.1*36
MSG 0 43967.177 $GPGSV,3,2,11,16,68,231,44,20,22,254,42,23,45,306,48,29,17,041,42*71
MSG 0 43967.323 $PGRME,4.5,M,6.1,M,7.7,M*28
MSG 0 43967.383 $PGRMB,0.0,200,,,,K,,N,N*31
MSG 0 43967.444 $PGRMM,WGS 84*06
MSG 0 43967.759 $GPRMC,161408,A,4303.4271,N,07039.0308,W,000.3,359.4,030712,016.1,W*77
POS 0 44048.000 365592.767 4768479.622
QUA 0 44048.000 7 9.200 0.800 10.000 1.000 0.000 0.000 0.000
RAW 0 44048.000 4 430342.71000 -703903.08000 -20.90000 161408.00000
MSG 0 43967.909 $GPGGA,161408,4303.4271,N,07039.0308,W,1,10,0.8,11.5,M,-32.4,M,,*4C
MSG 0 43968.053 $GPGSA,A,3,,06,13,14,16,20,23,29,30,31,32,,1.4,0.8,1.1*31
MSG 0 43968.175 $GPGSV,3,3,11,30,80,032,51,31,43,082,51,32,22,225,45*49
MSG 0 43968.294 $PGRME,4.5,M,6.1,M,7.7,M*28
MSG 0 43968.355 $PGRMB,0.0,200,,,,K,,N,N*31
MSG 0 43968.415 $PGRMM,WGS 84*06
MSG 0 43968.747 $GPRMC,161409,A,4303.4270,N,07039.0305,W,000.3,095.8,030712,016.1,W*75
POS 0 44049.000 365593.171 4768479.429
QUA 0 44049.000 7 9.200 0.800 10.000 1.000 0.000 0.000 0.000
RAW 0 44049.000 4 430342.70000 -703903.05000 -21.20000 161409.00000
MSG 0 43968.897 $GPGGA,161409,4303.4270,N,07039.0305,W,1,10,0.8,11.2,M,-32.4,M,,*46
MSG 0 43969.041 $GPGSA,A,3,,06,13,14,16,20,23,29,30,31,32,,1.4,0.8,1.1*31
MSG 0 43969.164 $GPGSV,3,1,11,03,19,181,32,06,29,165,47,13,14,317,39,14,01,143,44*7F
MSG 0 43969.309 $PGRME,4.5,M,6.1,M,7.7,M*28
MSG 0 43969.370 $PGRMB,0.0,200,,,,K,,N,N*31
MSG 0 43969.430 $PGRMM,WGS 84*06
MSG 0 43969.762 $GPRMC,161410,A,4303.4270,N,07039.0305,W,000.2,052.3,030712,016.1,W*7C
POS 0 44050.000 365593.171 4768479.429
QUA 0 44050.000 7 9.200 0.800 10.000 1.000 0.000 0.000 0.000
RAW 0 44050.000 4 430342.70000 -703903.05000 -21.00000 161410.00000
MSG 0 43969.912 $GPGGA,161410,4303.4270,N,07039.0305,W,1,10,0.8,11.4,M,-32.4,M,,*48
MSG 0 43970.056 $GPGSA,A,3,,06,13,14,16,20,23,29,30,31,32,,1.4,0.8,1.1*31
MSG 0 43970.179 $GPGSV,3,2,11,16,68,231,44,20,22,254,44,23,45,306,48,29,17,041,42*77
MSG 0 43970.324 $PGRME,4.6,M,6.2,M,7.7,M*28
MSG 0 43970.385 $PGRMB,0.0,200,,,,K,,N,N*31
MSG 0 43970.445 $PGRMM,WGS 84*06
MSG 0 43970.746 $GPRMC,161411,A,4303.4270,N,07039.0303,W,000.3,077.3,030712,016.1,W*7D
POS 0 44051.000 365593.442 4768479.424
QUA 0 44051.000 7 9.200 0.800 10.000 1.000 0.000 0.000 0.000
RAW 0 44051.000 4 430342.70000 -703903.03000 -20.70000 161411.00000
MSG 0 43970.896 $GPGGA,161411,4303.4270,N,07039.0303,W,1,10,0.8,11.7,M,-32.4,M,,*4C
MSG 0 43971.039 $GPGSA,A,3,,06,13,14,16,20,23,29,30,31,32,,1.4,0.8,1.1*31
MSG 0 43971.162 $GPGSV,3,3,11,30,80,032,51,31,43,082,51,32,22,225,46*4A
MSG 0 43971.281 $PGRME,4.5,M,6.2,M,7.7,M*2B
MSG 0 43971.341 $PGRMB,0.0,200,,,,K,,N,N*31
MSG 0 43971.401 $PGRMM,WGS 84*06
MSG 0 43971.748 $GPRMC,161412,A,4303.4270,N,07039.0300,W,000.5,098.5,030712,016.1,W*7C
POS 0 44052.000 365593.850 4768479.415
QUA 0 44052.000 7 9.200 0.800 10.000 1.000 0.000 0.000 0.000
RAW 0 44052.000 4 430342.70000 -703903.00000 -20.60000 161412.00000
MSG 0 43971.898 $GPGGA,161412,4303.4270,N,07039.0300,W,1,10,0.8,11.8,M,-32.4,M,,*43
MSG 0 43972.041 $GPGSA,A,3,,06,13,14,16,20,23,29,30,31,32,,1.3,0.8,1.1*36
MSG 0 43972.164 $GPGSV,3,1,11,03,19,181,32,06,29,165,47,13,14,317,40,14,01,143,45*70
MSG 0 43972.310 $PGRME,4.5,M,6.2,M,7.7,M*2B
MSG 0 43972.370 $PGRMB,0.0,200,,,,K,,N,N*31
MSG 0 43972.431 $PGRMM,WGS 84*06
MSG 0 43972.748 $GPRMC,161413,A,4303.4271,N,07039.0301,W,000.2,051.6,030712,016.1,W*7C
POS 0 44053.000 365593.717 4768479.603
QUA 0 44053.000 7 9.200 0.800 10.000 1.000 0.000 0.000 0.000
RAW 0 44053.000 4 430342.71000 -703903.01000 -20.60000 161413.00000
MSG 0 43972.898 $GPGGA,161413,4303.4271,N,07039.0301,W,1,10,0.8,11.8,M,-32.4,M,,*42
MSG 0 43973.042 $GPGSA,A,3,,06,13,14,16,20,23,29,30,31,32,,1.4,0.8,1.1*31
MSG 0 43973.164 $GPGSV,3,2,11,16,68,231,44,20,22,254,44,23,45,306,48,29,17,041,42*77
MSG 0 43973.310 $PGRME,4.5,M,6.2,M,7.7,M*2B
MSG 0 43973.370 $PGRMB,0.0,200,,,,K,,N,N*31
MSG 0 43973.431 $PGRMM,WGS 84*06
MSG 0 43973.740 $GPRMC,161414,A,4303.4271,N,07039.0302,W,000.0,051.6,030712,016.1,W*7A
POS 0 44054.000 365593.582 4768479.606
QUA 0 44054.000 7 9.200 0.800 10.000 1.000 0.000 0.000 0.000
RAW 0 44054.000 4 430342.71000 -703903.02000 -20.50000 161414.00000
MSG 0 43973.890 $GPGGA,161414,4303.4271,N,07039.0302,W,1,10,0.8,11.9,M,-32.4,M,,*47
MSG 0 43974.034 $GPGSA,A,3,,06,13,14,16,20,23,29,30,31,32,,1.4,0.8,1.1*31
MSG 0 43974.157 $GPGSV,3,3,11,30,80,032,50,31,43,082,52,32,22,225,45*4B
MSG 0 43974.276 $PGRME,4.5,M,6.2,M,7.7,M*2B
MSG 0 43974.336 $PGRMB,0.0,200,,,,K,,N,N*31
MSG 0 43974.396 $PGRMM,WGS 84*06
MSG 0 43974.760 $GPRMC,161415,A,4303.4270,N,07039.0300,W,000.4,104.6,030712,016.1,W*7D
POS 0 44055.000 365593.850 4768479.415
QUA 0 44055.000 7 9.200 0.800 10.000 1.000 0.000 0.000 0.000
RAW 0 44055.000 4 430342.70000 -703903.00000 -20.70000 161415.00000
MSG 0 43974.910 $GPGGA,161415,4303.4270,N,07039.0300,W,1,10,0.8,11.7,M,-32.4,M,,*4B
MSG 0 43975.054 $GPGSA,A,3,,06,13,14,16,20,23,29,30,31,32,,1.3,0.8,1.1*36
MSG 0 43975.177 $GPGSV,3,1,11,03,19,181,33,06,29,165,47,13,14,317,40,14,01,143,44*70
MSG 0 43975.322 $PGRME,4.5,M,6.2,M,7.7,M*2B
MSG 0 43975.383 $PGRMB,0.0,200,,,,K,,N,N*31
MSG 0 43975.443 $PGRMM,WGS 84*06
MSG 0 43975.760 $GPRMC,161416,A,4303.4269,N,07039.0298,W,000.4,115.1,030712,016.1,W*71
POS 0 44056.000 365594.117 4768479.225
QUA 0 44056.000 7 9.200 0.800 10.000 1.000 0.000 0.000 0.000
RAW 0 44056.000 4 430342.69000 -703902.98000 -20.70000 161416.00000
MSG 0 43975.910 $GPGGA,161416,4303.4269,N,07039.0298,W,1,10,0.8,11.7,M,-32.4,M,,*40
MSG 0 43976.054 $GPGSA,A,3,,06,13,14,16,20,23,29,30,31,32,,1.4,0.8,1.1*31
MSG 0 43976.177 $GPGSV,3,2,11,16,68,231,44,20,22,254,44,23,45,306,50,29,17,041,43*7F
MSG 0 43976.322 $PGRME,4.5,M,6.2,M,7.7,M*2B
MSG 0 43976.383 $PGRMB,0.0,200,,,,K,,N,N*31
MSG 0 43976.443 $PGRMM,WGS 84*06
MSG 0 43976.759 $GPRMC,161417,A,4303.4270,N,07039.0297,W,000.3,059.0,030712,016.1,W*78
POS 0 44057.000 365594.257 4768479.407
QUA 0 44057.000 7 9.200 0.800 10.000 1.000 0.000 0.000 0.000
RAW 0 44057.000 4 430342.70000 -703902.97000 -20.40000 161417.00000
MSG 0 43976.909 $GPGGA,161417,4303.4270,N,07039.0297,W,1,10,0.8,12.0,M,-32.4,M,,*42
MSG 0 43977.052 $GPGSA,A,3,,06,13,14,16,20,23,29,30,31,32,,1.4,0.8,1.1*31
MSG 0 43977.175 $GPGSV,3,3,11,30,80,032,50,31,43,082,52,32,22,225,44*4A
MSG 0 43977.294 $PGRME,4.6,M,6.2,M,7.7,M*28
MSG 0 43977.354 $PGRMB,0.0,200,,,,K,,N,N*31
MSG 0 43977.415 $PGRMM,WGS 84*06
MSG 0 43977.759 $GPRMC,161418,A,4303.4270,N,07039.0294,W,000.5,093.2,030712,016.1,W*76
POS 0 44058.000 365594.664 4768479.399
QUA 0 44058.000 7 9.200 0.800 10.000 1.000 0.000 0.000 0.000
RAW 0 44058.000 4 430342.70000 -703902.94000 -20.50000 161418.00000
MSG 0 43977.909 $GPGGA,161418,4303.4270,N,07039.0294,W,1,10,0.8,11.9,M,-32.4,M,,*44
MSG 0 43978.053 $GPGSA,A,3,,06,13,14,16,20,23,29,30,31,32,,1.4,0.8,1.1*31
MSG 0 43978.176 $GPGSV,3,1,11,03,19,181,33,06,29,165,47,13,14,317,40,14,01,143,41*75
MSG 0 43978.321 $PGRME,4.5,M,6.2,M,7.7,M*2B
MSG 0 43978.382 $PGRMB,0.0,200,,,,K,,N,N*31
MSG 0 43978.442 $PGRMM,WGS 84*06
MSG 0 43978.747 $GPRMC,161419,A,4303.4269,N,07039.0293,W,000.4,096.8,030712,016.1,W*76
POS 0 44059.000 365594.796 4768479.212
QUA 0 44059.000 7 9.200 0.800 10.000 1.000 0.000 0.000 0.000
RAW 0 44059.000 4 430342.69000 -703902.93000 -20.30000 161419.00000
MSG 0 43978.897 $GPGGA,161419,4303.4269,N,07039.0293,W,1,10,0.8,12.1,M,-32.4,M,,*41
MSG 0 43979.041 $GPGSA,A,3,,06,13,14,16,20,23,29,30,31,32,,1.4,0.8,1.1*31
MSG 0 43979.164 $GPGSV,3,2,11,16,68,231,43,20,22,254,44,23,45,306,50,29,17,041,42*79
MSG 0 43979.309 $PGRME,4.5,M,6.2,M,7.7,M*2B
MSG 0 43979.370 $PGRMB,0.0,200,,,,K,,N,N*31
MSG 0 43979.430 $PGRMM,WGS 84*06
MSG 0 43979.762 $GPRMC,161420,A,4303.4269,N,07039.0293,W,000.2,096.8,030712,016.1,W*7A
POS 0 44060.000 365594.796 4768479.212
QUA 0 44060.000 7 9.200 0.800 10.000 1.000 0.000 0.000 0.000
RAW 0 44060.000 4 430342.69000 -703902.93000 -20.30000 161420.00000
MSG 0 43979.912 $GPGGA,161420,4303.4269,N,07039.0293,W,1,10,0.8,12.1,M,-32.4,M,,*4B
MSG 0 43980.056 $GPGSA,A,3,,06,13,14,16,20,23,29,30,31,32,,1.4,0.8,1.1*31
MSG 0 43980.179 $GPGSV,3,3,11,30,80,032,50,31,43,082,52,32,22,225,44*4A
MSG 0 43980.297 $PGRME,4.6,M,6.2,M,7.7,M*28
MSG 0 43980.358 $PGRMB,0.0,200,,,,K,,N,N*31
MSG 0 43980.418 $PGRMM,WGS 84*06
MSG 0 43980.760 $GPRMC,161421,A,4303.4269,N,07039.0291,W,000.4,082.6,030712,016.1,W*74
POS 0 44061.000 365595.067 4768479.206
QUA 0 44061.000 7 9.200 0.800 10.000 1.000 0.000 0.000 0.000
RAW 0 44061.000 4 430342.69000 -703902.91000 -20.40000 161421.00000
MSG 0 43980.910 $GPGGA,161421,4303.4269,N,07039.0291,W,1,10,0.8,12.0,M,-32.4,M,,*49
MSG 0 43981.054 $GPGSA,A,3,,06,13,14,16,20,23,29,30,31,32,,1.4,0.8,1.1*31
MSG 0 43981.177 $GPGSV,3,1,11,03,19,181,33,06,29,165,47,13,14,317,40,14,01,143,39*7A
MSG 0 43981.322 $PGRME,4.5,M,6.2,M,7.7,M*2B
MSG 0 43981.383 $PGRMB,0.0,200,,,,K,,N,N*31
MSG 0 43981.443 $PGRMM,WGS 84*06
MSG 0 43981.760 $GPRMC,161422,A,4303.4267,N,07039.0289,W,000.5,128.8,030712,016.1,W*7E
POS 0 44062.000 365595.332 4768478.831
QUA 0 44062.000 7 9.200 0.800 10.000 1.000 0.000 0.000 0.000
RAW 0 44062.000 4 430342.67000 -703902.89000 -20.60000 161422.00000
MSG 0 43981.910 $GPGGA,161422,4303.4267,N,07039.0289,W,1,10,0.8,11.8,M,-32.4,M,,*46
MSG 0 43982.054 $GPGSA,A,3,,06,13,14,16,20,23,29,30,31,32,,1.4,0.8,1.1*31
MSG 0 43982.177 $GPGSV,3,2,11,16,68,231,43,20,22,254,44,23,45,306,49,29,17,041,42*71
MSG 0 43982.322 $PGRME,4.6,M,6.2,M,7.7,M*28
MSG 0 43982.383 $PGRMB,0.0,200,,,,K,,N,N*31
MSG 0 43982.443 $PGRMM,WGS 84*06
MSG 0 43982.759 $GPRMC,161423,A,4303.4268,N,07039.0287,W,000.5,084.3,030712,016.1,W*72
POS 0 44063.000 365595.607 4768479.011
QUA 0 44063.000 7 9.200 0.800 10.000 1.000 0.000 0.000 0.000
RAW 0 44063.000 4 430342.68000 -703902.87000 -20.50000 161423.00000
MSG 0 43982.909 $GPGGA,161423,4303.4268,N,07039.0287,W,1,10,0.8,11.9,M,-32.4,M,,*47
MSG 0 43983.053 $GPGSA,A,3,,06,13,14,16,20,23,29,30,31,32,,1.4,0.8,1.1*31
MSG 0 43983.176 $GPGSV,3,3,11,30,80,032,50,31,43,082,51,32,22,225,44*49
MSG 0 43983.294 $PGRME,4.5,M,6.2,M,7.7,M*2B
MSG 0 43983.355 $PGRMB,0.0,200,,,,K,,N,N*31
MSG 0 43983.415 $PGRMM,WGS 84*06
MSG 0 43983.745 $GPRMC,161424,A,4303.4267,N,07039.0287,W,000.3,111.9,030712,016.1,W*7B
POS 0 44064.000 365595.603 4768478.826
QUA 0 44064.000 7 9.200 0.800 10.000 1.000 0.000 0.000 0.000
RAW 0 44064.000 4 430342.67000 -703902.87000 -20.20000 161424.00000
MSG 0 43983.895 $GPGGA,161424,4303.4267,N,07039.0287,W,1,10,0.8,12.2,M,-32.4,M,,*47
MSG 0 43984.039 $GPGSA,A,3,,06,13,14,16,20,23,29,30,31,32,,1.3,0.8,1.1*36
MSG 0 43984.162 $GPGSV,3,1,11,03,19,181,33,06,29,165,48,13,14,317,43,14,01,143,41*79
MSG 0 43984.307 $PGRME,4.5,M,6.2,M,7.7,M*2B
MSG 0 43984.368 $PGRMB,0.0,200,,,,K,,N,N*31
MSG 0 43984.428 $PGRMM,WGS 84*06
MSG 0 43984.762 $GPRMC,161425,A,4303.4267,N,07039.0283,W,000.6,095.3,030712,016.1,W*7C
POS 0 44065.000 365596.146 4768478.815
QUA 0 44065.000 7 9.200 0.800 10.000 1.000 0.000 0.000 0.000
RAW 0 44065.000 4 430342.67000 -703902.83000 -20.00000 161425.00000
MSG 0 43984.912 $GPGGA,161425,4303.4267,N,07039.0283,W,1,10,0.8,12.4,M,-32.4,M,,*44
MSG 0 43985.055 $GPGSA,A,3,,06,13,14,16,20,23,29,30,31,32,,1.3,0.8,1.1*36
MSG 0 43985.178 $GPGSV,3,2,11,16,68,231,42,20,22,254,45,23,45,306,49,29,17,041,41*72
MSG 0 43985.324 $PGRME,4.5,M,6.2,M,7.7,M*2B
MSG 0 43985.384 $PGRMB,0.0,200,,,,K,,N,N*31
MSG 0 43985.445 $PGRMM,WGS 84*06
MSG 0 43985.745 $GPRMC,161426,A,4303.4267,N,07039.0283,W,000.3,093.3,030712,016.1,W*7C
POS 0 44066.000 365596.146 4768478.815
QUA 0 44066.000 7 9.200 0.800 10.000 1.000 0.000 0.000 0.000
RAW 0 44066.000 4 430342.67000 -703902.83000 -19.80000 161426.00000
MSG 0 43985.895 $GPGGA,161426,4303.4267,N,07039.0283,W,1,10,0.8,12.6,M,-32.4,M,,*45
MSG 0 43986.039 $GPGSA,A,3,,06,13,14,16,20,23,29,30,31,32,,1.4,0.8,1.1*31
MSG 0 43986.161 $GPGSV,3,3,11,30,80,032,50,31,43,082,50,32,22,225,45*49
MSG 0 43986.280 $PGRME,4.5,M,6.2,M,7.7,M*2B
MSG 0 43986.340 $PGRMB,0.0,200,,,,K,,N,N*31
MSG 0 43986.401 $PGRMM,WGS 84*06
MSG 0 43986.745 $GPRMC,161427,A,4303.4267,N,07039.0283,W,000.2,102.3,030712,016.1,W*75
POS 0 44067.000 365596.146 4768478.815
QUA 0 44067.000 7 9.200 0.800 10.000 1.000 0.000 0.000 0.000
RAW 0 44067.000 4 430342.67000 -703902.83000 -19.70000 161427.00000
MSG 0 43986.895 $GPGGA,161427,4303.4267,N,07039.0283,W,1,10,0.8,12.7,M,-32.4,M,,*45
MSG 0 43987.039 $GPGSA,A,3,,06,13,14,16,20,23,29,30,31,32,,1.3,0.8,1.1*36
MSG 0 43987.162 $GPGSV,3,1,11,03,19,181,33,06,29,165,47,13,14,317,43,14,01,143,42*75
MSG 0 43987.307 $PGRME,4.5,M,6.2,M,7.7,M*2B
MSG 0 43987.368 $PGRMB,0.0,200,,,,K,,N,N*31
MSG 0 43987.428 $PGRMM,WGS 84*06
MSG 0 43987.778 $GPRMC,161428,A,4303.4266,N,07039.0280,W,000.4,104.8,030712,016.1,W*73
POS 0 44068.000 365596.549 4768478.622
QUA 0 44068.000 7 9.200 0.800 10.000 1.000 0.000 0.000 0.000
RAW 0 44068.000 4 430342.66000 -703902.80000 -19.70000 161428.00000
MSG 0 43987.928 $GPGGA,161428,4303.4266,N,07039.0280,W,1,10,0.8,12.7,M,-32.4,M,,*48
MSG 0 43988.072 $GPGSA,A,3,,06,13,14,16,20,23,29,30,31,32,,1.3,0.8,1.1*36
MSG 0 43988.194 $GPGSV,3,2,11,16,68,231,43,20,22,254,45,23,45,306,49,29,17,041,40*72
MSG 0 43988.340 $PGRME,4.5,M,6.2,M,7.7,M*2B
MSG 0 43988.400 $PGRMB,0.0,200,,,,K,,N,N*31
MSG 0 43988.461 $PGRMM,WGS 84*06
MSG 0 43988.760 $GPRMC,161429,A,4303.4266,N,07039.0279,W,000.4,121.5,030712,016.1,W*7E
POS 0 44069.000 365596.685 4768478.619
QUA 0 44069.000 7 9.200 0.800 10.000 1.000 0.000 0.000 0.000
RAW 0 44069.000 4 430342.66000 -703902.79000 -19.70000 161429.00000
MSG 0 43988.910 $GPGGA,161429,4303.4266,N,07039.0279,W,1,10,0.8,12.7,M,-32.4,M,,*4F
MSG 0 43989.054 $GPGSA,A,3,,06,13,14,16,20,23,29,30,31,32,,1.4,0.8,1.1*31
MSG 0 43989.177 $GPGSV,3,3,11,30,80,032,50,31,43,082,50,32,22,225,44*48
MSG 0 43989.295 $PGRME,4.6,M,6.2,M,7.7,M*28
MSG 0 43989.356 $PGRMB,0.0,200,,,,K,,N,N*31
MSG 0 43989.416 $PGRMM,WGS 84*06
MSG 0 43989.758 $GPRMC,161430,A,4303.4266,N,07039.0277,W,000.4,095.4,030712,016.1,W*77
POS 0 44070.000 365596.957 4768478.614
QUA 0 44070.000 7 9.200 0.800 10.000 1.000 0.000 0.000 0.000
RAW 0 44070.000 4 430342.66000 -703902.77000 -19.60000 161430.00000
MSG 0 43989.908 $GPGGA,161430,4303.4266,N,07039.0277,W,1,10,0.8,12.8,M,-32.4,M,,*46
MSG 0 43990.052 $GPGSA,A,3,,06,13,14,16,20,23,29,30,31,32,,1.4,0.8,1.1*31
MSG 0 43990.174 $GPGSV,3,1,11,03,19,181,33,06,29,165,46,13,14,317,42,14,01,143,45*72
MSG 0 43990.320 $PGRME,4.5,M,6.2,M,7.7,M*2B
MSG 0 43990.381 $PGRMB,0.0,200,,,,K,,N,N*31
MSG 0 43990.441 $PGRMM,WGS 84*06
MSG 0 43990.745 $GPRMC,161431,A,4303.4265,N,07039.0274,W,000.6,107.2,030712,016.1,W*78
POS 0 44071.000 365597.360 4768478.421
QUA 0 44071.000 7 9.200 0.800 10.000 1.000 0.000 0.000 0.000
RAW 0 44071.000 4 430342.65000 -703902.74000 -19.70000 161431.00000
MSG 0 43990.895 $GPGGA,161431,4303.4265,N,07039.0274,W,1,10,0.8,12.7,M,-32.4,M,,*48
MSG 0 43991.038 $GPGSA,A,3,,06,13,14,16,20,23,29,30,31,32,,1.4,0.8,1.1*31
MSG 0 43991.161 $GPGSV,3,2,11,16,68,231,43,20,22,254,46,23,45,306,49,29,17,041,42*73
MSG 0 43991.307 $PGRME,4.6,M,6.2,M,7.7,M*28
MSG 0 43991.367 $PGRMB,0.0,200,,,,K,,N,N*31
MSG 0 43991.428 $PGRMM,WGS 84*06
MSG 0 43991.754 $GPRMC,161432,A,4303.4264,N,07039.0273,W,000.5,099.3,030712,016.1,W*79
POS 0 44072.000 365597.492 4768478.233
QUA 0 44072.000 7 9.200 0.800 10.000 1.000 0.000 0.000 0.000
RAW 0 44072.000 4 430342.64000 -703902.73000 -19.50000 161432.00000
MSG 0 43991.904 $GPGGA,161432,4303.4264,N,07039.0273,W,1,10,0.8,12.9,M,-32.4,M,,*43
MSG 0 43992.048 $GPGSA,A,3,,06,13,14,16,20,23,29,30,31,32,,1.4,0.8,1.1*31
MSG 0 43992.171 $GPGSV,3,3,11,30,80,032,50,31,43,082,49,32,22,225,43*47
MSG 0 43992.289 $PGRME,4.6,M,6.2,M,7.7,M*28
MSG 0 43992.350 $PGRMB,0.0,200,,,,K,,N,N*31
MSG 0 43992.410 $PGRMM,WGS 84*06
MSG 0 43992.758 $GPRMC,161433,A,4303.4264,N,07039.0271,W,000.4,103.2,030712,016.1,W*78
POS 0 44073.000 365597.764 4768478.228
QUA 0 44073.000 7 9.200 0.800 10.000 1.000 0.000 0.000 0.000
RAW 0 44073.000 4 430342.64000 -703902.71000 -19.30000 161433.00000
MSG 0 43992.908 $GPGGA,161433,4303.4264,N,07039.0271,W,1,10,0.8,13.1,M,-32.4,M,,*49
MSG 0 43993.051 $GPGSA,A,3,,06,13,14,16,20,23,29,30,31,32,,1.4,0.8,1.1*31
MSG 0 43993.174 $GPGSV,3,1,11,03,19,181,33,06,29,165,46,13,15,317,40,14,01,143,45*71
MSG 0 43993.320 $PGRME,4.6,M,6.2,M,7.7,M*28
MSG 0 43993.380 $PGRMB,0.0,200,,,,K,,N,N*31
MSG 0 43993.441 $PGRMM,WGS 84*06
MSG 0 43993.759 $GPRMC,161434,A,4303.4264,N,07039.0270,W,000.3,084.0,030712,016.1,W*75
POS 0 44074.000 365597.899 4768478.225
QUA 0 44074.000 7 9.200 0.800 10.000 1.000 0.000 0.000 0.000
RAW 0 44074.000 4 430342.64000 -703902.70000 -19.20000 161434.00000
MSG 0 43993.909 $GPGGA,161434,4303.4264,N,07039.0270,W,1,10,0.8,13.2,M,-32.4,M,,*4C
MSG 0 43994.053 $GPGSA,A,3,,06,13,14,16,20,23,29,30,31,32,,1.4,0.8,1.1*31
MSG 0 43994.175 $GPGSV,3,2,11,16,68,231,44,20,22,254,45,23,45,306,49,29,17,041,43*76
MSG 0 43994.321 $PGRME,4.6,M,6.2,M,7.7,M*28
MSG 0 43994.381 $PGRMT,GPS 17-HVS Ver. 2.80,P,P,R,R,P,,40,R*0F
MSG 0 43994.481 $PGRMB,0.0,200,,,,K,,N,N*31
MSG 0 43994.542 $PGRMM,WGS 84*06
MSG 0 43994.744 $GPRMC,161435,A,4303.4262,N,07039.0268,W,000.5,125.8,030712,016.1,W*7F
POS 0 44075.000 365598.164 4768477.849
QUA 0 44075.000 7 9.200 0.800 10.000 1.000 0.000 0.000 0.000
RAW 0 44075.000 4 430342.62000 -703902.68000 -19.40000 161435.00000
MSG 0 43994.894 $GPGGA,161435,4303.4262,N,07039.0268,W,1,10,0.8,13.0,M,-32.4,M,,*40
MSG 0 43995.038 $GPGSA,A,3,,06,13,14,16,20,23,29,30,31,32,,1.4,0.8,1.1*31
MSG 0 43995.161 $GPGSV,3,3,11,30,80,032,50,31,43,082,49,32,22,225,43*47
MSG 0 43995.280 $PGRME,4.6,M,6.2,M,7.7,M*28
MSG 0 43995.340 $PGRMB,0.0,200,,,,K,,N,N*31
MSG 0 43995.400 $PGRMM,WGS 84*06
MSG 0 43995.758 $GPRMC,161436,A,4303.4262,N,07039.0266,W,000.5,109.7,030712,016.1,W*73
POS 0 44076.000 365598.435 4768477.844
QUA 0 44076.000 7 9.200 0.800 10.000 1.000 0.000 0.000 0.000
RAW 0 44076.000 4 430342.62000 -703902.66000 -19.40000 161436.00000
MSG 0 43995.908 $GPGGA,161436,4303.4262,N,07039.0266,W,1,10,0.8,13.0,M,-32.4,M,,*4D
MSG 0 43996.052 $GPGSA,A,3,,06,13,14,16,20,23,29,30,31,32,,1.4,0.8,1.1*31
MSG 0 43996.175 $GPGSV,3,1,11,03,19,181,33,06,29,165,46,13,15,317,39,14,00,143,44*7F
MSG 0 43996.321 $PGRME,4.5,M,6.2,M,7.7,M*2B
MSG 0 43996.381 $PGRMB,0.0,200,,,,K,,N,N*31
MSG 0 43996.441 $PGRMM,WGS 84*06
MSG 0 43996.756 $GPRMC,161437,A,4303.4262,N,07039.0265,W,000.3,097.1,030712,016.1,W*77
POS 0 44077.000 365598.571 4768477.841
QUA 0 44077.000 7 9.200 0.800 10.000 1.000 0.000 0.000 0.000
RAW 0 44077.000 4 430342.62000 -703902.65000 -19.30000 161437.00000
MSG 0 43996.906 $GPGGA,161437,4303.4262,N,07039.0265,W,1,10,0.8,13.1,M,-32.4,M,,*4E
MSG 0 43997.050 $GPGSA,A,3,,06,13,14,16,20,23,29,30,31,32,,1.4,0.8,1.1*31
MSG 0 43997.173 $GPGSV,3,2,11,16,68,231,44,20,22,254,46,23,45,306,49,29,17,041,44*72
MSG 0 43997.318 $PGRME,4.6,M,6.2,M,7.7,M*28
MSG 0 43997.379 $PGRMB,0.0,200,,,,K,,N,N*31
MSG 0 43997.439 $PGRMM,WGS 84*06
MSG 0 43997.759 $GPRMC,161438,A,4303.4260,N,07039.0261,W,000.7,120.3,030712,016.1,W*75
POS 0 44078.000 365599.106 4768477.460
QUA 0 44078.000 7 9.200 0.800 10.000 1.000 0.000 0.000 0.000
RAW 0 44078.000 4 430342.60000 -703902.61000 -19.40000 161438.00000
MSG 0 43997.909 $GPGGA,161438,4303.4260,N,07039.0261,W,1,10,0.8,13.0,M,-32.4,M,,*46
MSG 0 43998.052 $GPGSA,A,3,,06,13,14,16,20,23,29,30,31,32,,1.4,0.8,1.1*31
MSG 0 43998.175 $GPGSV,3,3,11,30,80,032,50,31,43,082,48,32,22,225,44*41
MSG 0 43998.294 $PGRME,4.5,M,6.2,M,7.7,M*2B
MSG 0 43998.354 $PGRMB,0.0,200,,,,K,,N,N*31
MSG 0 43998.415 $PGRMM,WGS 84*06
MSG 0 43998.746 $GPRMC,161439,A,4303.4259,N,07039.0259,W,000.6,116.7,030712,016.1,W*75
POS 0 44079.000 365599.374 4768477.270
QUA 0 44079.000 7 9.200 0.800 10.000 1.000 0.000 0.000 0.000
RAW 0 44079.000 4 430342.59000 -703902.59000 -19.20000 161439.00000
MSG 0 43998.896 $GPGGA,161439,4303.4259,N,07039.0259,W,1,10,0.8,13.2,M,-32.4,M,,*44
MSG 0 43999.039 $GPGSA,A,3,,06,13,14,16,20,23,29,30,31,32,,1.4,0.8,1.1*31
MSG 0 43999.162 $GPGSV,3,1,11,03,19,181,33,06,29,165,45,13,15,317,39,14,00,143,42*7A
MSG 0 43999.308 $PGRME,4.6,M,6.2,M,7.7,M*28
MSG 0 43999.368 $PGRMB,0.0,200,,,,K,,N,N*31
MSG 0 43999.429 $PGRMM,WGS 84*06
MSG 0 43999.745 $GPRMC,161440,A,4303.4259,N,07039.0259,W,000.3,106.2,030712,016.1,W*7A
POS 0 44080.000 365599.374 4768477.270
QUA 0 44080.000 7 9.200 0.800 10.000 1.000 0.000 0.000 0.000
RAW 0 44080.000 4 430342.59000 -703902.59000 -19.10000 161440.00000
MSG 0 43999.894 $GPGGA,161440,4303.4259,N,07039.0259,W,1,10,0.8,13.3,M,-32.4,M,,*4B
MSG 0 44000.038 $GPGSA,A,3,,06,13,14,16,20,23,29,30,31,32,,1.4,0.8,1.1*31
MSG 0 44000.161 $GPGSV,3,2,11,16,68,231,45,20,22,254,45,23,45,306,50,29,17,041,44*78
MSG 0 44000.307 $PGRME,4.5,M,6.2,M,7.7,M*2B
MSG 0 44000.367 $PGRMB,0.0,200,,,,K,,N,N*31
MSG 0 44000.427 $PGRMM,WGS 84*06
MSG 0 44000.760 $GPRMC,161441,A,4303.4259,N,07039.0257,W,000.4,111.6,030712,016.1,W*70
POS 0 44081.000 365599.646 4768477.265
QUA 0 44081.000 7 9.200 0.800 10.000 1.000 0.000 0.000 0.000
RAW 0 44081.000 4 430342.59000 -703902.57000 -19.30000 161441.00000
MSG 0 44000.910 $GPGGA,161441,4303.4259,N,07039.0257,W,1,10,0.8,13.1,M,-32.4,M,,*46
MSG 0 44001.053 $GPGSA,A,3,,06,13,14,16,20,23,29,30,31,32,,1.4,0.8,1.1*31
MSG 0 44001.176 $GPGSV,3,3,11,30,80,032,50,31,43,082,48,32,22,225,43*46
MSG 0 44001.295 $PGRME,4.5,M,6.2,M,7.7,M*2B
MSG 0 44001.355 $PGRMB,0.0,200,,,,K,,N,N*31
MSG 0 44001.416 $PGRMM,WGS 84*06
MSG 0 44001.744 $GPRMC,161442,A,4303.4258,N,07039.0255,W,000.4,122.2,030712,016.1,W*74
POS 0 44082.000 365599.913 4768477.074
QUA 0 44082.000 7 9.200 0.800 10.000 1.000 0.000 0.000 0.000
RAW 0 44082.000 4 430342.58000 -703902.55000 -19.30000 161442.00000
MSG 0 44001.894 $GPGGA,161442,4303.4258,N,07039.0255,W,1,10,0.8,13.1,M,-32.4,M,,*46
MSG 0 44002.038 $GPGSA,A,3,,06,13,14,16,20,23,29,30,31,32,,1.4,0.8,1.1*31
MSG 0 44002.161 $GPGSV,3,1,11,03,19,181,33,06,29,165,45,13,15,317,37,14,00,143,42*74
MSG 0 44002.307 $PGRME,4.6,M,6.2,M,7.7,M*28
MSG 0 44002.367 $PGRMB,0.0,200,,,,K,,N,N*31
MSG 0 44002.427 $PGRMM,WGS 84*06
MSG 0 44002.761 $GPRMC,161443,A,4303.4259,N,07039.0253,W,000.4,096.1,030712,016.1,W*7F
POS 0 44083.000 365600.189 4768477.254
QUA 0 44083.000 7 9.200 0.800 10.000 1.000 0.000 0.000 0.000
RAW 0 44083.000 4 430342.59000 -703902.53000 -19.40000 161443.00000
MSG 0 44002.911 $GPGGA,161443,4303.4259,N,07039.0253,W,1,10,0.8,13.0,M,-32.4,M,,*41
MSG 0 44003.055 $GPGSA,A,3,,06,13,14,16,20,23,29,30,31,32,,1.4,0.8,1.1*31
MSG 0 44003.178 $GPGSV,3,2,11,16,69,232,45,20,22,254,46,23,45,306,49,29,17,041,44*71
MSG 0 44003.323 $PGRME,4.6,M,6.2,M,7.7,M*28
MSG 0 44003.384 $PGRMB,0.0,200,,,,K,,N,N*31
MSG 0 44003.444 $PGRMM,WGS 84*06
MSG 0 44003.746 $GPRMC,161444,A,4303.4258,N,07039.0252,W,000.4,104.5,030712,016.1,W*76
POS 0 44084.000 365600.321 4768477.066
QUA 0 44084.000 7 9.200 0.800 10.000 1.000 0.000 0.000 0.000
RAW 0 44084.000 4 430342.58000 -703902.52000 -19.30000 161444.00000
MSG 0 44003.896 $GPGGA,161444,4303.4258,N,07039.0252,W,1,10,0.8,13.1,M,-32.4,M,,*47
MSG 0 44004.040 $GPGSA,A,3,,06,13,14,16,20,23,29,30,31,32,,1.4,0.8,1.1*31
MSG 0 44004.163 $GPGSV,3,3,11,30,80,032,51,31,43,082,48,32,22,225,43*47
MSG 0 44004.281 $PGRME,4.5,M,6.2,M,7.7,M*2B
MSG 0 44004.342 $PGRMB,0.0,200,,,,K,,N,N*31
MSG 0 44004.402 $PGRMM,WGS 84*06
MSG 0 44004.749 $GPRMC,161445,A,4303.4257,N,07039.0249,W,000.6,118.6,030712,016.1,W*7E
POS 0 44085.000 365600.724 4768476.873
QUA 0 44085.000 7 9.200 0.800 10.000 1.000 0.000 0.000 0.000
RAW 0 44085.000 4 430342.57000 -703902.49000 -19.40000 161445.00000
MSG 0 44004.899 $GPGGA,161445,4303.4257,N,07039.0249,W,1,10,0.8,13.0,M,-32.4,M,,*42
MSG 0 44005.042 $GPGSA,A,3,,06,,13,14,16,20,23,29,30,31,32,1.3,0.8,1.1*36
MSG 0 44005.165 $GPGSV,3,1,12,03,19,181,33,06,29,165,45,10,00,338,00,13,15,317,36*7A
MSG 0 44005.311 $PGRME,4.5,M,6.2,M,7.7,M*2B
MSG 0 44005.371 $PGRMB,0.0,200,,,,K,,N,N*31
MSG 0 44005.432 $PGRMM,WGS 84*06
MSG 0 44005.769 $GPRMC,161446,A,4303.4255,N,07039.0247,W,000.6,125.0,030712,016.1,W*79
POS 0 44086.000 365600.988 4768476.498
QUA 0 44086.000 7 9.200 0.800 10.000 1.000 0.000 0.000 0.000
RAW 0 44086.000 4 430342.55000 -703902.47000 -19.40000 161446.00000
MSG 0 44005.919 $GPGGA,161446,4303.4255,N,07039.0247,W,1,10,0.8,13.0,M,-32.4,M,,*4D
MSG 0 44006.062 $GPGSA,A,3,,06,,13,14,16,20,23,29,30,31,32,1.4,0.8,1.1*31
MSG 0 44006.185 $GPGSV,3,2,12,14,00,143,39,16,69,232,45,20,22,254,46,23,45,306,49*73
MSG 0 44006.331 $PGRME,4.5,M,6.2,M,7.7,M*2B
MSG 0 44006.391 $PGRMB,0.0,200,,,,K,,N,N*31
MSG 0 44006.452 $PGRMM,WGS 84*06
MSG 0 44006.776 $GPRMC,161447,A,4303.4254,N,07039.0244,W,000.7,123.3,030712,016.1,W*7E
POS 0 44087.000 365601.392 4768476.305
QUA 0 44087.000 7 9.200 0.800 10.000 1.000 0.000 0.000 0.000
RAW 0 44087.000 4 430342.54000 -703902.44000 -19.30000 161447.00000
MSG 0 44006.926 $GPGGA,161447,4303.4254,N,07039.0244,W,1,10,0.8,13.1,M,-32.4,M,,*4F
MSG 0 44007.070 $GPGSA,A,3,,06,,13,14,16,20,23,29,30,31,32,1.3,0.8,1.1*36
MSG 0 44007.193 $GPGSV,3,3,12,29,17,041,43,30,80,032,51,31,43,082,48,32,22,225,43*7B
MSG 0 44007.339 $PGRME,4.5,M,6.2,M,7.7,M*2B
MSG 0 44007.399 $PGRMB,0.0,200,,,,K,,N,N*31
MSG 0 44007.459 $PGRMM,WGS 84*06
MSG 0 44007.762 $GPRMC,161448,A,4303.4255,N,07039.0244,W,000.3,085.7,030712,016.1,W*7D
POS 0 44088.000 365601.396 4768476.490
QUA 0 44088.000 7 9.200 0.800 10.000 1.000 0.000 0.000 0.000
RAW 0 44088.000 4 430342.55000 -703902.44000 -18.90000 161448.00000
MSG 0 44007.912 $GPGGA,161448,4303.4255,N,07039.0244,W,1,10,0.8,13.5,M,-32.4,M,,*45
MSG 0 44008.056 $GPGSA,A,3,,06,,13,14,16,20,23,29,30,31,32,1.3,0.8,1.1*36
MSG 0 44008.179 $GPGSV,3,1,12,03,19,181,00,06,29,165,46,10,00,338,00,13,15,317,40*78
MSG 0 44008.325 $PGRME,4.5,M,6.2,M,7.7,M*2B
MSG 0 44008.385 $PGRMB,0.0,200,,,,K,,N,N*31
MSG 0 44008.445 $PGRMM,WGS 84*06
MSG 0 44008.769 $GPRMC,161449,A,4303.4253,N,07039.0240,W,000.6,119.5,030712,016.1,W*7D
POS 0 44089.000 365601.931 4768476.109
QUA 0 44089.000 7 9.200 0.800 10.000 1.000 0.000 0.000 0.000
RAW 0 44089.000 4 430342.53000 -703902.40000 -19.00000 161449.00000
MSG 0 44008.919 $GPGGA,161449,4303.4253,N,07039.0240,W,1,10,0.8,13.4,M,-32.4,M,,*47
MSG 0 44009.063 $GPGSA,A,3,,06,,13,14,16,20,23,29,30,31,32,1.3,0.8,1.1*36
MSG 0 44009.185 $GPGSV,3,2,12,14,00,143,40,16,69,232,44,20,22,254,46,23,45,306,50*74
MSG 0 44009.331 $PGRME,4.5,M,6.2,M,7.7,M*2B
MSG 0 44009.392 $PGRMB,0.0,200,,,,K,,N,N*31
MSG 0 44009.452 $PGRMM,WGS 84*06
MSG 0 44009.769 $GPRMC,161450,A,4303.4253,N,07039.0240,W,000.3,100.6,030712,016.1,W*7B
POS 0 44090.000 365601.931 4768476.109
QUA 0 44090.000 7 9.200 0.800 10.000 1.000 0.000 0.000 0.000
RAW 0 44090.000 4 430342.53000 -703902.40000 -19.20000 161450.00000
MSG 0 44009.919 $GPGGA,161450,4303.4253,N,07039.0240,W,1,10,0.8,13.2,M,-32.4,M,,*49
MSG 0 44010.063 $GPGSA,A,3,,06,,13,14,16,20,23,29,30,31,32,1.3,0.8,1.1*36
MSG 0 44010.186 $GPGSV,3,3,12,29,17,041,44,30,80,032,51,31,43,082,48,32,22,225,44*7B
MSG 0 44010.332 $PGRME,4.5,M,6.2,M,7.7,M*2B
MSG 0 44010.392 $PGRMB,0.0,200,,,,K,,N,N*31
MSG 0 44010.452 $PGRMM,WGS 84*06
MSG 0 44010.771 $GPRMC,161451,A,4303.4253,N,07039.0239,W,000.3,094.8,030712,016.1,W*76
POS 0 44091.000 365602.067 4768476.106
QUA 0 44091.000 7 9.200 0.800 10.000 1.000 0.000 0.000 0.000
RAW 0 44091.000 4 430342.53000 -703902.39000 -19.30000 161451.00000
MSG 0 44010.921 $GPGGA,161451,4303.4253,N,07039.0239,W,1,10,0.8,13.1,M,-32.4,M,,*45
MSG 0 44011.065 $GPGSA,A,3,,06,,13,14,16,20,23,29,30,31,32,1.3,0.8,1.1*36
MSG 0 44011.188 $GPGSV,3,1,12,03,19,181,33,06,29,165,46,10,00,338,00,13,15,317,41*79
MSG 0 44011.333 $PGRME,4.5,M,6.2,M,7.7,M*2B
MSG 0 44011.394 $PGRMB,0.0,200,,,,K,,N,N*31
MSG 0 44011.454 $PGRMM,WGS 84*06
MSG 0 44011.794 $GPRMC,161452,A,4303.4252,N,07039.0236,W,000.5,113.7,030712,016.1,W*7C
POS 0 44092.000 365602.470 4768475.913
QUA 0 44092.000 7 9.200 0.800 10.000 1.000 0.000 0.000 0.000
RAW 0 44092.000 4 430342.52000 -703902.36000 -19.20000 161452.00000
MSG 0 44011.944 $GPGGA,161452,4303.4252,N,07039.0236,W,1,10,0.8,13.2,M,-32.4,M,,*4B
MSG 0 44012.088 $GPGSA,A,3,,06,,13,14,16,20,23,29,30,31,32,1.4,0.8,1.1*31
MSG 0 44012.211 $GPGSV,3,2,12,14,00,143,40,16,69,232,44,20,22,254,46,23,45,306,49*7C
MSG 0 44012.356 $PGRME,4.5,M,6.2,M,7.7,M*2B
MSG 0 44012.417 $PGRMB,0.0,200,,,,K,,N,N*31
MSG 0 44012.477 $PGRMM,WGS 84*06
MSG 0 44012.770 $GPRMC,161453,A,4303.4251,N,07039.0233,W,000.7,123.6,030712,016.1,W*7B
POS 0 44093.000 365602.874 4768475.720
QUA 0 44093.000 7 9.200 0.800 10.000 1.000 0.000 0.000 0.000
RAW 0 44093.000 4 430342.51000 -703902.33000 -19.20000 161453.00000
MSG 0 44012.920 $GPGGA,161453,4303.4251,N,07039.0233,W,1,10,0.8,13.2,M,-32.4,M,,*4C
MSG 0 44013.064 $GPGSA,A,3,,06,,13,14,16,20,23,29,30,31,32,1.4,0.8,1.1*31
MSG 0 44013.187 $GPGSV,3,3,12,29,17,041,44,30,80,032,51,31,43,082,48,32,22,225,43*7C
MSG 0 44013.332 $PGRME,4.6,M,6.2,M,7.7,M*28
MSG 0 44013.393 $PGRMB,0.0,200,,,,K,,N,N*31
MSG 0 44013.453 $PGRMM,WGS 84*06
MSG 0 44013.768 $GPRMC,161454,A,4303.4251,N,07039.0233,W,000.3,112.1,030712,016.1,W*7D
POS 0 44094.000 365602.874 4768475.720
QUA 0 44094.000 7 9.200 0.800 10.000 1.000 0.000 0.000 0.000
RAW 0 44094.000 4 430342.51000 -703902.33000 -19.00000 161454.00000
MSG 0 44013.918 $GPGGA,161454,4303.4251,N,07039.0233,W,1,10,0.8,13.4,M,-32.4,M,,*4D
MSG 0 44014.062 $GPGSA,A,3,,06,,13,14,16,20,23,29,30,31,32,1.4,0.8,1.1*31
MSG 0 44014.185 $GPGSV,3,1,12,03,19,181,33,06,29,165,46,10,00,338,00,13,15,317,40*78
MSG 0 44014.331 $PGRME,4.6,M,6.2,M,7.7,M*28
MSG 0 44014.391 $PGRMB,0.0,200,,,,K,,N,N*31
MSG 0 44014.451 $PGRMM,WGS 84*06
MSG 0 44014.769 $GPRMC,161455,A,4303.4250,N,07039.0230,W,000.5,113.9,030712,016.1,W*71
POS 0 44095.000 365603.277 4768475.527
QUA 0 44095.000 7 9.200 0.800 10.000 1.000 0.000 0.000 0.000
RAW 0 44095.000 4 430342.50000 -703902.30000 -19.10000 161455.00000
MSG 0 44014.919 $GPGGA,161455,4303.4250,N,07039.0230,W,1,10,0.8,13.3,M,-32.4,M,,*49
MSG 0 44015.063 $GPGSA,A,3,,06,,13,14,16,20,23,29,30,31,32,1.4,0.8,1.1*31
MSG 0 44015.186 $GPGSV,3,2,12,14,00,143,41,16,69,232,45,20,22,254,46,23,45,306,49*7C
MSG 0 44015.331 $PGRME,4.5,M,6.2,M,7.7,M*2B
MSG 0 44015.392 $PGRMB,0.0,200,,,,K,,N,N*31
MSG 0 44015.452 $PGRMM,WGS 84*06
MSG 0 44015.757 $GPRMC,161456,A,4303.4250,N,07039.0228,W,000.5,112.2,030712,016.1,W*71
POS 0 44096.000 365603.549 4768475.521
QUA 0 44096.000 7 9.200 0.800 10.000 1.000 0.000 0.000 0.000
RAW 0 44096.000 4 430342.50000 -703902.28000 -19.20000 161456.00000
MSG 0 44015.907 $GPGGA,161456,4303.4250,N,07039.0228,W,1,10,0.8,13.2,M,-32.4,M,,*42
MSG 0 44016.051 $GPGSA,A,3,,06,,13,14,16,20,23,29,30,31,32,1.4,0.8,1.1*31
MSG 0 44016.173 $GPGSV,3,3,12,29,17,041,45,30,80,032,50,31,43,082,48,32,22,225,43*7C
MSG 0 44016.319 $PGRME,4.5,M,6.2,M,7.7,M*2B
MSG 0 44016.380 $PGRMB,0.0,200,,,,K,,N,N*31
MSG 0 44016.440 $PGRMM,WGS 84*06
MSG 0 44016.767 $GPRMC,161457,A,4303.4249,N,07039.0227,W,000.5,118.2,030712,016.1,W*7D
POS 0 44097.000 365603.681 4768475.334
QUA 0 44097.000 7 9.200 0.800 10.000 1.000 0.000 0.000 0.000
RAW 0 44097.000 4 430342.49000 -703902.27000 -19.30000 161457.00000
MSG 0 44016.917 $GPGGA,161457,4303.4249,N,07039.0227,W,1,10,0.8,13.1,M,-32.4,M,,*47
MSG 0 44017.061 $GPGSA,A,3,,06,,13,14,16,20,23,29,30,31,32,1.4,0.8,1.1*31
MSG 0 44017.184 $GPGSV,3,1,12,03,19,181,33,06,29,165,46,10,00,338,00,13,15,317,41*79
MSG 0 44017.329 $PGRME,4.5,M,6.2,M,7.7,M*2B
MSG 0 44017.390 $PGRMB,0.0,200,,,,K,,N,N*31
MSG 0 44017.450 $PGRMM,WGS 84*06
MSG 0 44017.769 $GPRMC,161458,A,4303.4249,N,07039.0225,W,000.4,098.8,030712,016.1,W*72
POS 0 44098.000 365603.952 4768475.328
QUA 0 44098.000 7 9.200 0.800 10.000 1.000 0.000 0.000 0.000
RAW 0 44098.000 4 430342.49000 -703902.25000 -19.20000 161458.00000
MSG 0 44017.919 $GPGGA,161458,4303.4249,N,07039.0225,W,1,10,0.8,13.2,M,-32.4,M,,*49
MSG 0 44018.063 $GPGSA,A,3,,06,,13,14,16,20,23,29,30,31,32,1.4,0.8,1.1*31
MSG 0 44018.185 $GPGSV,3,2,12,14,00,143,44,16,69,232,44,20,21,253,45,23,45,306,49*7F
MSG 0 44018.331 $PGRME,4.5,M,6.2,M,7.7,M*2B
MSG 0 44018.392 $PGRMB,0.0,200,,,,K,,N,N*31
MSG 0 44018.452 $PGRMM,WGS 84*06
MSG 0 44018.774 $GPRMC,161459,A,4303.4248,N,07039.0223,W,000.5,121.6,030712,016.1,W*78
POS 0 44099.000 365604.220 4768475.138
QUA 0 44099.000 7 9.200 0.800 10.000 1.000 0.000 0.000 0.000
RAW 0 44099.000 4 430342.48000 -703902.23000 -19.30000 161459.00000
MSG 0 44018.924 $GPGGA,161459,4303.4248,N,07039.0223,W,1,10,0.8,13.1,M,-32.4,M,,*4C
MSG 0 44019.067 $GPGSA,A,3,,06,,13,14,16,20,23,29,30,31,32,1.4,0.8,1.1*31
MSG 0 44019.190 $GPGSV,3,3,12,29,17,041,44,30,80,032,50,31,43,082,48,32,22,225,42*7C
MSG 0 44019.336 $PGRME,4.5,M,6.2,M,7.7,M*2B
MSG 0 44019.396 $PGRMB,0.0,200,,,,K,,N,N*31
MSG 0 44019.457 $PGRMM,WGS 84*06
MSG 0 44019.779 $GPRMC,161500,A,4303.4247,N,07039.0221,W,000.5,117.6,030712,016.1,W*7D
POS 0 44100.000 365604.488 4768474.948
QUA 0 44100.000 7 9.200 0.800 10.000 1.000 0.000 0.000 0.000
RAW 0 44100.000 4 430342.47000 -703902.21000 -19.20000 161500.00000
MSG 0 44019.929 $GPGGA,161500,4303.4247,N,07039.0221,W,1,10,0.8,13.2,M,-32.4,M,,*4F
MSG 0 44020.072 $GPGSA,A,3,,06,,13,14,16,20,23,29,30,31,32,1.4,0.8,1.1*31
MSG 0 44020.195 $GPGSV,3,1,12,03,19,181,00,06,29,165,46,10,00,338,00,13,15,317,40*78
MSG 0 44020.341 $PGRME,4.5,M,6.2,M,7.7,M*2B
MSG 0 44020.401 $PGRMB,0.0,200,,,,K,,N,N*31
MSG 0 44020.462 $PGRMM,WGS 84*06
MSG 0 44020.772 $GPRMC,161501,A,4303.4246,N,07039.0220,W,000.4,119.7,030712,016.1,W*72
POS 0 44101.000 365604.620 4768474.760
QUA 0 44101.000 7 9.200 0.800 10.000 1.000 0.000 0.000 0.000
RAW 0 44101.000 4 430342.46000 -703902.20000 -19.30000 161501.00000
MSG 0 44020.922 $GPGGA,161501,4303.4246,N,07039.0220,W,1,10,0.8,13.1,M,-32.4,M,,*4D
MSG 0 44021.066 $GPGSA,A,3,,06,,13,14,16,20,23,29,30,31,32,1.4,0.8,1.1*31
MSG 0 44021.189 $GPGSV,3,2,12,14,00,143,45,16,69,232,44,20,21,253,45,23,45,306,49*7E
MSG 0 44021.334 $PGRME,4.5,M,6.2,M,7.7,M*2B
MSG 0 44021.395 $PGRMB,0.0,200,,,,K,,N,N*31
MSG 0 44021.455 $PGRMM,WGS 84*06
MSG 0 44021.768 $GPRMC,161502,A,4303.4245,N,07039.0217,W,000.5,107.4,030712,016.1,W*7B
POS 0 44102.000 365605.024 4768474.567
QUA 0 44102.000 7 9.200 0.800 10.000 1.000 0.000 0.000 0.000
RAW 0 44102.000 4 430342.45000 -703902.17000 -19.00000 161502.00000
MSG 0 44021.918 $GPGGA,161502,4303.4245,N,07039.0217,W,1,10,0.8,13.4,M,-32.4,M,,*4C
MSG 0 44022.062 $GPGSA,A,3,,06,,13,14,16,20,23,29,30,31,32,1.4,0.8,1.1*31
MSG 0 44022.185 $GPGSV,3,3,12,29,17,041,44,30,80,032,50,31,43,082,49,32,22,225,43*7C
MSG 0 44022.330 $PGRME,4.6,M,6.2,M,7.7,M*28
MSG 0 44022.391 $PGRMB,0.0,200,,,,K,,N,N*31
MSG 0 44022.451 $PGRMM,WGS 84*06
MSG 0 44022.753 $GPRMC,161503,A,4303.4244,N,07039.0215,W,000.5,115.6,030712,016.1,W*78
POS 0 44103.000 365605.292 4768474.376
QUA 0 44103.000 7 9.200 0.800 10.000 1.000 0.000 0.000 0.000
RAW 0 44103.000 4 430342.44000 -703902.15000 -19.00000 161503.00000
MSG 0 44022.903 $GPGGA,161503,4303.4244,N,07039.0215,W,1,10,0.8,13.4,M,-32.4,M,,*4E
MSG 0 44023.047 $GPGSA,A,3,,06,,13,14,16,20,23,29,30,31,32,1.4,0.8,1.1*31
MSG 0 44023.170 $GPGSV,3,1,12,03,19,181,33,06,29,165,45,10,00,338,00,13,15,317,43*78
MSG 0 44023.315 $PGRME,4.5,M,6.2,M,7.7,M*2B
MSG 0 44023.376 $PGRMB,0.0,200,,,,K,,N,N*31
MSG 0 44023.436 $PGRMM,WGS 84*06
MSG 0 44023.781 $GPRMC,161504,A,4303.4244,N,07039.0214,W,000.4,109.1,030712,016.1,W*75
POS 0 44104.000 365605.427 4768474.374
QUA 0 44104.000 7 9.200 0.800 10.000 1.000 0.000 0.000 0.000
RAW 0 44104.000 4 430342.44000 -703902.14000 -18.90000 161504.00000
MSG 0 44023.931 $GPGGA,161504,4303.4244,N,07039.0214,W,1,10,0.8,13.5,M,-32.4,M,,*49
MSG 0 44024.074 $GPGSA,A,3,,06,,13,14,16,20,23,29,30,31,32,1.3,0.8,1.1*36
MSG 0 44024.197 $GPGSV,3,2,12,14,00,143,43,16,69,232,43,20,21,253,45,23,45,306,49*7F
MSG 0 44024.343 $PGRME,4.5,M,6.2,M,7.7,M*2B
MSG 0 44024.403 $PGRMB,0.0,200,,,,K,,N,N*31
MSG 0 44024.464 $PGRMM,WGS 84*06
MSG 0 44024.756 $GPRMC,161505,A,4303.4244,N,07039.0212,W,000.4,096.3,030712,016.1,W*77
POS 0 44105.000 365605.699 4768474.368
QUA 0 44105.000 7 9.200 0.800 10.000 1.000 0.000 0.000 0.000
RAW 0 44105.000 4 430342.44000 -703902.12000 -18.90000 161505.00000
MSG 0 44024.906 $GPGGA,161505,4303.4244,N,07039.0212,W,1,10,0.8,13.5,M,-32.4,M,,*4E
MSG 0 44025.049 $GPGSA,A,3,,06,,13,14,16,20,23,29,30,31,32,1.3,0.8,1.1*36
MSG 0 44025.172 $GPGSV,3,3,12,29,17,041,42,30,80,032,50,31,43,082,49,32,22,225,43*7A
MSG 0 44025.318 $PGRME,4.5,M,6.2,M,7.7,M*2B
MSG 0 44025.378 $PGRMB,0.0,200,,,,K,,N,N*31
MSG 0 44025.439 $PGRMM,WGS 84*06
MSG 0 44025.768 $GPRMC,161506,A,4303.4243,N,07039.0211,W,000.4,121.3,030712,016.1,W*7D
POS 0 44106.000 365605.831 4768474.180
QUA 0 44106.000 7 9.200 0.800 10.000 1.000 0.000 0.000 0.000
RAW 0 44106.000 4 430342.43000 -703902.11000 -18.80000 161506.00000
MSG 0 44025.918 $GPGGA,161506,4303.4243,N,07039.0211,W,1,10,0.8,13.6,M,-32.4,M,,*4A
MSG 0 44026.062 $GPGSA,A,3,,06,,13,14,16,20,23,29,30,31,32,1.3,0.8,1.1*36
MSG 0 44026.184 $GPGSV,3,1,12,03,19,181,33,06,29,165,46,10,00,338,00,13,15,317,43*7B
MSG 0 44026.330 $PGRME,4.5,M,6.2,M,7.7,M*2B
MSG 0 44026.390 $PGRMB,0.0,200,,,,K,,N,N*31
MSG 0 44026.451 $PGRMM,WGS 84*06
MSG 0 44026.756 $GPRMC,161507,A,4303.4242,N,07039.0209,W,000.4,116.0,030712,016.1,W*73
POS 0 44107.000 365606.099 4768473.990
QUA 0 44107.000 7 9.200 0.800 10.000 1.000 0.000 0.000 0.000
RAW 0 44107.000 4 430342.42000 -703902.09000 -18.90000 161507.00000
MSG 0 44026.906 $GPGGA,161507,4303.4242,N,07039.0209,W,1,10,0.8,13.5,M,-32.4,M,,*40
MSG 0 44027.049 $GPGSA,A,3,,06,,13,14,16,20,23,29,30,31,32,1.3,0.8,1.1*36
MSG 0 44027.172 $GPGSV,3,2,12,14,00,143,39,16,69,232,43,20,21,253,45,23,45,306,48*73
MSG 0 44027.318 $PGRME,4.5,M,6.2,M,7.7,M*2B
MSG 0 44027.378 $PGRMB,0.0,200,,,,K,,N,N*31
MSG 0 44027.439 $PGRMM,WGS 84*06
MSG 0 44027.767 $GPRMC,161508,A,4303.4241,N,07039.0207,W,000.5,120.9,030712,016.1,W*7C
POS 0 44108.000 365606.366 4768473.800
QUA 0 44108.000 7 9.200 0.800 10.000 1.000 0.000 0.000 0.000
RAW 0 44108.000 4 430342.41000 -703902.07000 -18.90000 161508.00000
MSG 0 44027.917 $GPGGA,161508,4303.4241,N,07039.0207,W,1,10,0.8,13.5,M,-32.4,M,,*42
MSG 0 44028.061 $GPGSA,A,3,,06,,13,14,16,20,23,29,30,31,32,1.3,0.8,1.1*36
MSG 0 44028.184 $GPGSV,3,3,12,29,17,041,40,30,80,032,50,31,43,082,49,32,22,225,44*7F
MSG 0 44028.329 $PGRME,4.5,M,6.2,M,7.7,M*2B
MSG 0 44028.390 $PGRMB,0.0,200,,,,K,,N,N*31
MSG 0 44028.450 $PGRMM,WGS 84*06
MSG 0 44028.771 $GPRMC,161509,A,4303.4240,N,07039.0205,W,000.5,119.6,030712,016.1,W*7B
POS 0 44109.000 365606.634 4768473.609
QUA 0 44109.000 7 9.200 0.800 10.000 1.000 0.000 0.000 0.000
RAW 0 44109.000 4 430342.40000 -703902.05000 -18.90000 161509.00000
MSG 0 44028.921 $GPGGA,161509,4303.4240,N,07039.0205,W,1,10,0.8,13.5,M,-32.4,M,,*40
MSG 0 44029.064 $GPGSA,A,3,,06,,13,14,16,20,23,29,30,31,32,1.3,0.8,1.1*36
MSG 0 44029.187 $GPGSV,3,1,12,03,19,181,34,06,29,165,47,10,00,338,00,13,15,317,44*7A
MSG 0 44029.333 $PGRME,4.5,M,6.2,M,7.7,M*2B
MSG 0 44029.393 $PGRMB,0.0,200,,,,K,,N,N*31
MSG 0 44029.454 $PGRMM,WGS 84*06
MSG 0 44029.767 $GPRMC,161510,A,4303.4239,N,07039.0203,W,000.6,122.0,030712,016.1,W*76
POS 0 44110.000 365606.902 4768473.419
QUA 0 44110.000 7 9.200 0.800 10.000 1.000 0.000 0.000 0.000
RAW 0 44110.000 4 430342.39000 -703902.03000 -18.80000 161510.00000
MSG 0 44029.917 $GPGGA,161510,4303.4239,N,07039.0203,W,1,10,0.8,13.6,M,-32.4,M,,*43
MSG 0 44030.061 $GPGSA,A,3,,06,,13,14,16,20,23,29,30,31,32,1.3,0.8,1.1*36
MSG 0 44030.184 $GPGSV,3,2,12,14,00,143,39,16,69,232,43,20,21,253,45,23,46,306,48*70
MSG 0 44030.330 $PGRME,4.5,M,6.2,M,7.7,M*2B
MSG 0 44030.390 $PGRMB,0.0,200,,,,K,,N,N*31
MSG 0 44030.450 $PGRMM,WGS 84*06
MSG 0 44030.790 $GPRMC,161511,A,4303.4239,N,07039.0200,W,000.5,104.8,030712,016.1,W*7B
POS 0 44111.000 365607.309 4768473.411
QUA 0 44111.000 7 9.200 0.800 10.000 1.000 0.000 0.000 0.000
RAW 0 44111.000 4 430342.39000 -703902.00000 -18.70000 161511.00000
MSG 0 44030.940 $GPGGA,161511,4303.4239,N,07039.0200,W,1,10,0.8,13.7,M,-32.4,M,,*40
MSG 0 44031.084 $GPGSA,A,3,,06,,13,14,16,20,23,29,30,31,32,1.3,0.8,1.1*36
MSG 0 44031.206 $GPGSV,3,3,12,29,17,041,41,30,80,032,50,31,43,082,49,32,22,225,45*7F
MSG 0 44031.352 $PGRME,4.5,M,6.2,M,7.7,M*2B
MSG 0 44031.413 $PGRMB,0.0,200,,,,K,,N,N*31
MSG 0 44031.473 $PGRMM,WGS 84*06
MSG 0 44031.765 $GPRMC,161512,A,4303.4238,N,07039.0200,W,000.4,119.4,030712,016.1,W*78
POS 0 44112.000 365607.306 4768473.226
QUA 0 44112.000 7 9.200 0.800 10.000 1.000 0.000 0.000 0.000
RAW 0 44112.000 4 430342.38000 -703902.00000 -18.40000 161512.00000
MSG 0 44031.915 $GPGGA,161512,4303.4238,N,07039.0200,W,1,10,0.8,14.0,M,-32.4,M,,*42
MSG 0 44032.059 $GPGSA,A,3,,06,,13,14,16,20,23,29,30,31,32,1.3,0.8,1.1*36
MSG 0 44032.182 $GPGSV,3,1,12,03,19,181,34,06,29,165,48,10,00,338,00,13,15,317,45*74
MSG 0 44032.327 $PGRME,4.5,M,6.2,M,7.7,M*2B
MSG 0 44032.388 $PGRMB,0.0,200,,,,K,,N,N*31
MSG 0 44032.448 $PGRMM,WGS 84*06
MSG 0 44032.755 $GPRMC,161513,A,4303.4238,N,07039.0197,W,000.5,095.8,030712,016.1,W*7C
POS 0 44113.000 365607.713 4768473.218
QUA 0 44113.000 7 9.200 0.800 10.000 1.000 0.000 0.000 0.000
RAW 0 44113.000 4 430342.38000 -703901.97000 -18.30000 161513.00000
MSG 0 44032.905 $GPGGA,161513,4303.4238,N,07039.0197,W,1,10,0.8,14.1,M,-32.4,M,,*4F
MSG 0 44033.049 $GPGSA,A,3,,06,,13,14,16,20,23,29,30,31,32,1.3,0.8,1.1*36
MSG 0 44033.172 $GPGSV,3,2,12,14,00,143,40,16,69,232,42,20,21,253,45,23,46,306,48*7F
MSG 0 44033.317 $PGRME,4.5,M,6.2,M,7.7,M*2B
MSG 0 44033.378 $PGRMB,0.0,200,,,,K,,N,N*31
MSG 0 44033.438 $PGRMM,WGS 84*06
MSG 0 44033.767 $GPRMC,161514,A,4303.4236,N,07039.0196,W,000.5,128.6,030712,016.1,W*7D
POS 0 44114.000 365607.841 4768472.845
QUA 0 44114.000 7 9.200 0.800 10.000 1.000 0.000 0.000 0.000
RAW 0 44114.000 4 430342.36000 -703901.96000 -18.30000 161514.00000
MSG 0 44033.917 $GPGGA,161514,4303.4236,N,07039.0196,W,1,10,0.8,14.1,M,-32.4,M,,*47
MSG 0 44034.061 $GPGSA,A,3,,06,,13,14,16,20,23,29,30,31,32,1.3,0.8,1.1*36
MSG 0 44034.184 $GPGSV,3,3,12,29,17,041,42,30,80,032,50,31,43,082,50,32,22,225,45*74
MSG 0 44034.329 $PGRME,4.5,M,6.2,M,7.7,M*2B
MSG 0 44034.390 $PGRMB,0.0,200,,,,K,,N,N*31
MSG 0 44034.450 $PGRMM,WGS 84*06
MSG 0 44034.768 $GPRMC,161515,A,4303.4235,N,07039.0194,W,000.5,121.9,030712,016.1,W*7B
POS 0 44115.000 365608.109 4768472.654
QUA 0 44115.000 7 9.200 0.800 10.000 1.000 0.000 0.000 0.000
RAW 0 44115.000 4 430342.35000 -703901.94000 -18.10000 161515.00000
MSG 0 44034.918 $GPGGA,161515,4303.4235,N,07039.0194,W,1,10,0.8,14.3,M,-32.4,M,,*45
MSG 0 44035.062 $GPGSA,A,3,,06,,13,14,16,20,23,29,30,31,32,1.3,0.8,1.1*36
MSG 0 44035.184 $GPGSV,3,1,12,03,19,181,34,06,29,165,47,10,00,338,00,13,15,317,44*7A
MSG 0 44035.330 $PGRME,4.5,M,6.2,M,7.7,M*2B
MSG 0 44035.391 $PGRMB,0.0,200,,,,K,,N,N*31
MSG 0 44035.451 $PGRMM,WGS 84*06
MSG 0 44035.756 $GPRMC,161516,A,4303.4235,N,07039.0195,W,000.2,160.4,030712,016.1,W*76
POS 0 44116.000 365607.973 4768472.657
QUA 0 44116.000 7 9.200 0.800 10.000 1.000 0.000 0.000 0.000
RAW 0 44116.000 4 430342.35000 -703901.95000 -17.90000 161516.00000
MSG 0 44035.906 $GPGGA,161516,4303.4235,N,07039.0195,W,1,10,0.8,14.5,M,-32.4,M,,*41
MSG 0 44036.050 $GPGSA,A,3,,06,,13,14,16,20,23,29,30,31,32,1.3,0.8,1.1*36
MSG 0 44036.172 $GPGSV,3,2,12,14,00,143,40,16,69,232,42,20,21,253,44,23,46,306,48*7E
MSG 0 44036.318 $PGRME,4.5,M,6.2,M,7.7,M*2B
MSG 0 44036.378 $PGRMB,0.0,200,,,,K,,N,N*31
MSG 0 44036.439 $PGRMM,WGS 84*06
MSG 0 44036.775 $GPRMC,161517,A,4303.4234,N,07039.0193,W,000.4,112.8,030712,016.1,W*7F
POS 0 44117.000 365608.241 4768472.467
QUA 0 44117.000 7 9.200 0.800 10.000 1.000 0.000 0.000 0.000
RAW 0 44117.000 4 430342.34000 -703901.93000 -17.90000 161517.00000
MSG 0 44036.925 $GPGGA,161517,4303.4234,N,07039.0193,W,1,10,0.8,14.5,M,-32.4,M,,*47
MSG 0 44037.069 $GPGSA,A,3,,06,,13,14,16,20,23,29,30,31,32,1.3,0.8,1.1*36
MSG 0 44037.192 $GPGSV,3,3,12,29,17,041,42,30,80,032,50,31,43,082,50,32,22,225,44*75
MSG 0 44037.338 $PGRME,4.5,M,6.2,M,7.7,M*2B
MSG 0 44037.398 $PGRMB,0.0,200,,,,K,,N,N*31
MSG 0 44037.458 $PGRMM,WGS 84*06
MSG 0 44037.753 $GPRMC,161518,A,4303.4233,N,07039.0191,W,000.5,121.6,030712,016.1,W*7A
POS 0 44118.000 365608.509 4768472.276
QUA 0 44118.000 7 9.200 0.800 10.000 1.000 0.000 0.000 0.000
RAW 0 44118.000 4 430342.33000 -703901.91000 -18.10000 161518.00000
MSG 0 44037.903 $GPGGA,161518,4303.4233,N,07039.0191,W,1,10,0.8,14.3,M,-32.4,M,,*4B
MSG 0 44038.046 $GPGSA,A,3,,06,,13,14,16,20,23,29,30,31,32,1.4,0.8,1.1*31
MSG 0 44038.169 $GPGSV,3,1,12,03,19,181,34,06,29,165,47,10,00,338,00,13,15,317,44*7A
MSG 0 44038.315 $PGRME,4.5,M,6.2,M,7.7,M*2B
MSG 0 44038.375 $PGRMB,0.0,200,,,,K,,N,N*31
MSG 0 44038.436 $PGRMM,WGS 84*06
MSG 0 44038.770 $GPRMC,161519,A,4303.4233,N,07039.0190,W,000.3,100.1,030712,016.1,W*78
POS 0 44119.000 365608.645 4768472.274
QUA 0 44119.000 7 9.200 0.800 10.000 1.000 0.000 0.000 0.000
RAW 0 44119.000 4 430342.33000 -703901.90000 -18.10000 161519.00000
MSG 0 44038.920 $GPGGA,161519,4303.4233,N,07039.0190,W,1,10,0.8,14.3,M,-32.4,M,,*4B
MSG 0 44039.064 $GPGSA,A,3,,06,,13,14,16,20,23,29,30,31,32,1.3,0.8,1.1*36
MSG 0 44039.186 $GPGSV,3,2,12,14,00,143,40,16,69,232,42,20,21,253,44,23,46,306,48*7E
MSG 0 44039.332 $PGRME,4.5,M,6.2,M,7.7,M*2B
MSG 0 44039.393 $PGRMB,0.0,200,,,,K,,N,N*31
MSG 0 44039.453 $PGRMM,WGS 84*06
MSG 0 44039.748 $GPRMC,161520,A,4303.4233,N,07039.0187,W,000.5,098.5,030712,016.1,W*76
POS 0 44120.000 365609.052 4768472.266
QUA 0 44120.000 7 9.200 0.800 10.000 1.000 0.000 0.000 0.000
RAW 0 44120.000 4 430342.33000 -703901.87000 -17.90000 161520.00000
MSG 0 44039.898 $GPGGA,161520,4303.4233,N,07039.0187,W,1,10,0.8,14.5,M,-32.4,M,,*41
MSG 0 44040.042 $GPGSA,A,3,,06,,13,14,16,20,23,29,30,31,32,1.3,0.8,1.1*36
MSG 0 44040.165 $GPGSV,3,3,12,29,17,041,42,30,80,032,50,31,43,082,51,32,22,225,44*74
MSG 0 44040.311 $PGRME,4.5,M,6.2,M,7.7,M*2B
MSG 0 44040.371 $PGRMB,0.0,200,,,,K,,N,N*31
MSG 0 44040.431 $PGRMM,WGS 84*06
MSG 0 44040.766 $GPRMC,161521,A,4303.4230,N,07039.0184,W,000.8,121.2,030712,016.1,W*7E
POS 0 44121.000 365609.448 4768471.702
QUA 0 44121.000 7 9.200 0.800 10.000 1.000 0.000 0.000 0.000
RAW 0 44121.000 4 430342.30000 -703901.84000 -18.00000 161521.00000
MSG 0 44040.916 $GPGGA,161521,4303.4230,N,07039.0184,W,1,10,0.8,14.4,M,-32.4,M,,*41
MSG 0 44041.060 $GPGSA,A,3,,06,,13,14,16,20,23,29,30,31,32,1.3,0.8,1.1*36
MSG 0 44041.183 $GPGSV,3,1,12,03,19,181,34,06,29,165,48,10,00,338,00,13,15,317,44*75
MSG 0 44041.328 $PGRME,4.5,M,6.2,M,7.7,M*2B
MSG 0 44041.389 $PGRMB,0.0,200,,,,K,,N,N*31
MSG 0 44041.449 $PGRMM,WGS 84*06
MSG 0 44041.772 $GPRMC,161522,A,4303.4230,N,07039.0182,W,000.5,109.2,030712,016.1,W*7C
POS 0 44122.000 365609.719 4768471.697
QUA 0 44122.000 7 9.200 0.800 10.000 1.000 0.000 0.000 0.000
RAW 0 44122.000 4 430342.30000 -703901.82000 -17.70000 161522.00000
MSG 0 44041.921 $GPGGA,161522,4303.4230,N,07039.0182,W,1,10,0.8,14.7,M,-32.4,M,,*47
MSG 0 44042.065 $GPGSA,A,3,,06,,13,14,16,20,23,29,30,31,32,1.4,0.8,1.1*31
MSG 0 44042.188 $GPGSV,3,2,12,14,00,143,40,16,69,232,43,20,21,253,44,23,46,306,48*7F
MSG 0 44042.334 $PGRME,4.5,M,6.2,M,7.7,M*2B
MSG 0 44042.394 $PGRMB,0.0,200,,,,K,,N,N*31
MSG 0 44042.454 $PGRMM,WGS 84*06
MSG 0 44042.769 $GPRMC,161523,A,4303.4230,N,07039.0183,W,000.2,109.2,030712,016.1,W*7B
POS 0 44123.000 365609.584 4768471.700
QUA 0 44123.000 7 9.200 0.800 10.000 1.000 0.000 0.000 0.000
RAW 0 44123.000 4 430342.30000 -703901.83000 -17.40000 161523.00000
MSG 0 44042.919 $GPGGA,161523,4303.4230,N,07039.0183,W,1,10,0.8,15.0,M,-32.4,M,,*41
MSG 0 44043.063 $GPGSA,A,3,,06,,13,14,16,20,23,29,30,31,32,1.3,0.8,1.1*36
MSG 0 44043.186 $GPGSV,3,3,12,29,17,041,43,30,80,032,50,31,43,082,51,32,22,225,44*75
MSG 0 44043.332 $PGRME,4.5,M,6.2,M,7.7,M*2B
MSG 0 44043.392 $PGRMB,0.0,200,,,,K,,N,N*31
MSG 0 44043.452 $PGRMM,WGS 84*06
MSG 0 44043.783 $GPRMC,161524,A,4303.4229,N,07039.0181,W,000.4,107.6,030712,016.1,W*7A
POS 0 44124.000 365609.852 4768471.509
QUA 0 44124.000 7 9.200 0.800 10.000 1.000 0.000 0.000 0.000
RAW 0 44124.000 4 430342.29000 -703901.81000 -17.40000 161524.00000
MSG 0 44043.933 $GPGGA,161524,4303.4229,N,07039.0181,W,1,10,0.8,15.0,M,-32.4,M,,*4C
MSG 0 44044.076 $GPGSA,A,3,,06,,13,14,16,20,23,29,30,31,32,1.3,0.8,1.1*36
MSG 0 44044.199 $GPGSV,3,1,12,03,19,181,33,06,29,165,48,10,00,338,00,13,15,317,43*75
MSG 0 44044.345 $PGRME,4.5,M,6.2,M,7.7,M*2B
MSG 0 44044.405 $PGRMB,0.0,200,,,,K,,N,N*31
MSG 0 44044.466 $PGRMM,WGS 84*06
MSG 0 44044.775 $GPRMC,161525,A,4303.4228,N,07039.0180,W,000.4,142.3,030712,016.1,W*7F
POS 0 44125.000 365609.984 4768471.321
QUA 0 44125.000 7 9.200 0.800 10.000 1.000 0.000 0.000 0.000
RAW 0 44125.000 4 430342.28000 -703901.80000 -17.70000 161525.00000
MSG 0 44044.925 $GPGGA,161525,4303.4228,N,07039.0180,W,1,10,0.8,14.7,M,-32.4,M,,*4B
MSG 0 44045.068 $GPGSA,A,3,,06,,13,14,16,20,23,29,30,31,32,1.4,0.8,1.1*31
MSG 0 44045.191 $GPGSV,3,2,12,14,00,143,38,16,69,232,43,20,21,253,44,23,46,306,49*71
MSG 0 44045.337 $PGRME,4.5,M,6.2,M,7.7,M*2B
MSG 0 44045.397 $PGRMB,0.0,200,,,,K,,N,N*31
MSG 0 44045.458 $PGRMM,WGS 84*06
MSG 0 44045.770 $GPRMC,161526,A,4303.4228,N,07039.0178,W,000.4,107.3,030712,016.1,W*7A
POS 0 44126.000 365610.255 4768471.316
QUA 0 44126.000 7 9.200 0.800 10.000 1.000 0.000 0.000 0.000
RAW 0 44126.000 4 430342.28000 -703901.78000 -18.10000 161526.00000
MSG 0 44045.919 $GPGGA,161526,4303.4228,N,07039.0178,W,1,10,0.8,14.3,M,-32.4,M,,*4B
MSG 0 44046.063 $GPGSA,A,3,,06,,13,14,16,20,23,29,30,31,32,1.4,0.8,1.1*31
MSG 0 44046.186 $GPGSV,3,3,12,29,17,041,42,30,80,032,50,31,43,082,52,32,22,225,43*70
MSG 0 44046.332 $PGRME,4.5,M,6.2,M,7.7,M*2B
MSG 0 44046.392 $PGRMB,0.0,200,,,,K,,N,N*31
MSG 0 44046.453 $PGRMM,WGS 84*06
MSG 0 44046.768 $GPRMC,161527,A,4303.4226,N,07039.0177,W,000.4,120.9,030712,016.1,W*75
POS 0 44127.000 365610.384 4768470.943
QUA 0 44127.000 7 9.200 0.800 10.000 1.000 0.000 0.000 0.000
RAW 0 44127.000 4 430342.26000 -703901.77000 -17.60000 161527.00000
MSG 0 44046.918 $GPGGA,161527,4303.4226,N,07039.0177,W,1,10,0.8,14.8,M,-32.4,M,,*40
MSG 0 44047.061 $GPGSA,A,3,,06,,13,14,16,20,23,29,30,31,32,1.4,0.8,1.1*31
MSG 0 44047.184 $GPGSV,3,1,12,03,19,181,33,06,29,165,48,10,00,338,00,13,15,317,43*75
MSG 0 44047.330 $PGRME,4.5,M,6.2,M,7.7,M*2B
MSG 0 44047.390 $PGRMB,0.0,200,,,,K,,N,N*31
MSG 0 44047.451 $PGRMM,WGS 84*06
MSG 0 44047.767 $GPRMC,161528,A,4303.4226,N,07039.0174,W,000.6,107.6,030712,016.1,W*71
POS 0 44128.000 365610.791 4768470.935
QUA 0 44128.000 7 9.200 0.800 10.000 1.000 0.000 0.000 0.000
RAW 0 44128.000 4 430342.26000 -703901.74000 -17.60000 161528.00000
MSG 0 44047.917 $GPGGA,161528,4303.4226,N,07039.0174,W,1,10,0.8,14.8,M,-32.4,M,,*4C
MSG 0 44048.061 $GPGSA,A,3,,06,,13,14,16,20,23,29,30,31,32,1.4,0.8,1.1*31
MSG 0 44048.184 $GPGSV,3,2,12,14,00,143,37,16,69,232,43,20,21,253,44,23,46,306,49*7E
MSG 0 44048.329 $PGRME,4.5,M,6.2,M,7.7,M*2B
MSG 0 44048.390 $PGRMB,0.0,200,,,,K,,N,N*31
MSG 0 44048.450 $PGRMM,WGS 84*06
MSG 0 44048.766 $GPRMC,161529,A,4303.4224,N,07039.0172,W,000.5,127.4,030712,016.1,W*77
POS 0 44129.000 365611.055 4768470.560
QUA 0 44129.000 7 9.200 0.800 10.000 1.000 0.000 0.000 0.000
RAW 0 44129.000 4 430342.24000 -703901.72000 -17.50000 161529.00000
MSG 0 44048.916 $GPGGA,161529,4303.4224,N,07039.0172,W,1,10,0.8,14.9,M,-32.4,M,,*48
MSG 0 44049.060 $GPGSA,A,3,,06,,13,14,16,20,23,29,30,31,32,1.4,0.8,1.1*31
MSG 0 44049.183 $GPGSV,3,3,12,29,17,041,43,30,80,032,50,31,43,082,52,32,22,225,43*71
MSG 0 44049.328 $PGRME,4.5,M,6.2,M,7.7,M*2B
MSG 0 44049.389 $PGRMB,0.0,200,,,,K,,N,N*31
MSG 0 44049.449 $PGRMM,WGS 84*06
MSG 0 44049.768 $GPRMC,161530,A,4303.4224,N,07039.0171,W,000.4,114.6,030712,016.1,W*7F
POS 0 44130.000 365611.191 4768470.557
QUA 0 44130.000 7 9.100 0.900 10.000 1.000 0.000 0.000 0.000
RAW 0 44130.000 4 430342.24000 -703901.71000 -17.50000 161530.00000
MSG 0 44049.918 $GPGGA,161530,4303.4224,N,07039.0171,W,1,10,0.9,14.9,M,-32.4,M,,*42
MSG 0 44050.062 $GPGSA,A,3,,06,,13,14,16,20,23,29,30,31,32,1.4,0.9,1.2*33
MSG 0 44050.185 $GPGSV,3,1,12,03,19,181,33,06,29,165,48,10,00,338,00,13,15,317,42*74
MSG 0 44050.331 $PGRME,4.6,M,6.2,M,7.7,M*28
MSG 0 44050.391 $PGRMB,0.0,200,,,,K,,N,N*31
MSG 0 44050.451 $PGRMM,WGS 84*06
MSG 0 44050.768 $GPRMC,161531,A,4303.4223,N,07039.0171,W,000.3,135.5,030712,016.1,W*7E
POS 0 44131.000 365611.187 4768470.372
QUA 0 44131.000 7 9.100 0.900 10.000 1.000 0.000 0.000 0.000
RAW 0 44131.000 4 430342.23000 -703901.71000 -17.50000 161531.00000
MSG 0 44050.918 $GPGGA,161531,4303.4223,N,07039.0171,W,1,10,0.9,14.9,M,-32.4,M,,*44
MSG 0 44051.061 $GPGSA,A,3,,06,,13,14,16,20,23,29,30,31,32,1.5,0.9,1.2*32
MSG 0 44051.184 $GPGSV,3,2,12,14,00,143,37,16,69,232,43,20,21,253,44,23,46,306,50*76
MSG 0 44051.330 $PGRME,4.5,M,6.2,M,7.7,M*2B
MSG 0 44051.390 $PGRMB,0.0,200,,,,K,,N,N*31
MSG 0 44051.451 $PGRMM,WGS 84*06
MSG 0 44051.786 $GPRMC,161532,A,4303.4222,N,07039.0168,W,000.4,115.9,030712,016.1,W*7D
POS 0 44132.000 365611.591 4768470.179
QUA 0 44132.000 7 9.100 0.900 10.000 1.000 0.000 0.000 0.000
RAW 0 44132.000 4 430342.22000 -703901.68000 -17.40000 161532.00000
MSG 0 44051.936 $GPGGA,161532,4303.4222,N,07039.0168,W,1,10,0.9,15.0,M,-32.4,M,,*46
MSG 0 44052.080 $GPGSA,A,3,,06,,13,14,16,20,23,29,30,31,32,1.5,0.9,1.2*32
MSG 0 44052.203 $GPGSV,3,3,12,29,16,041,44,30,80,032,50,31,43,082,52,32,22,225,43*77
MSG 0 44052.349 $PGRME,4.5,M,6.2,M,7.7,M*2B
MSG 0 44052.409 $PGRMB,0.0,200,,,,K,,N,N*31
MSG 0 44052.469 $PGRMM,WGS 84*06
MSG 0 44052.776 $GPRMC,161533,A,4303.4222,N,07039.0168,W,000.3,121.1,030712,016.1,W*74
POS 0 44133.000 365611.591 4768470.179
QUA 0 44133.000 7 9.200 0.800 10.000 1.000 0.000 0.000 0.000
RAW 0 44133.000 4 430342.22000 -703901.68000 -17.20000 161533.00000
MSG 0 44052.925 $GPGGA,161533,4303.4222,N,07039.0168,W,1,10,0.8,15.2,M,-32.4,M,,*44
MSG 0 44053.069 $GPGSA,A,3,,06,,13,14,16,20,23,29,30,31,32,1.3,0.8,1.1*36
MSG 0 44053.192 $GPGSV,3,1,12,03,19,181,33,06,29,165,48,10,00,338,00,13,15,317,43*75
MSG 0 44053.338 $PGRME,4.5,M,6.2,M,7.7,M*2B
MSG 0 44053.398 $PGRMB,0.0,200,,,,K,,N,N*31
MSG 0 44053.459 $PGRMM,WGS 84*06
MSG 0 44053.767 $GPRMC,161534,A,4303.4222,N,07039.0166,W,000.3,093.7,030712,016.1,W*73
POS 0 44134.000 365611.862 4768470.174
QUA 0 44134.000 7 9.200 0.800 10.000 1.000 0.000 0.000 0.000
RAW 0 44134.000 4 430342.22000 -703901.66000 -17.30000 161534.00000
MSG 0 44053.917 $GPGGA,161534,4303.4222,N,07039.0166,W,1,10,0.8,15.1,M,-32.4,M,,*4E
MSG 0 44054.061 $GPGSA,A,3,,06,,13,14,16,20,23,29,30,31,32,1.3,0.8,1.1*36
MSG 0 44054.184 $GPGSV,3,2,12,14,00,143,37,16,69,232,43,20,21,253,43,23,46,306,50*71
MSG 0 44054.329 $PGRME,4.5,M,6.2,M,7.7,M*2B
MSG 0 44054.390 $PGRMT,GPS 17-HVS Ver. 2.80,P,P,R,R,P,,40,R*0F
MSG 0 44054.490 $PGRMB,0.0,200,,,,K,,N,N*31
MSG 0 44054.550 $PGRMM,WGS 84*06
MSG 0 44054.751 $GPRMC,161535,A,4303.4220,N,07039.0162,W,000.7,113.2,030712,016.1,W*7C
POS 0 44135.000 365612.398 4768469.793
QUA 0 44135.000 7 9.200 0.800 10.000 1.000 0.000 0.000 0.000
RAW 0 44135.000 4 430342.20000 -703901.62000 -17.80000 161535.00000
MSG 0 44054.901 $GPGGA,161535,4303.4220,N,07039.0162,W,1,10,0.8,14.6,M,-32.4,M,,*4F
MSG 0 44055.045 $GPGSA,A,3,,06,,13,14,16,20,23,29,30,31,32,1.4,0.8,1.1*31
MSG 0 44055.168 $GPGSV,3,3,12,29,16,041,44,30,79,034,50,31,43,082,52,32,22,225,43*77
MSG 0 44055.313 $PGRME,4.5,M,6.2,M,7.7,M*2B
MSG 0 44055.374 $PGRMB,0.0,200,,,,K,,N,N*31
MSG 0 44055.434 $PGRMM,WGS 84*06
MSG 0 44055.766 $GPRMC,161536,A,4303.4220,N,07039.0162,W,000.4,105.6,030712,016.1,W*7F
POS 0 44136.000 365612.398 4768469.793
QUA 0 44136.000 7 9.200 0.800 10.000 1.000 0.000 0.000 0.000
RAW 0 44136.000 4 430342.20000 -703901.62000 -17.60000 161536.00000
MSG 0 44055.916 $GPGGA,161536,4303.4220,N,07039.0162,W,1,10,0.8,14.8,M,-32.4,M,,*42
MSG 0 44056.060 $GPGSA,A,3,,06,,13,14,16,20,23,29,30,31,32,1.3,0.8,1.1*36
MSG 0 44056.183 $GPGSV,3,1,12,03,19,181,33,06,29,165,48,10,00,338,00,13,15,317,42*74
MSG 0 44056.328 $PGRME,4.5,M,6.2,M,7.7,M*2B
MSG 0 44056.389 $PGRMB,0.0,200,,,,K,,N,N*31
MSG 0 44056.449 $PGRMM,WGS 84*06
