FTP NEW 2
VER 11.0.6.21
INF "" "" "" "" 0.000 0.000 0.000
ELL WGS-84 6378137.000 298.257223563
PRO TME -69.000000 0.999600 0.000000 0.000000 0.000000 500000.0000 0.0000
DTM 0.00 0.00 0.00 0.00000 0.00000 0.00000 0.00000
GEO ??? 0.000
HVU 1.0000000000 1.0000000000
TND 12:49:37 07/03/2012 240
DEV 0 32869 "Garmin GPS" 49156 C:\HYPACK 2011\devices\GPS.dll 11.0.10.6
OFF 0 0.000 0.000 0.000 0.000 0.000 0.000 0.000
DDT 0 SYN 
DEV 1 0 "Disabled" 0 Odom CV3 MK3 Disabled Unknown
USR "NOAA Joint Hydrographic Center" "HYPACK Inc." 0x8 15681181
EOH 0001FFFFFFFFFFFFFFFFFFFFFFFFFFFFFFFFFFFFFFFFFFFFFFFFFFFFFFFFFFFFFFFFFFFFFFFFFFFFFFFFFFFFFFFFFFFFFFFFFFFFFFFFFFFFFFFFFFFFFFFFFFFFFFFFFFFFFFFFFFFFFFFFFFFFFFFFFFFFFFFFFFFFFFFFFFFFFFFFFFFF003021300906052B0E03021A0500041491E55F7F100AC9E7495C66033CCBCA70C219A14D
MSG 0 46174.964 $GPGSA,A,3,,06,10,13,16,20,21,23,29,30,31,32,1.2,0.8,0.9*39
MSG 0 46175.091 $GPGSV,3,2,12,16,83,289,49,20,12,241,35,21,03,081,41,23,57,288,51*70
MSG 0 46175.237 $PGRME,4.6,M,5.2,M,7.0,M*2C
MSG 0 46175.297 $PGRMB,0.0,200,,,,K,,N,N*31
MSG 0 46175.358 $PGRMM,WGS 84*06
MSG 0 46175.688 $GPRMC,165056,A,4305.5147,N,07039.0921,W,000.5,163.5,030712,016.1,W*70
POS 0 46256.000 365585.653 4772345.161
QUA 0 46256.000 7 9.200 0.800 11.000 1.000 0.000 0.000 0.000
RAW 0 46256.000 4 430551.47000 -703909.21000 -25.20000 165056.00000
MSG 0 46175.837 $GPGGA,165056,4305.5147,N,07039.0921,W,1,11,0.8,7.2,M,-32.4,M,,*76
MSG 0 46175.979 $GPGSA,A,3,,06,10,13,16,20,21,23,29,30,31,32,1.2,0.8,0.9*39
MSG 0 46176.106 $GPGSV,3,3,12,29,06,032,45,30,63,045,49,31,31,096,47,32,09,216,41*79
MSG 0 46176.252 $PGRME,4.6,M,5.1,M,6.9,M*27
MSG 0 46176.312 $PGRMB,0.0,200,,,,K,,N,N*31
MSG 0 46176.373 $PGRMM,WGS 84*06
MSG 0 46176.689 $GPRMC,165057,A,4305.5148,N,07039.0919,W,000.4,110.6,030712,016.1,W*73
POS 0 46257.000 365585.928 4772345.341
QUA 0 46257.000 7 9.200 0.800 11.000 1.000 0.000 0.000 0.000
RAW 0 46257.000 4 430551.48000 -703909.19000 -24.80000 165057.00000
MSG 0 46176.839 $GPGGA,165057,4305.5148,N,07039.0919,W,1,11,0.8,7.6,M,-32.4,M,,*77
FIX 99 46177.161 92 365585.928 4772345.341
MSG 0 46176.980 $GPGSA,A,3,,06,10,13,16,20,21,23,29,30,31,32,1.2,0.8,0.9*39
MSG 0 46177.107 $GPGSV,3,1,12,03,36,178,32,06,45,157,49,10,05,326,43,13,29,315,47*71
MSG 0 46177.253 $PGRME,4.6,M,5.2,M,7.0,M*2C
MSG 0 46177.313 $PGRMB,0.0,200,,,,K,,N,N*31
MSG 0 46177.374 $PGRMM,WGS 84*06
MSG 0 46177.673 $GPRMC,165058,A,4305.5145,N,07039.0918,W,000.5,157.9,030712,016.1,W*7D
POS 0 46258.000 365586.053 4772344.783
QUA 0 46258.000 7 9.200 0.800 11.000 1.000 0.000 0.000 0.000
RAW 0 46258.000 4 430551.45000 -703909.18000 -24.70000 165058.00000
MSG 0 46177.823 $GPGGA,165058,4305.5145,N,07039.0918,W,1,11,0.8,7.7,M,-32.4,M,,*75
MSG 0 46177.965 $GPGSA,A,3,,06,10,13,16,20,21,23,29,30,31,32,1.2,0.8,0.9*39
MSG 0 46178.092 $GPGSV,3,2,12,16,83,289,49,20,12,241,37,21,03,081,42,23,57,288,50*70
MSG 0 46178.237 $PGRME,4.6,M,5.2,M,7.0,M*2C
MSG 0 46178.298 $PGRMB,0.0,200,,,,K,,N,N*31
MSG 0 46178.358 $PGRMM,WGS 84*06
MSG 0 46178.673 $GPRMC,165059,A,4305.5143,N,07039.0918,W,000.6,170.9,030712,016.1,W*7C
POS 0 46259.000 365586.045 4772344.412
QUA 0 46259.000 7 9.200 0.800 11.000 1.000 0.000 0.000 0.000
RAW 0 46259.000 4 430551.43000 -703909.18000 -25.00000 165059.00000
MSG 0 46178.823 $GPGGA,165059,4305.5143,N,07039.0918,W,1,11,0.8,7.4,M,-32.4,M,,*71
MSG 0 46178.964 $GPGSA,A,3,,06,10,13,16,20,21,23,29,30,31,32,1.2,0.8,0.9*39
MSG 0 46179.091 $GPGSV,3,3,12,29,06,032,44,30,63,045,49,31,31,096,47,32,09,216,41*78
MSG 0 46179.237 $PGRME,4.6,M,5.1,M,6.9,M*27
MSG 0 46179.297 $PGRMB,0.0,200,,,,K,,N,N*31
MSG 0 46179.358 $PGRMM,WGS 84*06
MSG 0 46179.683 $GPRMC,165100,A,4305.5143,N,07039.0917,W,000.4,147.7,030712,016.1,W*76
POS 0 46260.000 365586.181 4772344.410
QUA 0 46260.000 7 9.200 0.800 11.000 1.000 0.000 0.000 0.000
RAW 0 46260.000 4 430551.43000 -703909.17000 -25.00000 165100.00000
MSG 0 46179.833 $GPGGA,165100,4305.5143,N,07039.0917,W,1,11,0.8,7.4,M,-32.4,M,,*73
MSG 0 46179.974 $GPGSA,A,3,,06,10,13,16,20,21,23,29,30,31,32,1.2,0.8,0.9*39
MSG 0 46180.101 $GPGSV,3,1,12,03,36,178,33,06,45,157,48,10,05,326,41,13,29,315,48*7C
MSG 0 46180.247 $PGRME,4.6,M,5.1,M,6.9,M*27
MSG 0 46180.308 $PGRMB,0.0,200,,,,K,,N,N*31
MSG 0 46180.368 $PGRMM,WGS 84*06
MSG 0 46180.690 $GPRMC,165101,A,4305.5143,N,07039.0915,W,000.4,137.9,030712,016.1,W*7C
POS 0 46261.000 365586.452 4772344.404
QUA 0 46261.000 7 9.200 0.800 11.000 1.000 0.000 0.000 0.000
RAW 0 46261.000 4 430551.43000 -703909.15000 -24.70000 165101.00000
MSG 0 46180.840 $GPGGA,165101,4305.5143,N,07039.0915,W,1,11,0.8,7.7,M,-32.4,M,,*73
MSG 0 46180.981 $GPGSA,A,3,,06,10,13,16,20,21,23,29,30,31,32,1.2,0.8,0.9*39
MSG 0 46181.108 $GPGSV,3,2,12,16,83,289,49,20,11,240,39,21,03,081,42,23,57,288,51*7D
MSG 0 46181.254 $PGRME,4.6,M,5.1,M,6.9,M*27
MSG 0 46181.314 $PGRMB,0.0,200,,,,K,,N,N*31
MSG 0 46181.375 $PGRMM,WGS 84*06
MSG 0 46181.690 $GPRMC,165102,A,4305.5140,N,07039.0915,W,000.7,174.2,030712,016.1,W*73
POS 0 46262.000 365586.441 4772343.849
QUA 0 46262.000 7 9.200 0.800 11.000 1.000 0.000 0.000 0.000
RAW 0 46262.000 4 430551.40000 -703909.15000 -24.60000 165102.00000
MSG 0 46181.840 $GPGGA,165102,4305.5140,N,07039.0915,W,1,11,0.8,7.8,M,-32.4,M,,*7C
MSG 0 46181.982 $GPGSA,A,3,,06,10,13,16,20,21,23,29,30,31,32,1.2,0.8,0.9*39
MSG 0 46182.109 $GPGSV,3,3,12,29,06,032,44,30,63,045,50,31,31,096,47,32,09,216,39*7F
MSG 0 46182.254 $PGRME,4.6,M,5.1,M,6.9,M*27
MSG 0 46182.315 $PGRMB,0.0,200,,,,K,,N,N*31
MSG 0 46182.375 $PGRMM,WGS 84*06
MSG 0 46182.681 $GPRMC,165103,A,4305.5139,N,07039.0915,W,000.4,179.0,030712,016.1,W*70
POS 0 46263.000 365586.438 4772343.664
QUA 0 46263.000 7 9.200 0.800 11.000 1.000 0.000 0.000 0.000
RAW 0 46263.000 4 430551.39000 -703909.15000 -24.50000 165103.00000
MSG 0 46182.831 $GPGGA,165103,4305.5139,N,07039.0915,W,1,11,0.8,7.9,M,-32.4,M,,*72
MSG 0 46182.973 $GPGSA,A,3,,06,10,13,16,20,21,23,29,30,31,32,1.2,0.8,0.9*39
MSG 0 46183.100 $GPGSV,3,1,12,03,36,178,32,06,45,157,46,10,05,326,43,13,29,315,47*7E
MSG 0 46183.245 $PGRME,4.6,M,5.1,M,6.9,M*27
MSG 0 46183.306 $PGRMB,0.0,200,,,,K,,N,N*31
MSG 0 46183.366 $PGRMM,WGS 84*06
MSG 0 46183.673 $GPRMC,165104,A,4305.5140,N,07039.0913,W,000.2,107.2,030712,016.1,W*72
POS 0 46264.000 365586.713 4772343.844
QUA 0 46264.000 7 9.200 0.800 11.000 1.000 0.000 0.000 0.000
RAW 0 46264.000 4 430551.40000 -703909.13000 -24.70000 165104.00000
MSG 0 46183.823 $GPGGA,165104,4305.5140,N,07039.0913,W,1,11,0.8,7.7,M,-32.4,M,,*73
MSG 0 46183.964 $GPGSA,A,3,,06,10,13,16,20,21,23,29,30,31,32,1.2,0.8,0.9*39
MSG 0 46184.091 $GPGSV,3,2,12,16,83,289,49,20,11,240,39,21,04,080,41,23,57,288,51*78
MSG 0 46184.237 $PGRME,4.6,M,5.1,M,6.9,M*27
MSG 0 46184.297 $PGRMB,0.0,200,,,,K,,N,N*31
MSG 0 46184.358 $PGRMM,WGS 84*06
MSG 0 46184.672 $GPRMC,165105,A,4305.5138,N,07039.0913,W,000.5,155.6,030712,016.1,W*78
POS 0 46265.000 365586.705 4772343.474
QUA 0 46265.000 7 9.200 0.800 11.000 1.000 0.000 0.000 0.000
RAW 0 46265.000 4 430551.38000 -703909.13000 -24.90000 165105.00000
MSG 0 46184.822 $GPGGA,165105,4305.5138,N,07039.0913,W,1,11,0.8,7.5,M,-32.4,M,,*7F
MSG 0 46184.963 $GPGSA,A,3,,06,10,13,16,20,21,23,29,30,31,32,1.2,0.8,0.9*39
MSG 0 46185.090 $GPGSV,3,3,12,29,06,032,44,30,63,045,50,31,31,096,46,32,09,216,38*7F
MSG 0 46185.236 $PGRME,4.6,M,5.1,M,6.9,M*27
MSG 0 46185.296 $PGRMB,0.0,200,,,,K,,N,N*31
MSG 0 46185.357 $PGRMM,WGS 84*06
MSG 0 46185.690 $GPRMC,165106,A,4305.5135,N,07039.0911,W,000.7,158.9,030712,016.1,W*74
POS 0 46266.000 365586.966 4772342.913
QUA 0 46266.000 7 9.200 0.800 11.000 1.000 0.000 0.000 0.000
RAW 0 46266.000 4 430551.35000 -703909.11000 -24.90000 165106.00000
MSG 0 46185.839 $GPGGA,165106,4305.5135,N,07039.0911,W,1,11,0.8,7.5,M,-32.4,M,,*73
MSG 0 46185.981 $GPGSA,A,3,,06,10,13,16,20,21,23,29,30,31,32,1.2,0.8,0.9*39
MSG 0 46186.108 $GPGSV,3,1,12,03,36,178,33,06,45,157,45,10,05,326,41,13,29,315,48*71
MSG 0 46186.254 $PGRME,4.6,M,5.1,M,6.9,M*27
MSG 0 46186.314 $PGRMB,0.0,200,,,,K,,N,N*31
MSG 0 46186.375 $PGRMM,WGS 84*06
MSG 0 46186.675 $GPRMC,165107,A,4305.5136,N,07039.0909,W,000.4,122.1,030712,016.1,W*79
POS 0 46267.000 365587.241 4772343.093
QUA 0 46267.000 7 9.200 0.800 11.000 1.000 0.000 0.000 0.000
RAW 0 46267.000 4 430551.36000 -703909.09000 -24.80000 165107.00000
MSG 0 46186.825 $GPGGA,165107,4305.5136,N,07039.0909,W,1,11,0.8,7.6,M,-32.4,M,,*7B
MSG 0 46186.967 $GPGSA,A,3,,06,10,13,16,20,21,23,29,30,31,32,1.2,0.8,0.9*39
MSG 0 46187.094 $GPGSV,3,2,12,16,83,289,49,20,11,240,37,21,04,080,40,23,57,288,52*74
MSG 0 46187.240 $PGRME,4.6,M,5.1,M,6.9,M*27
MSG 0 46187.300 $PGRMB,0.0,200,,,,K,,N,N*31
MSG 0 46187.360 $PGRMM,WGS 84*06
MSG 0 46187.681 $GPRMC,165108,A,4305.5134,N,07039.0909,W,000.5,145.1,030712,016.1,W*74
POS 0 46268.000 365587.233 4772342.723
QUA 0 46268.000 7 9.200 0.800 11.000 1.000 0.000 0.000 0.000
RAW 0 46268.000 4 430551.34000 -703909.09000 -24.70000 165108.00000
MSG 0 46187.831 $GPGGA,165108,4305.5134,N,07039.0909,W,1,11,0.8,7.7,M,-32.4,M,,*77
MSG 0 46187.973 $GPGSA,A,3,,06,10,13,16,20,21,23,29,30,31,32,1.2,0.8,0.9*39
MSG 0 46188.100 $GPGSV,3,3,12,29,06,032,44,30,63,045,50,31,31,096,47,32,09,216,40*71
MSG 0 46188.245 $PGRME,4.6,M,5.1,M,6.9,M*27
MSG 0 46188.306 $PGRMB,0.0,200,,,,K,,N,N*31
MSG 0 46188.366 $PGRMM,WGS 84*06
MSG 0 46188.672 $GPRMC,165109,A,4305.5132,N,07039.0909,W,000.6,176.1,030712,016.1,W*70
POS 0 46269.000 365587.226 4772342.352
QUA 0 46269.000 7 9.200 0.800 11.000 1.000 0.000 0.000 0.000
RAW 0 46269.000 4 430551.32000 -703909.09000 -24.60000 165109.00000
MSG 0 46188.822 $GPGGA,165109,4305.5132,N,07039.0909,W,1,11,0.8,7.8,M,-32.4,M,,*7F
MSG 0 46188.964 $GPGSA,A,3,,06,10,13,16,20,21,23,29,30,31,32,1.2,0.8,0.9*39
MSG 0 46189.091 $GPGSV,3,1,12,03,36,178,33,06,45,157,44,10,05,326,43,13,29,315,48*72
MSG 0 46189.236 $PGRME,4.6,M,5.1,M,6.9,M*27
MSG 0 46189.297 $PGRMB,0.0,200,,,,K,,N,N*31
MSG 0 46189.357 $PGRMM,WGS 84*06
MSG 0 46189.675 $GPRMC,165110,A,4305.5133,N,07039.0909,W,000.2,169.4,030712,016.1,W*76
POS 0 46270.000 365587.230 4772342.537
QUA 0 46270.000 7 9.200 0.800 11.000 1.000 0.000 0.000 0.000
RAW 0 46270.000 4 430551.33000 -703909.09000 -24.50000 165110.00000
MSG 0 46189.825 $GPGGA,165110,4305.5133,N,07039.0909,W,1,11,0.8,7.9,M,-32.4,M,,*77
MSG 0 46189.967 $GPGSA,A,3,,06,10,13,16,20,21,23,29,30,31,32,1.2,0.8,0.9*39
MSG 0 46190.094 $GPGSV,3,2,12,16,83,289,49,20,11,240,36,21,04,080,41,23,57,288,52*74
MSG 0 46190.239 $PGRME,4.6,M,5.2,M,7.0,M*2C
MSG 0 46190.300 $PGRMB,0.0,200,,,,K,,N,N*31
MSG 0 46190.360 $PGRMM,WGS 84*06
MSG 0 46190.672 $GPRMC,165111,A,4305.5131,N,07039.0908,W,000.3,167.6,030712,016.1,W*79
POS 0 46271.000 365587.358 4772342.165
QUA 0 46271.000 7 9.200 0.800 11.000 1.000 0.000 0.000 0.000
RAW 0 46271.000 4 430551.31000 -703909.08000 -24.70000 165111.00000
MSG 0 46190.822 $GPGGA,165111,4305.5131,N,07039.0908,W,1,11,0.8,7.7,M,-32.4,M,,*7B
MSG 0 46190.964 $GPGSA,A,3,,06,10,13,16,20,21,23,29,30,31,32,1.2,0.8,0.9*39
MSG 0 46191.091 $GPGSV,3,3,12,29,06,032,43,30,63,046,49,31,31,096,47,32,09,216,40*7D
MSG 0 46191.236 $PGRME,4.6,M,5.1,M,6.9,M*27
MSG 0 46191.297 $PGRMB,0.0,200,,,,K,,N,N*31
MSG 0 46191.357 $PGRMM,WGS 84*06
MSG 0 46191.673 $GPRMC,165112,A,4305.5129,N,07039.0907,W,000.5,163.5,030712,016.1,W*7D
POS 0 46272.000 365587.486 4772341.792
QUA 0 46272.000 7 9.200 0.800 11.000 1.000 0.000 0.000 0.000
RAW 0 46272.000 4 430551.29000 -703909.07000 -24.60000 165112.00000
MSG 0 46191.823 $GPGGA,165112,4305.5129,N,07039.0907,W,1,11,0.8,7.8,M,-32.4,M,,*71
MSG 0 46191.964 $GPGSA,A,3,,06,10,13,16,20,21,23,29,30,31,32,1.2,0.8,0.9*39
MSG 0 46192.091 $GPGSV,3,1,12,03,36,178,33,06,45,157,45,10,05,326,44,13,29,315,48*74
MSG 0 46192.237 $PGRME,4.6,M,5.1,M,6.9,M*27
MSG 0 46192.297 $PGRMB,0.0,200,,,,K,,N,N*31
MSG 0 46192.358 $PGRMM,WGS 84*06
MSG 0 46192.692 $GPRMC,165113,A,4305.5128,N,07039.0907,W,000.4,157.2,030712,016.1,W*7C
POS 0 46273.000 365587.483 4772341.607
QUA 0 46273.000 7 9.200 0.800 11.000 1.000 0.000 0.000 0.000
RAW 0 46273.000 4 430551.28000 -703909.07000 -24.60000 165113.00000
MSG 0 46192.842 $GPGGA,165113,4305.5128,N,07039.0907,W,1,11,0.8,7.8,M,-32.4,M,,*71
MSG 0 46192.983 $GPGSA,A,3,,06,10,13,16,20,21,23,29,30,31,32,1.2,0.8,0.9*39
MSG 0 46193.110 $GPGSV,3,2,12,16,83,289,49,20,11,240,38,21,04,080,40,23,58,287,51*78
MSG 0 46193.256 $PGRME,4.6,M,5.1,M,6.9,M*27
MSG 0 46193.316 $PGRMB,0.0,200,,,,K,,N,N*31
MSG 0 46193.377 $PGRMM,WGS 84*06
MSG 0 46193.702 $GPRMC,165114,A,4305.5128,N,07039.0905,W,000.3,119.0,030712,016.1,W*76
POS 0 46274.000 365587.754 4772341.601
QUA 0 46274.000 7 9.200 0.800 11.000 1.000 0.000 0.000 0.000
RAW 0 46274.000 4 430551.28000 -703909.05000 -24.50000 165114.00000
MSG 0 46193.852 $GPGGA,165114,4305.5128,N,07039.0905,W,1,11,0.8,7.9,M,-32.4,M,,*75
MSG 0 46193.993 $GPGSA,A,3,,06,10,13,16,20,21,23,29,30,31,32,1.2,0.8,0.9*39
MSG 0 46194.120 $GPGSV,3,3,12,29,06,032,43,30,63,046,49,31,31,096,47,32,09,216,41*7C
MSG 0 46194.266 $PGRME,4.6,M,5.1,M,6.9,M*27
MSG 0 46194.326 $PGRMB,0.0,200,,,,K,,N,N*31
MSG 0 46194.387 $PGRMM,WGS 84*06
MSG 0 46194.674 $GPRMC,165115,A,4305.5125,N,07039.0905,W,000.7,163.3,030712,016.1,W*70
POS 0 46275.000 365587.743 4772341.046
QUA 0 46275.000 7 9.200 0.800 11.000 1.000 0.000 0.000 0.000
RAW 0 46275.000 4 430551.25000 -703909.05000 -24.60000 165115.00000
MSG 0 46194.824 $GPGGA,165115,4305.5125,N,07039.0905,W,1,11,0.8,7.8,M,-32.4,M,,*78
MSG 0 46194.965 $GPGSA,A,3,,06,10,13,16,20,21,23,29,30,31,32,1.2,0.8,0.9*39
MSG 0 46195.092 $GPGSV,3,1,12,03,36,178,33,06,45,157,47,10,05,326,43,13,29,315,49*70
MSG 0 46195.238 $PGRME,4.6,M,5.2,M,6.9,M*24
MSG 0 46195.298 $PGRMB,0.0,200,,,,K,,N,N*31
MSG 0 46195.359 $PGRMM,WGS 84*06
MSG 0 46195.672 $GPRMC,165116,A,4305.5125,N,07039.0905,W,000.4,156.0,030712,016.1,W*75
POS 0 46276.000 365587.743 4772341.046
QUA 0 46276.000 7 9.200 0.800 11.000 1.000 0.000 0.000 0.000
RAW 0 46276.000 4 430551.25000 -703909.05000 -24.40000 165116.00000
MSG 0 46195.822 $GPGGA,165116,4305.5125,N,07039.0905,W,1,11,0.8,8.0,M,-32.4,M,,*7C
MSG 0 46195.964 $GPGSA,A,3,,06,10,13,16,20,21,23,29,30,31,32,1.2,0.8,0.9*39
MSG 0 46196.091 $GPGSV,3,2,12,16,83,289,50,20,11,240,40,21,04,080,40,23,58,287,50*7E
MSG 0 46196.237 $PGRME,4.6,M,5.1,M,6.9,M*27
MSG 0 46196.297 $PGRMB,0.0,200,,,,K,,N,N*31
MSG 0 46196.358 $PGRMM,WGS 84*06
MSG 0 46196.665 $GPRMC,165117,A,4305.5126,N,07039.0905,W,000.0,156.0,030712,016.1,W*73
POS 0 46277.000 365587.747 4772341.231
QUA 0 46277.000 7 9.200 0.800 11.000 1.000 0.000 0.000 0.000
RAW 0 46277.000 4 430551.26000 -703909.05000 -24.40000 165117.00000
MSG 0 46196.815 $GPGGA,165117,4305.5126,N,07039.0905,W,1,11,0.8,8.0,M,-32.4,M,,*7E
MSG 0 46196.957 $GPGSA,A,3,,06,10,13,16,20,21,23,29,30,31,32,1.2,0.8,0.9*39
MSG 0 46197.084 $GPGSV,3,3,12,29,06,032,42,30,63,046,49,31,31,096,48,32,09,216,43*70
MSG 0 46197.229 $PGRME,4.6,M,5.1,M,6.9,M*27
MSG 0 46197.290 $PGRMB,0.0,200,,,,K,,N,N*31
MSG 0 46197.350 $PGRMM,WGS 84*06
MSG 0 46197.672 $GPRMC,165118,A,4305.5124,N,07039.0905,W,000.6,172.6,030712,016.1,W*78
POS 0 46278.000 365587.740 4772340.861
QUA 0 46278.000 7 9.200 0.800 11.000 1.000 0.000 0.000 0.000
RAW 0 46278.000 4 430551.24000 -703909.05000 -24.20000 165118.00000
MSG 0 46197.822 $GPGGA,165118,4305.5124,N,07039.0905,W,1,11,0.8,8.2,M,-32.4,M,,*71
MSG 0 46197.963 $GPGSA,A,3,,06,10,13,16,20,21,23,29,30,31,32,1.2,0.8,0.9*39
MSG 0 46198.090 $GPGSV,3,1,12,03,36,178,31,06,45,157,47,10,05,326,45,13,29,315,48*75
MSG 0 46198.236 $PGRME,4.6,M,5.1,M,6.9,M*27
MSG 0 46198.297 $PGRMB,0.0,200,,,,K,,N,N*31
MSG 0 46198.357 $PGRMM,WGS 84*06
MSG 0 46198.672 $GPRMC,165119,A,4305.5122,N,07039.0905,W,000.4,185.0,030712,016.1,W*73
POS 0 46279.000 365587.732 4772340.491
QUA 0 46279.000 7 9.200 0.800 11.000 1.000 0.000 0.000 0.000
RAW 0 46279.000 4 430551.22000 -703909.05000 -24.10000 165119.00000
MSG 0 46198.821 $GPGGA,165119,4305.5122,N,07039.0905,W,1,11,0.8,8.3,M,-32.4,M,,*77
MSG 0 46198.963 $GPGSA,A,3,,06,10,13,16,20,21,23,29,30,31,32,1.2,0.8,0.9*39
MSG 0 46199.090 $GPGSV,3,2,12,16,83,289,50,20,11,240,40,21,04,080,41,23,58,287,50*7F
MSG 0 46199.236 $PGRME,4.6,M,5.1,M,6.9,M*27
MSG 0 46199.296 $PGRMB,0.0,200,,,,K,,N,N*31
MSG 0 46199.357 $PGRMM,WGS 84*06
MSG 0 46199.667 $GPRMC,165120,A,4305.5124,N,07039.0905,W,000.0,185.0,030712,016.1,W*7B
POS 0 46280.000 365587.740 4772340.861
QUA 0 46280.000 7 9.200 0.800 11.000 1.000 0.000 0.000 0.000
RAW 0 46280.000 4 430551.24000 -703909.05000 -24.40000 165120.00000
MSG 0 46199.817 $GPGGA,165120,4305.5124,N,07039.0905,W,1,11,0.8,8.0,M,-32.4,M,,*78
MSG 0 46199.959 $GPGSA,A,3,,06,10,13,16,20,21,23,29,30,31,32,1.2,0.8,0.9*39
MSG 0 46200.086 $GPGSV,3,3,12,29,06,032,43,30,63,046,49,31,31,096,48,32,09,216,44*76
MSG 0 46200.231 $PGRME,4.6,M,5.1,M,6.9,M*27
MSG 0 46200.292 $PGRMB,0.0,200,,,,K,,N,N*31
MSG 0 46200.352 $PGRMM,WGS 84*06
MSG 0 46200.688 $GPRMC,165121,A,4305.5122,N,07039.0904,W,000.6,168.7,030712,016.1,W*7F
POS 0 46281.000 365587.868 4772340.488
QUA 0 46281.000 7 9.200 0.800 11.000 1.000 0.000 0.000 0.000
RAW 0 46281.000 4 430551.22000 -703909.04000 -24.50000 165121.00000
MSG 0 46200.838 $GPGGA,165121,4305.5122,N,07039.0904,W,1,11,0.8,7.9,M,-32.4,M,,*78
MSG 0 46200.980 $GPGSA,A,3,,06,10,13,16,20,21,23,29,30,31,32,1.2,0.8,0.9*39
MSG 0 46201.107 $GPGSV,3,1,12,03,36,178,32,06,45,157,47,10,05,326,45,13,29,315,47*79
MSG 0 46201.252 $PGRME,4.6,M,5.1,M,6.9,M*27
MSG 0 46201.313 $PGRMB,0.0,200,,,,K,,N,N*31
MSG 0 46201.373 $PGRMM,WGS 84*06
MSG 0 46201.672 $GPRMC,165122,A,4305.5119,N,07039.0902,W,000.5,149.1,030712,016.1,W*74
POS 0 46282.000 365588.128 4772339.928
QUA 0 46282.000 7 9.200 0.800 11.000 1.000 0.000 0.000 0.000
RAW 0 46282.000 4 430551.19000 -703909.02000 -24.50000 165122.00000
MSG 0 46201.822 $GPGGA,165122,4305.5119,N,07039.0902,W,1,11,0.8,7.9,M,-32.4,M,,*75
MSG 0 46201.964 $GPGSA,A,3,,06,10,13,16,20,21,23,29,30,31,32,1.2,0.8,0.9*39
MSG 0 46202.091 $GPGSV,3,2,12,16,83,289,49,20,11,240,39,21,04,080,41,23,58,287,50*79
MSG 0 46202.237 $PGRME,4.6,M,5.1,M,6.9,M*27
MSG 0 46202.297 $PGRMB,0.0,200,,,,K,,N,N*31
MSG 0 46202.357 $PGRMM,WGS 84*06
MSG 0 46202.689 $GPRMC,165123,A,4305.5119,N,07039.0901,W,000.4,134.1,030712,016.1,W*7D
POS 0 46283.000 365588.264 4772339.925
QUA 0 46283.000 7 9.200 0.800 11.000 1.000 0.000 0.000 0.000
RAW 0 46283.000 4 430551.19000 -703909.01000 -24.60000 165123.00000
MSG 0 46202.839 $GPGGA,165123,4305.5119,N,07039.0901,W,1,11,0.8,7.8,M,-32.4,M,,*76
MSG 0 46202.981 $GPGSA,A,3,,06,10,13,16,20,21,23,29,30,31,32,1.2,0.8,0.9*39
MSG 0 46203.108 $GPGSV,3,3,12,29,06,032,43,30,63,046,49,31,31,096,48,32,09,216,43*71
MSG 0 46203.253 $PGRME,4.6,M,5.1,M,6.9,M*27
MSG 0 46203.314 $PGRMB,0.0,200,,,,K,,N,N*31
MSG 0 46203.374 $PGRMM,WGS 84*06
MSG 0 46203.682 $GPRMC,165124,A,4305.5117,N,07039.0901,W,000.6,157.0,030712,016.1,W*72
POS 0 46284.000 365588.257 4772339.555
QUA 0 46284.000 7 9.200 0.800 11.000 1.000 0.000 0.000 0.000
RAW 0 46284.000 4 430551.17000 -703909.01000 -24.40000 165124.00000
MSG 0 46203.832 $GPGGA,165124,4305.5117,N,07039.0901,W,1,11,0.8,8.0,M,-32.4,M,,*78
MSG 0 46203.973 $GPGSA,A,3,,06,10,13,16,20,21,23,29,30,31,32,1.2,0.8,0.9*39
MSG 0 46204.100 $GPGSV,3,1,12,03,36,178,31,06,45,157,47,10,05,326,45,13,29,315,46*7B
MSG 0 46204.246 $PGRME,4.6,M,5.1,M,6.9,M*27
MSG 0 46204.307 $PGRMB,0.0,200,,,,K,,N,N*31
MSG 0 46204.367 $PGRMM,WGS 84*06
MSG 0 46204.674 $GPRMC,165125,A,4305.5117,N,07039.0900,W,000.4,154.5,030712,016.1,W*76
POS 0 46285.000 365588.392 4772339.552
QUA 0 46285.000 7 9.200 0.800 11.000 1.000 0.000 0.000 0.000
RAW 0 46285.000 4 430551.17000 -703909.00000 -24.00000 165125.00000
MSG 0 46204.824 $GPGGA,165125,4305.5117,N,07039.0900,W,1,11,0.8,8.4,M,-32.4,M,,*7C
MSG 0 46204.965 $GPGSA,A,3,,06,10,13,16,20,21,23,29,30,31,32,1.2,0.8,0.9*39
MSG 0 46205.093 $GPGSV,3,2,12,16,83,289,49,20,11,240,40,21,04,080,41,23,58,287,51*76
MSG 0 46205.238 $PGRME,4.6,M,5.1,M,6.9,M*27
MSG 0 46205.299 $PGRMB,0.0,200,,,,K,,N,N*31
MSG 0 46205.359 $PGRMM,WGS 84*06
MSG 0 46205.672 $GPRMC,165126,A,4305.5117,N,07039.0901,W,000.1,154.5,030712,016.1,W*71
POS 0 46286.000 365588.257 4772339.555
QUA 0 46286.000 7 9.200 0.800 11.000 1.000 0.000 0.000 0.000
RAW 0 46286.000 4 430551.17000 -703909.01000 -24.10000 165126.00000
MSG 0 46205.822 $GPGGA,165126,4305.5117,N,07039.0901,W,1,11,0.8,8.3,M,-32.4,M,,*79
MSG 0 46205.963 $GPGSA,A,3,,06,10,13,16,20,21,23,29,30,31,32,1.2,0.8,0.9*39
MSG 0 46206.090 $GPGSV,3,3,12,29,06,032,44,30,63,046,49,31,31,096,48,32,09,216,42*77
MSG 0 46206.236 $PGRME,4.6,M,5.1,M,6.9,M*27
MSG 0 46206.297 $PGRMB,0.0,200,,,,K,,N,N*31
MSG 0 46206.357 $PGRMM,WGS 84*06
MSG 0 46206.672 $GPRMC,165127,A,4305.5115,N,07039.0902,W,000.4,185.9,030712,016.1,W*74
POS 0 46287.000 365588.114 4772339.187
QUA 0 46287.000 7 9.200 0.800 11.000 1.000 0.000 0.000 0.000
RAW 0 46287.000 4 430551.15000 -703909.02000 -24.20000 165127.00000
MSG 0 46206.821 $GPGGA,165127,4305.5115,N,07039.0902,W,1,11,0.8,8.2,M,-32.4,M,,*78
MSG 0 46206.963 $GPGSA,A,3,,06,10,13,16,20,21,23,29,30,31,32,1.2,0.8,0.9*39
MSG 0 46207.090 $GPGSV,3,1,12,03,36,178,32,06,45,157,47,10,05,326,47,13,29,315,47*7B
MSG 0 46207.236 $PGRME,4.6,M,5.1,M,6.9,M*27
MSG 0 46207.296 $PGRMB,0.0,200,,,,K,,N,N*31
MSG 0 46207.357 $PGRMM,WGS 84*06
MSG 0 46207.689 $GPRMC,165128,A,4305.5114,N,07039.0902,W,000.3,188.8,030712,016.1,W*71
POS 0 46288.000 365588.110 4772339.002
QUA 0 46288.000 7 9.200 0.800 11.000 1.000 0.000 0.000 0.000
RAW 0 46288.000 4 430551.14000 -703909.02000 -24.30000 165128.00000
MSG 0 46207.839 $GPGGA,165128,4305.5114,N,07039.0902,W,1,11,0.8,8.1,M,-32.4,M,,*75
MSG 0 46207.981 $GPGSA,A,3,,06,10,13,16,20,21,23,29,30,31,32,1.2,0.8,0.9*39
MSG 0 46208.108 $GPGSV,3,2,12,16,83,289,49,20,11,240,41,21,04,080,41,23,58,287,51*77
MSG 0 46208.254 $PGRME,4.6,M,5.1,M,6.9,M*27
MSG 0 46208.314 $PGRMB,0.0,200,,,,K,,N,N*31
MSG 0 46208.375 $PGRMM,WGS 84*06
MSG 0 46208.687 $GPRMC,165129,A,4305.5114,N,07039.0902,W,000.2,184.5,030712,016.1,W*70
POS 0 46289.000 365588.110 4772339.002
QUA 0 46289.000 7 9.200 0.800 11.000 1.000 0.000 0.000 0.000
RAW 0 46289.000 4 430551.14000 -703909.02000 -24.50000 165129.00000
MSG 0 46208.837 $GPGGA,165129,4305.5114,N,07039.0902,W,1,11,0.8,7.9,M,-32.4,M,,*73
MSG 0 46208.979 $GPGSA,A,3,,06,10,13,16,20,21,23,29,30,31,32,1.2,0.8,0.9*39
MSG 0 46209.106 $GPGSV,3,3,12,29,06,032,45,30,63,046,48,31,31,096,48,32,09,216,40*75
MSG 0 46209.251 $PGRME,4.6,M,5.1,M,6.9,M*27
MSG 0 46209.312 $PGRMB,0.0,200,,,,K,,N,N*31
MSG 0 46209.372 $PGRMM,WGS 84*06
MSG 0 46209.690 $GPRMC,165130,A,4305.5113,N,07039.0901,W,000.4,154.8,030712,016.1,W*7A
POS 0 46290.000 365588.242 4772338.814
QUA 0 46290.000 7 9.200 0.800 11.000 1.000 0.000 0.000 0.000
RAW 0 46290.000 4 430551.13000 -703909.01000 -24.30000 165130.00000
MSG 0 46209.840 $GPGGA,165130,4305.5113,N,07039.0901,W,1,11,0.8,8.1,M,-32.4,M,,*78
MSG 0 46209.981 $GPGSA,A,3,,06,10,13,16,20,21,23,29,30,31,32,1.2,0.8,0.9*39
MSG 0 46210.108 $GPGSV,3,1,12,03,36,178,32,06,45,157,47,10,05,326,44,13,29,315,48*77
MSG 0 46210.254 $PGRME,4.6,M,5.1,M,6.9,M*27
MSG 0 46210.314 $PGRMB,0.0,200,,,,K,,N,N*31
MSG 0 46210.375 $PGRMM,WGS 84*06
MSG 0 46210.674 $GPRMC,165131,A,4305.5110,N,07039.0899,W,000.6,156.5,030712,016.1,W*75
POS 0 46291.000 365588.502 4772338.254
QUA 0 46291.000 7 9.200 0.800 11.000 1.000 0.000 0.000 0.000
RAW 0 46291.000 4 430551.10000 -703908.99000 -24.30000 165131.00000
MSG 0 46210.823 $GPGGA,165131,4305.5110,N,07039.0899,W,1,11,0.8,8.1,M,-32.4,M,,*7A
MSG 0 46210.965 $GPGSA,A,3,,06,10,13,16,20,21,23,29,30,31,32,1.2,0.8,0.9*39
MSG 0 46211.092 $GPGSV,3,2,12,16,83,289,49,20,11,240,42,21,04,080,41,23,58,287,51*74
MSG 0 46211.238 $PGRME,4.6,M,5.1,M,6.9,M*27
MSG 0 46211.298 $PGRMB,0.0,200,,,,K,,N,N*31
MSG 0 46211.359 $PGRMM,WGS 84*06
MSG 0 46211.672 $GPRMC,165132,A,4305.5110,N,07039.0899,W,000.4,147.9,030712,016.1,W*78
POS 0 46292.000 365588.502 4772338.254
QUA 0 46292.000 7 9.200 0.800 11.000 1.000 0.000 0.000 0.000
RAW 0 46292.000 4 430551.10000 -703908.99000 -24.30000 165132.00000
MSG 0 46211.822 $GPGGA,165132,4305.5110,N,07039.0899,W,1,11,0.8,8.1,M,-32.4,M,,*79
MSG 0 46211.963 $GPGSA,A,3,,06,10,13,16,20,21,23,29,30,31,32,1.2,0.8,0.9*39
MSG 0 46212.090 $GPGSV,3,3,12,29,06,032,45,30,63,046,48,31,31,096,48,32,09,216,40*75
MSG 0 46212.236 $PGRME,4.6,M,5.1,M,6.9,M*27
MSG 0 46212.297 $PGRMB,0.0,200,,,,K,,N,N*31
MSG 0 46212.357 $PGRMM,WGS 84*06
MSG 0 46212.672 $GPRMC,165133,A,4305.5110,N,07039.0900,W,000.1,147.9,030712,016.1,W*7D
POS 0 46293.000 365588.367 4772338.256
QUA 0 46293.000 7 9.200 0.800 11.000 1.000 0.000 0.000 0.000
RAW 0 46293.000 4 430551.10000 -703909.00000 -24.00000 165133.00000
MSG 0 46212.822 $GPGGA,165133,4305.5110,N,07039.0900,W,1,11,0.8,8.4,M,-32.4,M,,*7C
MSG 0 46212.963 $GPGSA,A,3,,06,10,13,16,20,21,23,29,30,31,32,1.2,0.8,0.9*39
MSG 0 46213.090 $GPGSV,3,1,12,03,36,178,33,06,45,157,48,10,05,326,43,13,29,315,49*7F
MSG 0 46213.236 $PGRME,4.6,M,5.1,M,6.9,M*27
MSG 0 46213.296 $PGRMB,0.0,200,,,,K,,N,N*31
MSG 0 46213.357 $PGRMM,WGS 84*06
MSG 0 46213.673 $GPRMC,165134,A,4305.5108,N,07039.0898,W,000.6,155.5,030712,016.1,W*7B
POS 0 46294.000 365588.631 4772337.881
QUA 0 46294.000 7 9.200 0.800 11.000 1.000 0.000 0.000 0.000
RAW 0 46294.000 4 430551.08000 -703908.98000 -24.10000 165134.00000
MSG 0 46213.823 $GPGGA,165134,4305.5108,N,07039.0898,W,1,11,0.8,8.3,M,-32.4,M,,*75
MSG 0 46213.965 $GPGSA,A,3,,06,10,13,16,20,21,23,29,30,31,32,1.2,0.8,0.9*39
MSG 0 46214.092 $GPGSV,3,2,12,16,83,289,49,20,11,240,41,21,04,080,40,23,58,287,52*75
MSG 0 46214.237 $PGRME,4.6,M,5.1,M,6.9,M*27
MSG 0 46214.298 $PGRMT,GPS 17-HVS Ver. 2.80,P,P,R,R,P,,40,R*0F
MSG 0 46214.398 $PGRMB,0.0,200,,,,K,,N,N*31
MSG 0 46214.458 $PGRMM,WGS 84*06
MSG 0 46214.689 $GPRMC,165135,A,4305.5106,N,07039.0897,W,000.7,166.3,030712,016.1,W*7C
POS 0 46295.000 365588.759 4772337.508
QUA 0 46295.000 7 9.200 0.800 11.000 1.000 0.000 0.000 0.000
RAW 0 46295.000 4 430551.06000 -703908.97000 -24.40000 165135.00000
MSG 0 46214.839 $GPGGA,165135,4305.5106,N,07039.0897,W,1,11,0.8,8.0,M,-32.4,M,,*76
MSG 0 46214.981 $GPGSA,A,3,,06,10,13,16,20,21,23,29,30,31,32,1.2,0.8,0.9*39
MSG 0 46215.108 $GPGSV,3,3,12,29,05,032,44,30,63,046,48,31,31,096,49,32,09,216,41*77
MSG 0 46215.254 $PGRME,4.6,M,5.1,M,6.9,M*27
MSG 0 46215.314 $PGRMB,0.0,200,,,,K,,N,N*31
MSG 0 46215.374 $PGRMM,WGS 84*06
MSG 0 46215.684 $GPRMC,165136,A,4305.5106,N,07039.0897,W,000.3,163.9,030712,016.1,W*74
POS 0 46296.000 365588.759 4772337.508
QUA 0 46296.000 7 9.200 0.800 11.000 1.000 0.000 0.000 0.000
RAW 0 46296.000 4 430551.06000 -703908.97000 -24.40000 165136.00000
MSG 0 46215.834 $GPGGA,165136,4305.5106,N,07039.0897,W,1,11,0.8,8.0,M,-32.4,M,,*75
MSG 0 46215.975 $GPGSA,A,3,,06,10,13,16,20,21,23,29,30,31,32,1.2,0.8,0.9*39
MSG 0 46216.102 $GPGSV,3,1,12,03,36,178,00,06,45,157,47,10,05,326,42,13,29,315,49*71
MSG 0 46216.248 $PGRME,4.6,M,5.1,M,6.9,M*27
MSG 0 46216.309 $PGRMB,0.0,200,,,,K,,N,N*31
MSG 0 46216.369 $PGRMM,WGS 84*06
MSG 0 46216.671 $GPRMC,165137,A,4305.5104,N,07039.0896,W,000.5,159.3,030712,016.1,W*73
POS 0 46297.000 365588.887 4772337.135
QUA 0 46297.000 7 9.200 0.800 11.000 1.000 0.000 0.000 0.000
RAW 0 46297.000 4 430551.04000 -703908.96000 -24.10000 165137.00000
MSG 0 46216.821 $GPGGA,165137,4305.5104,N,07039.0896,W,1,11,0.8,8.3,M,-32.4,M,,*74
MSG 0 46216.963 $GPGSA,A,3,,06,10,13,16,20,21,23,29,30,31,32,1.2,0.8,0.9*39
MSG 0 46217.090 $GPGSV,3,2,12,16,83,289,49,20,11,240,40,21,04,080,39,23,58,287,52*7A
MSG 0 46217.235 $PGRME,4.6,M,5.1,M,6.9,M*27
MSG 0 46217.296 $PGRMB,0.0,200,,,,K,,N,N*31
MSG 0 46217.356 $PGRMM,WGS 84*06
MSG 0 46217.689 $GPRMC,165138,A,4305.5102,N,07039.0896,W,000.6,162.4,030712,016.1,W*76
POS 0 46298.000 365588.880 4772336.765
QUA 0 46298.000 7 9.200 0.800 11.000 1.000 0.000 0.000 0.000
RAW 0 46298.000 4 430551.02000 -703908.96000 -23.80000 165138.00000
MSG 0 46217.839 $GPGGA,165138,4305.5102,N,07039.0896,W,1,11,0.8,8.6,M,-32.4,M,,*78
MSG 0 46217.980 $GPGSA,A,3,,06,10,13,16,20,21,23,29,30,31,32,1.2,0.8,0.9*39
MSG 0 46218.107 $GPGSV,3,3,12,29,05,032,44,30,62,046,49,31,31,096,49,32,09,216,42*74
MSG 0 46218.253 $PGRME,4.6,M,5.1,M,6.9,M*27
MSG 0 46218.313 $PGRMB,0.0,200,,,,K,,N,N*31
MSG 0 46218.374 $PGRMM,WGS 84*06
MSG 0 46218.671 $GPRMC,165139,A,4305.5102,N,07039.0895,W,000.4,164.1,030712,016.1,W*75
POS 0 46299.000 365589.016 4772336.762
QUA 0 46299.000 7 9.200 0.800 11.000 1.000 0.000 0.000 0.000
RAW 0 46299.000 4 430551.02000 -703908.95000 -23.90000 165139.00000
MSG 0 46218.821 $GPGGA,165139,4305.5102,N,07039.0895,W,1,11,0.8,8.5,M,-32.4,M,,*79
MSG 0 46218.963 $GPGSA,A,3,,06,10,13,16,20,21,23,29,30,31,32,1.2,0.8,0.9*39
MSG 0 46219.090 $GPGSV,3,1,12,03,36,178,32,06,45,157,46,10,05,326,42,13,29,315,48*70
MSG 0 46219.236 $PGRME,4.6,M,5.1,M,6.9,M*27
MSG 0 46219.296 $PGRMB,0.0,200,,,,K,,N,N*31
MSG 0 46219.357 $PGRMM,WGS 84*06
MSG 0 46219.689 $GPRMC,165140,A,4305.5102,N,07039.0897,W,000.2,238.5,030712,016.1,W*71
POS 0 46300.000 365588.745 4772336.768
QUA 0 46300.000 7 9.200 0.800 11.000 1.000 0.000 0.000 0.000
RAW 0 46300.000 4 430551.02000 -703908.97000 -24.10000 165140.00000
MSG 0 46219.839 $GPGGA,165140,4305.5102,N,07039.0897,W,1,11,0.8,8.3,M,-32.4,M,,*73
MSG 0 46219.981 $GPGSA,A,3,,06,10,13,16,20,21,23,29,30,31,32,1.2,0.8,0.9*39
MSG 0 46220.108 $GPGSV,3,2,12,16,83,289,49,20,11,240,41,21,04,080,38,23,58,287,52*7A
MSG 0 46220.253 $PGRME,4.6,M,5.1,M,6.9,M*27
MSG 0 46220.314 $PGRMB,0.0,200,,,,K,,N,N*31
MSG 0 46220.374 $PGRMM,WGS 84*06
MSG 0 46220.672 $GPRMC,165141,A,4305.5100,N,07039.0896,W,000.5,163.3,030712,016.1,W*7F
POS 0 46301.000 365588.873 4772336.395
QUA 0 46301.000 7 9.200 0.800 11.000 1.000 0.000 0.000 0.000
RAW 0 46301.000 4 430551.00000 -703908.96000 -24.20000 165141.00000
MSG 0 46220.821 $GPGGA,165141,4305.5100,N,07039.0896,W,1,11,0.8,8.2,M,-32.4,M,,*70
MSG 0 46220.963 $GPGSA,A,3,,06,10,13,16,20,21,23,29,30,31,32,1.2,0.8,0.9*39
MSG 0 46221.090 $GPGSV,3,3,12,29,05,032,44,30,62,046,49,31,30,097,49,32,09,216,42*74
MSG 0 46221.236 $PGRME,4.6,M,5.1,M,6.9,M*27
MSG 0 46221.296 $PGRMB,0.0,200,,,,K,,N,N*31
MSG 0 46221.357 $PGRMM,WGS 84*06
MSG 0 46221.672 $GPRMC,165142,A,4305.5098,N,07039.0895,W,000.6,162.7,030712,016.1,W*79
POS 0 46302.000 365589.001 4772336.022
QUA 0 46302.000 7 9.200 0.800 11.000 1.000 0.000 0.000 0.000
RAW 0 46302.000 4 430550.98000 -703908.95000 -24.10000 165142.00000
MSG 0 46221.822 $GPGGA,165142,4305.5098,N,07039.0895,W,1,11,0.8,8.3,M,-32.4,M,,*71
MSG 0 46221.963 $GPGSA,A,3,,06,10,13,16,20,21,23,29,30,31,32,1.2,0.8,0.9*39
MSG 0 46222.090 $GPGSV,3,1,12,03,36,178,32,06,45,157,46,10,05,326,42,13,29,315,47*7F
MSG 0 46222.236 $PGRME,4.6,M,5.1,M,6.9,M*27
MSG 0 46222.296 $PGRMB,0.0,200,,,,K,,N,N*31
MSG 0 46222.357 $PGRMM,WGS 84*06
MSG 0 46222.688 $GPRMC,165143,A,4305.5097,N,07039.0895,W,000.4,176.7,030712,016.1,W*70
POS 0 46303.000 365588.998 4772335.837
QUA 0 46303.000 7 9.200 0.800 11.000 1.000 0.000 0.000 0.000
RAW 0 46303.000 4 430550.97000 -703908.95000 -24.20000 165143.00000
MSG 0 46222.838 $GPGGA,165143,4305.5097,N,07039.0895,W,1,11,0.8,8.2,M,-32.4,M,,*7E
MSG 0 46222.980 $GPGSA,A,3,,06,10,13,16,20,21,23,29,30,31,32,1.2,0.8,0.9*39
MSG 0 46223.107 $GPGSV,3,2,12,16,83,289,49,20,11,240,40,21,04,080,37,23,58,287,52*74
MSG 0 46223.253 $PGRME,4.6,M,5.1,M,6.9,M*27
MSG 0 46223.313 $PGRMB,0.0,200,,,,K,,N,N*31
MSG 0 46223.373 $PGRMM,WGS 84*06
MSG 0 46223.681 $GPRMC,165144,A,4305.5095,N,07039.0893,W,000.6,154.2,030712,016.1,W*74
POS 0 46304.000 365589.262 4772335.461
QUA 0 46304.000 7 9.200 0.800 11.000 1.000 0.000 0.000 0.000
RAW 0 46304.000 4 430550.95000 -703908.93000 -24.20000 165144.00000
MSG 0 46223.830 $GPGGA,165144,4305.5095,N,07039.0893,W,1,11,0.8,8.2,M,-32.4,M,,*7D
MSG 0 46223.972 $GPGSA,A,3,,06,10,13,16,20,21,23,29,30,31,32,1.2,0.8,0.9*39
MSG 0 46224.099 $GPGSV,3,3,12,29,05,032,45,30,62,046,49,31,30,097,48,32,09,216,42*74
MSG 0 46224.245 $PGRME,4.6,M,5.1,M,6.9,M*27
MSG 0 46224.305 $PGRMB,0.0,200,,,,K,,N,N*31
MSG 0 46224.366 $PGRMM,WGS 84*06
MSG 0 46224.673 $GPRMC,165145,A,4305.5093,N,07039.0893,W,000.7,162.0,030712,016.1,W*75
POS 0 46305.000 365589.254 4772335.091
QUA 0 46305.000 7 9.200 0.800 11.000 1.000 0.000 0.000 0.000
RAW 0 46305.000 4 430550.93000 -703908.93000 -24.10000 165145.00000
MSG 0 46224.823 $GPGGA,165145,4305.5093,N,07039.0893,W,1,11,0.8,8.3,M,-32.4,M,,*7B
MSG 0 46224.965 $GPGSA,A,3,,06,10,13,16,20,21,23,29,30,31,32,1.2,0.8,0.9*39
MSG 0 46225.092 $GPGSV,3,1,12,03,36,178,32,06,45,157,45,10,05,326,41,13,29,315,47*7F
MSG 0 46225.238 $PGRME,4.6,M,5.1,M,6.9,M*27
MSG 0 46225.298 $PGRMB,0.0,200,,,,K,,N,N*31
MSG 0 46225.358 $PGRMM,WGS 84*06
MSG 0 46225.689 $GPRMC,165146,A,4305.5091,N,07039.0892,W,000.6,158.8,030712,016.1,W*75
POS 0 46306.000 365589.383 4772334.718
QUA 0 46306.000 7 9.200 0.800 11.000 1.000 0.000 0.000 0.000
RAW 0 46306.000 4 430550.91000 -703908.92000 -24.30000 165146.00000
MSG 0 46225.839 $GPGGA,165146,4305.5091,N,07039.0892,W,1,11,0.8,8.1,M,-32.4,M,,*79
MSG 0 46225.981 $GPGSA,A,3,,06,10,13,16,20,21,23,29,30,31,32,1.2,0.8,0.9*39
MSG 0 46226.108 $GPGSV,3,2,12,16,83,289,49,20,11,240,41,21,04,080,38,23,58,287,51*79
MSG 0 46226.254 $PGRME,4.6,M,5.1,M,6.9,M*27
MSG 0 46226.314 $PGRMB,0.0,200,,,,K,,N,N*31
MSG 0 46226.374 $PGRMM,WGS 84*06
MSG 0 46226.681 $GPRMC,165147,A,4305.5089,N,07039.0891,W,000.6,159.6,030712,016.1,W*71
POS 0 46307.000 365589.511 4772334.345
QUA 0 46307.000 7 9.200 0.800 11.000 1.000 0.000 0.000 0.000
RAW 0 46307.000 4 430550.89000 -703908.91000 -24.10000 165147.00000
MSG 0 46226.831 $GPGGA,165147,4305.5089,N,07039.0891,W,1,11,0.8,8.3,M,-32.4,M,,*70
MSG 0 46226.973 $GPGSA,A,3,,06,10,13,16,20,21,23,29,30,31,32,1.2,0.8,0.9*39
MSG 0 46227.100 $GPGSV,3,3,12,29,05,032,43,30,62,046,48,31,30,097,47,32,09,215,41*7C
MSG 0 46227.246 $PGRME,4.6,M,5.1,M,6.9,M*27
MSG 0 46227.306 $PGRMB,0.0,200,,,,K,,N,N*31
MSG 0 46227.366 $PGRMM,WGS 84*06
MSG 0 46227.673 $GPRMC,165148,A,4305.5088,N,07039.0892,W,000.5,184.4,030712,016.1,W*7D
POS 0 46308.000 365589.372 4772334.163
QUA 0 46308.000 7 9.200 0.800 11.000 1.000 0.000 0.000 0.000
RAW 0 46308.000 4 430550.88000 -703908.92000 -23.90000 165148.00000
MSG 0 46227.822 $GPGGA,165148,4305.5088,N,07039.0892,W,1,11,0.8,8.5,M,-32.4,M,,*7B
MSG 0 46227.964 $GPGSA,A,3,,06,10,13,16,20,21,23,29,30,31,32,1.2,0.8,0.9*39
MSG 0 46228.091 $GPGSV,3,1,12,03,36,178,32,06,45,157,45,10,05,326,43,13,29,315,48*72
MSG 0 46228.237 $PGRME,4.6,M,5.1,M,6.9,M*27
MSG 0 46228.297 $PGRMB,0.0,200,,,,K,,N,N*31
MSG 0 46228.358 $PGRMM,WGS 84*06
MSG 0 46228.689 $GPRMC,165149,A,4305.5088,N,07039.0893,W,000.3,190.8,030712,016.1,W*72
POS 0 46309.000 365589.236 4772334.166
QUA 0 46309.000 7 9.200 0.800 11.000 1.000 0.000 0.000 0.000
RAW 0 46309.000 4 430550.88000 -703908.93000 -23.90000 165149.00000
MSG 0 46228.839 $GPGGA,165149,4305.5088,N,07039.0893,W,1,11,0.8,8.5,M,-32.4,M,,*7B
MSG 0 46228.980 $GPGSA,A,3,,06,10,13,16,20,21,23,29,30,31,32,1.2,0.8,0.9*39
MSG 0 46229.107 $GPGSV,3,2,12,16,83,289,49,20,11,240,40,21,04,080,37,23,58,287,51*77
MSG 0 46229.253 $PGRME,4.6,M,5.1,M,6.9,M*27
MSG 0 46229.313 $PGRMB,0.0,200,,,,K,,N,N*31
MSG 0 46229.374 $PGRMM,WGS 84*06
MSG 0 46229.687 $GPRMC,165150,A,4305.5087,N,07039.0893,W,000.3,193.7,030712,016.1,W*79
POS 0 46310.000 365589.232 4772333.981
QUA 0 46310.000 7 9.200 0.800 11.000 1.000 0.000 0.000 0.000
RAW 0 46310.000 4 430550.87000 -703908.93000 -24.00000 165150.00000
MSG 0 46229.837 $GPGGA,165150,4305.5087,N,07039.0893,W,1,11,0.8,8.4,M,-32.4,M,,*7D
MSG 0 46229.979 $GPGSA,A,3,,06,10,13,16,20,21,23,29,30,31,32,1.2,0.8,0.9*39
MSG 0 46230.106 $GPGSV,3,3,12,29,05,032,43,30,62,046,48,31,30,097,46,32,09,215,42*7E
MSG 0 46230.252 $PGRME,4.6,M,5.1,M,6.9,M*27
MSG 0 46230.312 $PGRMB,0.0,200,,,,K,,N,N*31
MSG 0 46230.372 $PGRMM,WGS 84*06
MSG 0 46230.676 $GPRMC,165151,A,4305.5086,N,07039.0892,W,000.4,166.1,030712,016.1,W*73
POS 0 46311.000 365589.364 4772333.793
QUA 0 46311.000 7 9.200 0.800 11.000 1.000 0.000 0.000 0.000
RAW 0 46311.000 4 430550.86000 -703908.92000 -24.40000 165151.00000
MSG 0 46230.826 $GPGGA,165151,4305.5086,N,07039.0892,W,1,11,0.8,8.0,M,-32.4,M,,*78
MSG 0 46230.967 $GPGSA,A,3,,06,10,13,16,20,21,23,29,30,31,32,1.2,0.8,0.9*39
MSG 0 46231.094 $GPGSV,3,1,12,03,36,178,32,06,45,157,45,10,05,326,41,13,29,315,48*70
MSG 0 46231.240 $PGRME,4.6,M,5.1,M,6.9,M*27
MSG 0 46231.300 $PGRMB,0.0,200,,,,K,,N,N*31
MSG 0 46231.361 $PGRMM,WGS 84*06
MSG 0 46231.687 $GPRMC,165152,A,4305.5085,N,07039.0890,W,000.6,147.7,030712,016.1,W*76
POS 0 46312.000 365589.632 4772333.602
QUA 0 46312.000 7 9.200 0.800 11.000 1.000 0.000 0.000 0.000
RAW 0 46312.000 4 430550.85000 -703908.90000 -24.60000 165152.00000
MSG 0 46231.837 $GPGGA,165152,4305.5085,N,07039.0890,W,1,11,0.8,7.8,M,-32.4,M,,*7D
MSG 0 46231.979 $GPGSA,A,3,,06,10,13,16,20,21,23,29,30,31,32,1.2,0.8,0.9*39
MSG 0 46232.106 $GPGSV,3,2,12,16,83,289,49,20,11,240,42,21,04,080,37,23,58,287,51*75
MSG 0 46232.251 $PGRME,4.6,M,5.1,M,6.9,M*27
MSG 0 46232.312 $PGRMB,0.0,200,,,,K,,N,N*31
MSG 0 46232.372 $PGRMM,WGS 84*06
MSG 0 46232.671 $GPRMC,165153,A,4305.5082,N,07039.0889,W,000.7,154.6,030712,016.1,W*7A
POS 0 46313.000 365589.757 4772333.044
QUA 0 46313.000 7 9.200 0.800 11.000 1.000 0.000 0.000 0.000
RAW 0 46313.000 4 430550.82000 -703908.89000 -24.50000 165153.00000
MSG 0 46232.821 $GPGGA,165153,4305.5082,N,07039.0889,W,1,11,0.8,7.9,M,-32.4,M,,*72
MSG 0 46232.962 $GPGSA,A,3,,06,10,13,16,20,21,23,29,30,31,32,1.2,0.8,0.9*39
MSG 0 46233.089 $GPGSV,3,3,12,29,05,032,43,30,62,046,48,31,30,097,46,32,09,215,41*7D
MSG 0 46233.235 $PGRME,4.6,M,5.1,M,6.9,M*27
MSG 0 46233.295 $PGRMB,0.0,200,,,,K,,N,N*31
MSG 0 46233.356 $PGRMM,WGS 84*06
MSG 0 46233.671 $GPRMC,165154,A,4305.5081,N,07039.0887,W,000.8,146.5,030712,016.1,W*7F
POS 0 46314.000 365590.024 4772332.854
QUA 0 46314.000 7 9.200 0.800 11.000 1.000 0.000 0.000 0.000
RAW 0 46314.000 4 430550.81000 -703908.87000 -24.30000 165154.00000
MSG 0 46233.821 $GPGGA,165154,4305.5081,N,07039.0887,W,1,11,0.8,8.1,M,-32.4,M,,*7F
MSG 0 46233.962 $GPGSA,A,3,,06,10,13,16,20,21,23,29,30,31,32,1.2,0.8,0.9*39
MSG 0 46234.089 $GPGSV,3,1,12,03,36,178,31,06,45,157,46,10,05,326,41,13,29,315,48*70
MSG 0 46234.235 $PGRME,4.6,M,5.1,M,6.9,M*27
MSG 0 46234.295 $PGRMB,0.0,200,,,,K,,N,N*31
MSG 0 46234.356 $PGRMM,WGS 84*06
MSG 0 46234.671 $GPRMC,165155,A,4305.5079,N,07039.0887,W,000.6,170.6,030712,016.1,W*71
POS 0 46315.000 365590.017 4772332.484
QUA 0 46315.000 7 9.200 0.800 11.000 1.000 0.000 0.000 0.000
RAW 0 46315.000 4 430550.79000 -703908.87000 -24.00000 165155.00000
MSG 0 46234.821 $GPGGA,165155,4305.5079,N,07039.0887,W,1,11,0.8,8.4,M,-32.4,M,,*7C
MSG 0 46234.963 $GPGSA,A,3,,06,10,13,16,20,21,23,29,30,31,32,1.2,0.8,0.9*39
MSG 0 46235.090 $GPGSV,3,2,12,16,83,289,49,20,11,240,40,21,04,080,39,23,58,287,51*79
MSG 0 46235.235 $PGRME,4.6,M,5.1,M,6.9,M*27
MSG 0 46235.296 $PGRMB,0.0,200,,,,K,,N,N*31
MSG 0 46235.356 $PGRMM,WGS 84*06
MSG 0 46235.670 $GPRMC,165156,A,4305.5078,N,07039.0887,W,000.4,174.7,030712,016.1,W*74
POS 0 46316.000 365590.014 4772332.299
QUA 0 46316.000 7 9.200 0.800 11.000 1.000 0.000 0.000 0.000
RAW 0 46316.000 4 430550.78000 -703908.87000 -24.00000 165156.00000
MSG 0 46235.820 $GPGGA,165156,4305.5078,N,07039.0887,W,1,11,0.8,8.4,M,-32.4,M,,*7E
MSG 0 46235.962 $GPGSA,A,3,,06,10,13,16,20,21,23,29,30,31,32,1.2,0.8,0.9*39
MSG 0 46236.089 $GPGSV,3,3,12,29,05,032,44,30,62,046,48,31,30,097,46,32,09,215,42*79
MSG 0 46236.235 $PGRME,4.6,M,5.1,M,6.9,M*27
MSG 0 46236.295 $PGRMB,0.0,200,,,,K,,N,N*31
MSG 0 46236.356 $PGRMM,WGS 84*06
MSG 0 46236.670 $GPRMC,165157,A,4305.5077,N,07039.0888,W,000.4,192.8,030712,016.1,W*72
POS 0 46317.000 365589.874 4772332.116
QUA 0 46317.000 7 9.200 0.800 11.000 1.000 0.000 0.000 0.000
RAW 0 46317.000 4 430550.77000 -703908.88000 -24.20000 165157.00000
MSG 0 46236.820 $GPGGA,165157,4305.5077,N,07039.0888,W,1,11,0.8,8.2,M,-32.4,M,,*79
MSG 0 46236.962 $GPGSA,A,3,,06,10,13,16,20,21,23,29,30,31,32,1.2,0.8,0.9*39
MSG 0 46237.089 $GPGSV,3,1,12,03,36,177,32,06,45,157,46,10,05,326,43,13,29,315,49*7F
MSG 0 46237.235 $PGRME,4.6,M,5.1,M,6.9,M*27
MSG 0 46237.295 $PGRMB,0.0,200,,,,K,,N,N*31
MSG 0 46237.355 $PGRMM,WGS 84*06
MSG 0 46237.686 $GPRMC,165158,A,4305.5076,N,07039.0888,W,000.4,174.5,030712,016.1,W*79
POS 0 46318.000 365589.871 4772331.931
QUA 0 46318.000 7 9.200 0.800 11.000 1.000 0.000 0.000 0.000
RAW 0 46318.000 4 430550.76000 -703908.88000 -24.40000 165158.00000
MSG 0 46237.836 $GPGGA,165158,4305.5076,N,07039.0888,W,1,11,0.8,8.0,M,-32.4,M,,*75
MSG 0 46237.977 $GPGSA,A,3,,06,10,13,16,20,21,23,29,30,31,32,1.2,0.8,0.9*39
MSG 0 46238.104 $GPGSV,3,2,12,16,83,289,49,20,11,240,41,21,04,080,40,23,58,287,50*77
MSG 0 46238.250 $PGRME,4.6,M,5.1,M,6.9,M*27
MSG 0 46238.310 $PGRMB,0.0,200,,,,K,,N,N*31
MSG 0 46238.371 $PGRMM,WGS 84*06
MSG 0 46238.670 $GPRMC,165159,A,4305.5075,N,07039.0886,W,000.5,151.6,030712,016.1,W*70
POS 0 46319.000 365590.138 4772331.741
QUA 0 46319.000 7 9.200 0.800 11.000 1.000 0.000 0.000 0.000
RAW 0 46319.000 4 430550.75000 -703908.86000 -24.60000 165159.00000
MSG 0 46238.820 $GPGGA,165159,4305.5075,N,07039.0886,W,1,11,0.8,7.8,M,-32.4,M,,*7E
MSG 0 46238.962 $GPGSA,A,3,,06,10,13,16,20,21,23,29,30,31,32,1.2,0.8,0.9*39
MSG 0 46239.089 $GPGSV,3,3,12,29,05,032,44,30,62,046,49,31,30,097,46,32,09,215,43*79
MSG 0 46239.235 $PGRME,4.6,M,5.1,M,6.9,M*27
MSG 0 46239.295 $PGRMB,0.0,200,,,,K,,N,N*31
MSG 0 46239.355 $PGRMM,WGS 84*06
MSG 0 46239.687 $GPRMC,165200,A,4305.5073,N,07039.0884,W,000.6,150.9,030712,016.1,W*76
POS 0 46320.000 365590.402 4772331.365
QUA 0 46320.000 7 9.200 0.800 11.000 1.000 0.000 0.000 0.000
RAW 0 46320.000 4 430550.73000 -703908.84000 -24.50000 165200.00000
MSG 0 46239.837 $GPGGA,165200,4305.5073,N,07039.0884,W,1,11,0.8,7.9,M,-32.4,M,,*74
MSG 0 46239.978 $GPGSA,A,3,,06,10,13,16,20,21,23,29,30,31,32,1.2,0.8,0.9*39
MSG 0 46240.105 $GPGSV,3,1,12,03,36,177,32,06,45,157,46,10,05,326,42,13,29,315,49*7E
MSG 0 46240.251 $PGRME,4.6,M,5.1,M,6.9,M*27
MSG 0 46240.311 $PGRMB,0.0,200,,,,K,,N,N*31
MSG 0 46240.372 $PGRMM,WGS 84*06
MSG 0 46240.671 $GPRMC,165201,A,4305.5071,N,07039.0883,W,000.6,153.5,030712,016.1,W*7D
POS 0 46321.000 365590.531 4772330.992
QUA 0 46321.000 7 9.200 0.800 11.000 1.000 0.000 0.000 0.000
RAW 0 46321.000 4 430550.71000 -703908.83000 -24.40000 165201.00000
MSG 0 46240.821 $GPGGA,165201,4305.5071,N,07039.0883,W,1,11,0.8,8.0,M,-32.4,M,,*76
MSG 0 46240.962 $GPGSA,A,3,,06,10,13,16,20,21,23,29,30,31,32,1.2,0.8,0.9*39
MSG 0 46241.089 $GPGSV,3,2,12,16,83,289,49,20,11,240,40,21,04,080,41,23,58,287,50*77
MSG 0 46241.235 $PGRME,4.6,M,5.1,M,6.9,M*27
MSG 0 46241.295 $PGRMB,0.0,200,,,,K,,N,N*31
MSG 0 46241.356 $PGRMM,WGS 84*06
MSG 0 46241.687 $GPRMC,165202,A,4305.5070,N,07039.0883,W,000.5,157.9,030712,016.1,W*74
POS 0 46322.000 365590.527 4772330.807
QUA 0 46322.000 7 9.200 0.800 11.000 1.000 0.000 0.000 0.000
RAW 0 46322.000 4 430550.70000 -703908.83000 -24.10000 165202.00000
MSG 0 46241.837 $GPGGA,165202,4305.5070,N,07039.0883,W,1,11,0.8,8.3,M,-32.4,M,,*77
MSG 0 46241.978 $GPGSA,A,3,,06,10,13,16,20,21,23,29,30,31,32,1.2,0.8,0.9*39
MSG 0 46242.105 $GPGSV,3,3,12,29,05,032,43,30,62,046,49,31,30,097,46,32,09,215,43*7E
MSG 0 46242.251 $PGRME,4.6,M,5.1,M,6.9,M*27
MSG 0 46242.311 $PGRMB,0.0,200,,,,K,,N,N*31
MSG 0 46242.372 $PGRMM,WGS 84*06
MSG 0 46242.686 $GPRMC,165203,A,4305.5069,N,07039.0883,W,000.6,169.4,030712,016.1,W*7E
POS 0 46323.000 365590.523 4772330.622
QUA 0 46323.000 7 9.200 0.800 11.000 1.000 0.000 0.000 0.000
RAW 0 46323.000 4 430550.69000 -703908.83000 -24.20000 165203.00000
MSG 0 46242.836 $GPGGA,165203,4305.5069,N,07039.0883,W,1,11,0.8,8.2,M,-32.4,M,,*7F
MSG 0 46242.977 $GPGSA,A,3,,06,10,13,16,20,21,23,29,30,31,32,1.2,0.8,0.9*39
MSG 0 46243.104 $GPGSV,3,1,12,03,36,177,33,06,45,157,46,10,05,326,43,13,29,315,49*7E
MSG 0 46243.250 $PGRME,4.6,M,5.2,M,7.0,M*2C
MSG 0 46243.311 $PGRMB,0.0,200,,,,K,,N,N*31
MSG 0 46243.371 $PGRMM,WGS 84*06
MSG 0 46243.672 $GPRMC,165204,A,4305.5068,N,07039.0881,W,000.5,152.8,030712,016.1,W*7D
POS 0 46324.000 365590.791 4772330.432
QUA 0 46324.000 7 9.200 0.800 11.000 1.000 0.000 0.000 0.000
RAW 0 46324.000 4 430550.68000 -703908.81000 -24.30000 165204.00000
MSG 0 46243.822 $GPGGA,165204,4305.5068,N,07039.0881,W,1,11,0.8,8.1,M,-32.4,M,,*78
MSG 0 46243.963 $GPGSA,A,3,,06,10,13,16,20,21,23,29,30,31,32,1.2,0.8,0.9*39
MSG 0 46244.090 $GPGSV,3,2,12,16,83,289,49,20,11,240,38,21,04,080,40,23,58,287,50*79
MSG 0 46244.236 $PGRME,4.6,M,5.2,M,7.0,M*2C
MSG 0 46244.297 $PGRMB,0.0,200,,,,K,,N,N*31
MSG 0 46244.357 $PGRMM,WGS 84*06
MSG 0 46244.671 $GPRMC,165205,A,4305.5066,N,07039.0882,W,000.5,175.4,030712,016.1,W*78
POS 0 46325.000 365590.648 4772330.064
QUA 0 46325.000 7 9.200 0.800 11.000 1.000 0.000 0.000 0.000
RAW 0 46325.000 4 430550.66000 -703908.82000 -24.40000 165205.00000
MSG 0 46244.821 $GPGGA,165205,4305.5066,N,07039.0882,W,1,11,0.8,8.0,M,-32.4,M,,*75
MSG 0 46244.962 $GPGSA,A,3,,06,10,13,16,20,21,23,29,30,31,32,1.2,0.8,0.9*39
MSG 0 46245.089 $GPGSV,3,3,12,29,05,032,43,30,62,046,50,31,30,097,46,32,09,215,42*77
MSG 0 46245.235 $PGRME,4.6,M,5.2,M,7.0,M*2C
MSG 0 46245.295 $PGRMB,0.0,200,,,,K,,N,N*31
MSG 0 46245.356 $PGRMM,WGS 84*06
MSG 0 46245.672 $GPRMC,165206,A,4305.5065,N,07039.0881,W,000.5,158.2,030712,016.1,W*72
POS 0 46326.000 365590.780 4772329.877
QUA 0 46326.000 7 9.200 0.800 11.000 1.000 0.000 0.000 0.000
RAW 0 46326.000 4 430550.65000 -703908.81000 -24.30000 165206.00000
MSG 0 46245.822 $GPGGA,165206,4305.5065,N,07039.0881,W,1,11,0.8,8.1,M,-32.4,M,,*77
MSG 0 46245.964 $GPGSA,A,3,,06,10,13,16,20,21,23,29,30,31,32,1.2,0.8,0.9*39
MSG 0 46246.091 $GPGSV,3,1,12,03,36,177,33,06,45,157,47,10,05,326,44,13,29,315,49*78
MSG 0 46246.236 $PGRME,4.6,M,5.1,M,6.9,M*27
MSG 0 46246.297 $PGRMB,0.0,200,,,,K,,N,N*31
MSG 0 46246.357 $PGRMM,WGS 84*06
MSG 0 46246.670 $GPRMC,165207,A,4305.5064,N,07039.0880,W,000.5,163.9,030712,016.1,W*70
POS 0 46327.000 365590.912 4772329.689
QUA 0 46327.000 7 9.200 0.800 11.000 1.000 0.000 0.000 0.000
RAW 0 46327.000 4 430550.64000 -703908.80000 -24.10000 165207.00000
MSG 0 46246.820 $GPGGA,165207,4305.5064,N,07039.0880,W,1,11,0.8,8.3,M,-32.4,M,,*74
MSG 0 46246.961 $GPGSA,A,3,,06,10,13,16,20,21,23,29,30,31,32,1.2,0.8,0.9*39
MSG 0 46247.088 $GPGSV,3,2,12,16,83,289,49,20,11,240,39,21,04,080,41,23,58,287,50*79
MSG 0 46247.234 $PGRME,4.6,M,5.1,M,6.9,M*27
MSG 0 46247.295 $PGRMB,0.0,200,,,,K,,N,N*31
MSG 0 46247.355 $PGRMM,WGS 84*06
MSG 0 46247.688 $GPRMC,165208,A,4305.5063,N,07039.0880,W,000.5,159.6,030712,016.1,W*7E
POS 0 46328.000 365590.908 4772329.504
QUA 0 46328.000 7 9.200 0.800 11.000 1.000 0.000 0.000 0.000
RAW 0 46328.000 4 430550.63000 -703908.80000 -24.20000 165208.00000
MSG 0 46247.838 $GPGGA,165208,4305.5063,N,07039.0880,W,1,11,0.8,8.2,M,-32.4,M,,*7D
MSG 0 46247.979 $GPGSA,A,3,,06,10,13,16,20,21,23,29,30,31,32,1.2,0.8,0.9*39
MSG 0 46248.106 $GPGSV,3,3,12,29,05,032,44,30,62,046,50,31,30,097,46,32,09,215,41*73
MSG 0 46248.252 $PGRME,4.6,M,5.1,M,6.9,M*27
MSG 0 46248.312 $PGRMB,0.0,200,,,,K,,N,N*31
MSG 0 46248.373 $PGRMM,WGS 84*06
MSG 0 46248.671 $GPRMC,165209,A,4305.5061,N,07039.0880,W,000.5,168.5,030712,016.1,W*7C
POS 0 46329.000 365590.901 4772329.134
QUA 0 46329.000 7 9.200 0.800 11.000 1.000 0.000 0.000 0.000
RAW 0 46329.000 4 430550.61000 -703908.80000 -24.30000 165209.00000
MSG 0 46248.821 $GPGGA,165209,4305.5061,N,07039.0880,W,1,11,0.8,8.1,M,-32.4,M,,*7D
MSG 0 46248.962 $GPGSA,A,3,,06,10,13,16,20,21,23,29,30,31,32,1.2,0.8,0.9*39
MSG 0 46249.089 $GPGSV,3,1,12,03,36,177,33,06,46,157,46,10,05,326,45,13,29,315,50*73
MSG 0 46249.235 $PGRME,4.6,M,5.1,M,6.9,M*27
MSG 0 46249.295 $PGRMB,0.0,200,,,,K,,N,N*31
MSG 0 46249.356 $PGRMM,WGS 84*06
MSG 0 46249.688 $GPRMC,165210,A,4305.5060,N,07039.0879,W,000.5,162.8,030712,016.1,W*74
POS 0 46330.000 365591.033 4772328.946
QUA 0 46330.000 7 9.200 0.800 11.000 1.000 0.000 0.000 0.000
RAW 0 46330.000 4 430550.60000 -703908.79000 -24.40000 165210.00000
MSG 0 46249.838 $GPGGA,165210,4305.5060,N,07039.0879,W,1,11,0.8,8.0,M,-32.4,M,,*73
MSG 0 46249.979 $GPGSA,A,3,,06,10,13,16,20,21,23,29,30,31,32,1.2,0.8,0.9*39
MSG 0 46250.106 $GPGSV,3,2,12,16,83,289,49,20,11,240,42,21,04,080,41,23,58,287,50*75
MSG 0 46250.252 $PGRME,4.6,M,5.1,M,6.9,M*27
MSG 0 46250.313 $PGRMB,0.0,200,,,,K,,N,N*31
MSG 0 46250.373 $PGRMM,WGS 84*06
MSG 0 46250.683 $GPRMC,165211,A,4305.5057,N,07039.0877,W,000.7,149.8,030712,016.1,W*74
POS 0 46331.000 365591.293 4772328.385
QUA 0 46331.000 7 9.200 0.800 11.000 1.000 0.000 0.000 0.000
RAW 0 46331.000 4 430550.57000 -703908.77000 -24.30000 165211.00000
MSG 0 46250.833 $GPGGA,165211,4305.5057,N,07039.0877,W,1,11,0.8,8.1,M,-32.4,M,,*79
MSG 0 46250.975 $GPGSA,A,3,,06,10,13,16,20,21,23,29,30,31,32,1.2,0.8,0.9*39
MSG 0 46251.102 $GPGSV,3,3,12,29,05,032,43,30,62,046,50,31,30,097,46,32,09,215,39*7B
MSG 0 46251.248 $PGRME,4.6,M,5.1,M,6.9,M*27
MSG 0 46251.308 $PGRMB,0.0,200,,,,K,,N,N*31
MSG 0 46251.368 $PGRMM,WGS 84*06
MSG 0 46251.687 $GPRMC,165212,A,4305.5056,N,07039.0875,W,000.6,144.7,030712,016.1,W*77
POS 0 46332.000 365591.561 4772328.195
QUA 0 46332.000 7 9.200 0.800 11.000 1.000 0.000 0.000 0.000
RAW 0 46332.000 4 430550.56000 -703908.75000 -24.20000 165212.00000
MSG 0 46251.837 $GPGGA,165212,4305.5056,N,07039.0875,W,1,11,0.8,8.2,M,-32.4,M,,*7A
MSG 0 46251.979 $GPGSA,A,3,,06,10,13,16,20,21,23,29,30,31,32,1.2,0.8,0.9*39
MSG 0 46252.106 $GPGSV,3,1,12,03,36,177,33,06,46,157,47,10,05,326,45,13,29,315,50*72
MSG 0 46252.252 $PGRME,4.6,M,5.1,M,6.9,M*27
MSG 0 46252.312 $PGRMB,0.0,200,,,,K,,N,N*31
MSG 0 46252.372 $PGRMM,WGS 84*06
MSG 0 46252.695 $GPRMC,165213,A,4305.5056,N,07039.0875,W,000.4,146.6,030712,016.1,W*77
POS 0 46333.000 365591.561 4772328.195
QUA 0 46333.000 7 9.200 0.800 11.000 1.000 0.000 0.000 0.000
RAW 0 46333.000 4 430550.56000 -703908.75000 -24.00000 165213.00000
MSG 0 46252.845 $GPGGA,165213,4305.5056,N,07039.0875,W,1,11,0.8,8.4,M,-32.4,M,,*7D
MSG 0 46252.987 $GPGSA,A,3,,06,10,13,16,20,21,23,29,30,31,32,1.2,0.8,0.9*39
MSG 0 46253.114 $GPGSV,3,2,12,16,83,289,49,20,11,240,41,21,04,080,41,23,58,287,51*77
MSG 0 46253.259 $PGRME,4.6,M,5.1,M,6.9,M*27
MSG 0 46253.320 $PGRMB,0.0,200,,,,K,,N,N*31
MSG 0 46253.380 $PGRMM,WGS 84*06
MSG 0 46253.670 $GPRMC,165214,A,4305.5055,N,07039.0875,W,000.4,159.8,030712,016.1,W*73
POS 0 46334.000 365591.557 4772328.010
QUA 0 46334.000 7 9.200 0.800 11.000 1.000 0.000 0.000 0.000
RAW 0 46334.000 4 430550.55000 -703908.75000 -23.90000 165214.00000
MSG 0 46253.820 $GPGGA,165214,4305.5055,N,07039.0875,W,1,11,0.8,8.5,M,-32.4,M,,*78
MSG 0 46253.961 $GPGSA,A,3,,06,10,13,16,20,21,23,29,30,31,32,1.2,0.8,0.9*39
MSG 0 46254.088 $GPGSV,3,3,12,29,05,032,42,30,62,046,50,31,30,097,47,32,09,215,42*77
MSG 0 46254.234 $PGRME,4.7,M,5.2,M,7.0,M*2D
MSG 0 46254.294 $PGRMB,0.0,200,,,,K,,N,N*31
MSG 0 46254.355 $PGRMM,WGS 84*06
MSG 0 46254.670 $GPRMC,165215,A,4305.5053,N,07039.0874,W,000.5,160.0,030712,016.1,W*76
POS 0 46335.000 365591.686 4772327.637
QUA 0 46335.000 7 9.200 0.800 11.000 1.000 0.000 0.000 0.000
RAW 0 46335.000 4 430550.53000 -703908.74000 -23.90000 165215.00000
MSG 0 46254.820 $GPGGA,165215,4305.5053,N,07039.0874,W,1,11,0.8,8.5,M,-32.4,M,,*7E
MSG 0 46254.961 $GPGSA,A,3,,06,10,13,16,20,21,23,29,30,31,32,1.2,0.8,0.9*39
MSG 0 46255.088 $GPGSV,3,1,12,03,36,177,32,06,46,157,47,10,05,325,45,13,29,315,49*78
MSG 0 46255.234 $PGRME,4.7,M,5.2,M,7.0,M*2D
MSG 0 46255.295 $PGRMB,0.0,200,,,,K,,N,N*31
MSG 0 46255.355 $PGRMM,WGS 84*06
MSG 0 46255.672 $GPRMC,165216,A,4305.5051,N,07039.0875,W,000.7,182.1,030712,016.1,W*79
POS 0 46336.000 365591.543 4772327.269
QUA 0 46336.000 7 9.200 0.800 11.000 1.000 0.000 0.000 0.000
RAW 0 46336.000 4 430550.51000 -703908.75000 -24.10000 165216.00000
MSG 0 46255.822 $GPGGA,165216,4305.5051,N,07039.0875,W,1,11,0.8,8.3,M,-32.4,M,,*78
MSG 0 46255.963 $GPGSA,A,3,,06,10,13,16,20,21,23,29,30,31,32,1.2,0.8,0.9*39
MSG 0 46256.090 $GPGSV,3,2,12,16,83,289,49,20,11,240,41,21,04,080,40,23,58,287,51*76
MSG 0 46256.236 $PGRME,4.6,M,5.1,M,6.9,M*27
MSG 0 46256.296 $PGRMB,0.0,200,,,,K,,N,N*31
MSG 0 46256.357 $PGRMM,WGS 84*06
MSG 0 46256.670 $GPRMC,165217,A,4305.5050,N,07039.0874,W,000.5,164.6,030712,016.1,W*75
POS 0 46337.000 365591.675 4772327.082
QUA 0 46337.000 7 9.200 0.800 11.000 1.000 0.000 0.000 0.000
RAW 0 46337.000 4 430550.50000 -703908.74000 -24.20000 165217.00000
MSG 0 46256.820 $GPGGA,165217,4305.5050,N,07039.0874,W,1,11,0.8,8.2,M,-32.4,M,,*78
MSG 0 46256.962 $GPGSA,A,3,,06,10,13,16,20,21,23,29,30,31,32,1.2,0.8,0.9*39
MSG 0 46257.089 $GPGSV,3,3,12,29,05,032,43,30,62,046,49,31,30,097,47,32,09,215,40*7C
MSG 0 46257.234 $PGRME,4.6,M,5.1,M,6.9,M*27
MSG 0 46257.295 $PGRMB,0.0,200,,,,K,,N,N*31
MSG 0 46257.355 $PGRMM,WGS 84*06
MSG 0 46257.670 $GPRMC,165218,A,4305.5048,N,07039.0874,W,000.5,170.9,030712,016.1,W*79
POS 0 46338.000 365591.668 4772326.711
QUA 0 46338.000 7 9.200 0.800 11.000 1.000 0.000 0.000 0.000
RAW 0 46338.000 4 430550.48000 -703908.74000 -24.00000 165218.00000
MSG 0 46257.820 $GPGGA,165218,4305.5048,N,07039.0874,W,1,11,0.8,8.4,M,-32.4,M,,*78
MSG 0 46257.962 $GPGSA,A,3,,06,10,13,16,20,21,23,29,30,31,32,1.2,0.8,0.9*39
MSG 0 46258.089 $GPGSV,3,1,12,03,36,177,33,06,46,157,47,10,05,325,44,13,29,315,49*78
MSG 0 46258.235 $PGRME,4.6,M,5.1,M,6.9,M*27
MSG 0 46258.295 $PGRMB,0.0,200,,,,K,,N,N*31
MSG 0 46258.355 $PGRMM,WGS 84*06
MSG 0 46258.672 $GPRMC,165219,A,4305.5047,N,07039.0872,W,000.6,142.0,030712,016.1,W*7A
FIX 99 46258.849 93 365591.668 4772326.711
