FTP NEW 2
VER 11.0.6.21
INF "" "" "" "" 0.000000 0.000000 0.000000
ELL WGS-84 6378137.000 298.257223563
PRO TME -69.000000 0.999600 0.000000 0.000000 0.000000 500000.0000 0.0000
DTM 0.00 0.00 0.00 0.00000 0.00000 0.00000 0.00000
GEO ??? 0.000
HVU 1.0000000000 1.0000000000
TND 10:29:07 07/03/2012 240
DEV 0 32869 "Garmin GPS" 49156 C:\HYPACK 2011\devices\GPS.dll 11.0.10.6
OFF 0 0.000000 0.000000 0.000000 0.000000 0.000000 0.000000 0.000000
DDT 0 SYN 
DEV 1 0 "Disabled" 0 Odom CV3 MK3 Disabled Unknown
USR "NOAA Joint Hydrographic Center" "HYPACK Inc." 0x8 15681181
EOH 471D6B6BFB2929B931412B720CC3C9268512635D2DE4BEBB2F65F009A9512C4AF079D56E064913EA981C6FDF50F9671420D956C4898A8596526F93EA4179ED74725DC732C82325EA5408C970EBF4EA63147FA9326B65D20F9060CD65E8AD26CB0BBAACC879CE8C42FB66E401D58CBA4E17D465C0DE678C9535986AA8B4D1D9EB
MSG 0 37745.846 $GPRMC,143026,A,4303.0241,N,07038.7748,W,000.4,094.8,030712,016.1,W*77
POS 0 37826.000 365925.589 4767726.892
QUA 0 37826.000 7 9.100 0.900 9.000 1.000 0.000 0.000 0.000
RAW 0 37826.000 4 430302.41000 -703877.48000 -22.20000 143026.00000
MSG 0 37745.996 $GPGGA,143026,4303.0241,N,07038.7748,W,1,09,0.9,10.2,M,-32.4,M,,*4A
MSG 0 37746.139 $GPGSA,A,3,,14,16,20,22,,25,29,30,31,32,,1.8,0.9,1.5*3A
MSG 0 37746.258 $GPGSV,3,3,11,30,47,205,47,31,74,002,51,32,47,277,47*49
MSG 0 37746.377 $PGRME,4.4,M,7.4,M,8.6,M*23
MSG 0 37746.437 $PGRMB,0.0,200,,,,K,,N,N*31
MSG 0 37746.497 $PGRMM,WGS 84*06
MSG 0 37746.846 $GPRMC,143027,A,4303.0241,N,07038.7748,W,000.3,091.3,030712,016.1,W*7F
POS 0 37827.000 365925.589 4767726.892
QUA 0 37827.000 7 9.100 0.900 9.000 1.000 0.000 0.000 0.000
RAW 0 37827.000 4 430302.41000 -703877.48000 -22.10000 143027.00000
MSG 0 37746.996 $GPGGA,143027,4303.0241,N,07038.7748,W,1,09,0.9,10.3,M,-32.4,M,,*4A
MSG 0 37747.140 $GPGSA,A,3,,14,16,20,22,,25,29,30,31,32,,1.8,0.9,1.5*3A
MSG 0 37747.258 $GPGSV,3,1,11,11,00,251,34,14,43,118,49,16,18,205,46,20,27,304,42*70
MSG 0 37747.404 $PGRME,4.4,M,7.4,M,8.6,M*23
MSG 0 37747.464 $PGRMB,0.0,200,,,,K,,N,N*31
MSG 0 37747.525 $PGRMM,WGS 84*06
FIX 99 37747.678 60 365925.589 4767726.892
MSG 0 37747.843 $GPRMC,143028,A,4303.0241,N,07038.7749,W,000.0,091.3,030712,016.1,W*72
POS 0 37828.000 365925.453 4767726.895
QUA 0 37828.000 7 9.100 0.900 9.000 1.000 0.000 0.000 0.000
RAW 0 37828.000 4 430302.41000 -703877.49000 -22.00000 143028.00000
MSG 0 37747.993 $GPGGA,143028,4303.0241,N,07038.7749,W,1,09,0.9,10.4,M,-32.4,M,,*43
MSG 0 37748.136 $GPGSA,A,3,,14,16,20,22,,25,29,30,31,32,,1.8,0.9,1.5*3A
MSG 0 37748.255 $GPGSV,3,2,11,22,06,173,45,23,05,306,37,25,34,048,47,29,21,086,46*74
MSG 0 37748.401 $PGRME,4.4,M,7.4,M,8.6,M*23
MSG 0 37748.461 $PGRMB,0.0,200,,,,K,,N,N*31
MSG 0 37748.522 $PGRMM,WGS 84*06
MSG 0 37748.846 $GPRMC,143029,A,4303.0241,N,07038.7748,W,000.2,105.4,030712,016.1,W*7B
POS 0 37829.000 365925.589 4767726.892
QUA 0 37829.000 7 9.100 0.900 9.000 1.000 0.000 0.000 0.000
RAW 0 37829.000 4 430302.41000 -703877.48000 -22.10000 143029.00000
MSG 0 37748.996 $GPGGA,143029,4303.0241,N,07038.7748,W,1,09,0.9,10.3,M,-32.4,M,,*44
MSG 0 37749.139 $GPGSA,A,3,,14,16,20,22,,25,29,30,31,32,,1.8,0.9,1.5*3A
MSG 0 37749.258 $GPGSV,3,3,11,30,47,205,47,31,74,002,51,32,47,277,47*49
MSG 0 37749.377 $PGRME,4.4,M,7.4,M,8.6,M*23
MSG 0 37749.437 $PGRMB,0.0,200,,,,K,,N,N*31
MSG 0 37749.497 $PGRMM,WGS 84*06
MSG 0 37749.859 $GPRMC,143030,A,4303.0241,N,07038.7746,W,000.3,099.4,030712,016.1,W*78
POS 0 37830.000 365925.860 4767726.887
QUA 0 37830.000 7 9.100 0.900 9.000 1.000 0.000 0.000 0.000
RAW 0 37830.000 4 430302.41000 -703877.46000 -22.10000 143030.00000
MSG 0 37750.009 $GPGGA,143030,4303.0241,N,07038.7746,W,1,09,0.9,10.3,M,-32.4,M,,*42
MSG 0 37750.153 $GPGSA,A,3,,14,16,20,22,,25,29,30,31,32,,1.8,0.9,1.5*3A
MSG 0 37750.271 $GPGSV,3,1,11,11,00,251,33,14,43,118,49,16,18,205,46,20,27,304,41*74
MSG 0 37750.417 $PGRME,4.4,M,7.4,M,8.6,M*23
MSG 0 37750.477 $PGRMB,0.0,200,,,,K,,N,N*31
MSG 0 37750.538 $PGRMM,WGS 84*06
MSG 0 37750.853 $GPRMC,143031,A,4303.0241,N,07038.7747,W,000.0,099.4,030712,016.1,W*7B
POS 0 37831.000 365925.725 4767726.890
QUA 0 37831.000 7 9.100 0.900 9.000 1.000 0.000 0.000 0.000
RAW 0 37831.000 4 430302.41000 -703877.47000 -22.20000 143031.00000
MSG 0 37751.003 $GPGGA,143031,4303.0241,N,07038.7747,W,1,09,0.9,10.2,M,-32.4,M,,*43
MSG 0 37751.147 $GPGSA,A,3,,14,16,20,22,,25,29,30,31,32,,1.8,0.9,1.5*3A
MSG 0 37751.265 $GPGSV,3,2,11,22,06,173,45,23,05,306,37,25,34,048,47,29,21,086,46*74
MSG 0 37751.411 $PGRME,4.4,M,7.4,M,8.6,M*23
MSG 0 37751.471 $PGRMB,0.0,200,,,,K,,N,N*31
MSG 0 37751.532 $PGRMM,WGS 84*06
MSG 0 37751.846 $GPRMC,143032,A,4303.0241,N,07038.7746,W,000.2,067.1,030712,016.1,W*7F
POS 0 37832.000 365925.860 4767726.887
QUA 0 37832.000 7 9.100 0.900 9.000 1.000 0.000 0.000 0.000
RAW 0 37832.000 4 430302.41000 -703877.46000 -22.10000 143032.00000
MSG 0 37751.996 $GPGGA,143032,4303.0241,N,07038.7746,W,1,09,0.9,10.3,M,-32.4,M,,*40
MSG 0 37752.140 $GPGSA,A,3,,14,16,20,22,,25,29,30,31,32,,1.8,0.9,1.5*3A
MSG 0 37752.259 $GPGSV,3,3,11,30,47,205,47,31,74,002,51,32,47,277,47*49
MSG 0 37752.377 $PGRME,4.4,M,7.4,M,8.6,M*23
MSG 0 37752.438 $PGRMB,0.0,200,,,,K,,N,N*31
MSG 0 37752.498 $PGRMM,WGS 84*06
MSG 0 37752.847 $GPRMC,143033,A,4303.0241,N,07038.7743,W,000.4,100.3,030712,016.1,W*7F
POS 0 37833.000 365926.268 4767726.879
QUA 0 37833.000 7 9.100 0.900 9.000 1.000 0.000 0.000 0.000
RAW 0 37833.000 4 430302.41000 -703877.43000 -22.10000 143033.00000
MSG 0 37752.996 $GPGGA,143033,4303.0241,N,07038.7743,W,1,09,0.9,10.3,M,-32.4,M,,*44
MSG 0 37753.140 $GPGSA,A,3,,14,16,20,22,,25,29,30,31,32,,1.8,0.9,1.5*3A
MSG 0 37753.259 $GPGSV,3,1,11,11,00,251,33,14,43,118,49,16,18,205,46,20,27,304,41*74
MSG 0 37753.405 $PGRME,4.4,M,7.4,M,8.6,M*23
MSG 0 37753.465 $PGRMB,0.0,200,,,,K,,N,N*31
MSG 0 37753.525 $PGRMM,WGS 84*06
MSG 0 37753.843 $GPRMC,143034,A,4303.0241,N,07038.7743,W,000.0,100.3,030712,016.1,W*7C
POS 0 37834.000 365926.268 4767726.879
QUA 0 37834.000 7 9.000 1.000 9.000 1.000 0.000 0.000 0.000
RAW 0 37834.000 4 430302.41000 -703877.43000 -22.00000 143034.00000
MSG 0 37753.993 $GPGGA,143034,4303.0241,N,07038.7743,W,1,09,1.0,10.4,M,-32.4,M,,*4C
MSG 0 37754.137 $GPGSA,A,3,,14,16,20,22,,25,29,30,31,32,,1.8,1.0,1.6*31
MSG 0 37754.256 $GPGSV,3,2,11,22,06,173,45,23,05,306,37,25,34,048,47,29,21,086,47*75
MSG 0 37754.401 $PGRME,4.4,M,7.4,M,8.6,M*23
MSG 0 37754.462 $PGRMT,GPS 17-HVS Ver. 2.80,P,P,R,R,P,,39,R*01
MSG 0 37754.562 $PGRMB,0.0,200,,,,K,,N,N*31
MSG 0 37754.622 $PGRMM,WGS 84*06
MSG 0 37754.853 $GPRMC,143035,A,4303.0241,N,07038.7744,W,000.0,100.3,030712,016.1,W*7A
POS 0 37835.000 365926.132 4767726.882
QUA 0 37835.000 7 9.100 0.900 9.000 1.000 0.000 0.000 0.000
RAW 0 37835.000 4 430302.41000 -703877.44000 -21.80000 143035.00000
MSG 0 37755.003 $GPGGA,143035,4303.0241,N,07038.7744,W,1,09,0.9,10.6,M,-32.4,M,,*40
MSG 0 37755.147 $GPGSA,A,3,,14,16,20,22,,25,29,30,31,32,,1.8,0.9,1.5*3A
MSG 0 37755.265 $GPGSV,3,3,11,30,47,205,47,31,74,002,51,32,47,277,47*49
MSG 0 37755.384 $PGRME,4.4,M,7.4,M,8.6,M*23
MSG 0 37755.444 $PGRMB,0.0,200,,,,K,,N,N*31
MSG 0 37755.505 $PGRMM,WGS 84*06
MSG 0 37755.853 $GPRMC,143036,A,4303.0241,N,07038.7743,W,000.3,112.1,030712,016.1,W*7C
POS 0 37836.000 365926.268 4767726.879
QUA 0 37836.000 7 9.100 0.900 9.000 1.000 0.000 0.000 0.000
RAW 0 37836.000 4 430302.41000 -703877.43000 -22.20000 143036.00000
MSG 0 37756.003 $GPGGA,143036,4303.0241,N,07038.7743,W,1,09,0.9,10.2,M,-32.4,M,,*40
MSG 0 37756.146 $GPGSA,A,3,,14,16,20,22,,25,29,30,31,32,,1.8,0.9,1.5*3A
MSG 0 37756.265 $GPGSV,3,1,11,11,00,251,33,14,43,118,49,16,19,205,45,20,27,304,42*75
MSG 0 37756.411 $PGRME,4.4,M,7.4,M,8.6,M*23
MSG 0 37756.471 $PGRMB,0.0,200,,,,K,,N,N*31
MSG 0 37756.531 $PGRMM,WGS 84*06
MSG 0 37756.857 $GPRMC,143037,A,4303.0239,N,07038.7741,W,000.4,131.6,030712,016.1,W*71
POS 0 37837.000 365926.532 4767726.504
QUA 0 37837.000 7 9.100 0.900 9.000 1.000 0.000 0.000 0.000
RAW 0 37837.000 4 430302.39000 -703877.41000 -22.40000 143037.00000
MSG 0 37757.007 $GPGGA,143037,4303.0239,N,07038.7741,W,1,09,0.9,10.0,M,-32.4,M,,*4E
MSG 0 37757.150 $GPGSA,A,3,,14,16,20,22,,25,29,30,31,32,,1.8,0.9,1.5*3A
MSG 0 37757.269 $GPGSV,3,2,11,22,06,173,45,23,05,306,37,25,34,048,46,29,21,086,47*74
MSG 0 37757.415 $PGRME,4.4,M,7.4,M,8.6,M*23
MSG 0 37757.475 $PGRMB,0.0,200,,,,K,,N,N*31
MSG 0 37757.536 $PGRMM,WGS 84*06
MSG 0 37757.853 $GPRMC,143038,A,4303.0240,N,07038.7742,W,000.0,131.6,030712,016.1,W*77
POS 0 37838.000 365926.400 4767726.691
QUA 0 37838.000 7 9.100 0.900 9.000 1.000 0.000 0.000 0.000
RAW 0 37838.000 4 430302.40000 -703877.42000 -22.10000 143038.00000
MSG 0 37758.003 $GPGGA,143038,4303.0240,N,07038.7742,W,1,09,0.9,10.3,M,-32.4,M,,*4F
MSG 0 37758.147 $GPGSA,A,3,,14,16,20,22,,25,29,30,31,32,,1.8,0.9,1.5*3A
MSG 0 37758.266 $GPGSV,3,3,11,30,47,205,47,31,74,002,51,32,47,277,46*48
MSG 0 37758.384 $PGRME,4.4,M,7.4,M,8.6,M*23
MSG 0 37758.445 $PGRMB,0.0,200,,,,K,,N,N*31
MSG 0 37758.505 $PGRMM,WGS 84*06
MSG 0 37758.861 $GPRMC,143039,A,4303.0240,N,07038.7741,W,000.3,101.2,030712,016.1,W*71
POS 0 37839.000 365926.535 4767726.689
QUA 0 37839.000 7 9.100 0.900 9.000 1.000 0.000 0.000 0.000
RAW 0 37839.000 4 430302.40000 -703877.41000 -22.10000 143039.00000
MSG 0 37759.011 $GPGGA,143039,4303.0240,N,07038.7741,W,1,09,0.9,10.3,M,-32.4,M,,*4D
MSG 0 37759.154 $GPGSA,A,3,,14,16,20,22,,25,29,30,31,32,,1.8,0.9,1.5*3A
MSG 0 37759.273 $GPGSV,3,1,11,11,00,251,33,14,43,118,49,16,19,205,45,20,27,304,43*74
MSG 0 37759.419 $PGRME,4.4,M,7.4,M,8.6,M*23
MSG 0 37759.479 $PGRMB,0.0,200,,,,K,,N,N*31
MSG 0 37759.539 $PGRMM,WGS 84*06
MSG 0 37759.847 $GPRMC,143040,A,4303.0241,N,07038.7738,W,000.4,076.1,030712,016.1,W*75
POS 0 37840.000 365926.946 4767726.866
QUA 0 37840.000 7 9.100 0.900 9.000 1.000 0.000 0.000 0.000
RAW 0 37840.000 4 430302.41000 -703877.38000 -22.10000 143040.00000
MSG 0 37759.997 $GPGGA,143040,4303.0241,N,07038.7738,W,1,09,0.9,10.3,M,-32.4,M,,*4C
MSG 0 37760.141 $GPGSA,A,3,,14,16,20,22,,25,29,30,31,32,,1.8,0.9,1.5*3A
MSG 0 37760.259 $GPGSV,3,2,11,22,06,173,44,23,05,306,37,25,34,048,46,29,21,086,46*74
MSG 0 37760.405 $PGRME,4.4,M,7.4,M,8.6,M*23
MSG 0 37760.465 $PGRMB,0.0,200,,,,K,,N,N*31
MSG 0 37760.526 $PGRMM,WGS 84*06
MSG 0 37760.841 $GPRMC,143041,A,4303.0240,N,07038.7739,W,000.0,076.1,030712,016.1,W*70
POS 0 37841.000 365926.807 4767726.683
QUA 0 37841.000 7 9.100 0.900 9.000 1.000 0.000 0.000 0.000
RAW 0 37841.000 4 430302.40000 -703877.39000 -22.00000 143041.00000
MSG 0 37760.991 $GPGGA,143041,4303.0240,N,07038.7739,W,1,09,0.9,10.4,M,-32.4,M,,*4A
MSG 0 37761.134 $GPGSA,A,3,,14,16,20,22,,25,29,30,31,32,,1.8,0.9,1.5*3A
MSG 0 37761.253 $GPGSV,3,3,11,30,47,205,47,31,74,002,51,32,47,277,47*49
MSG 0 37761.372 $PGRME,4.4,M,7.4,M,8.6,M*23
MSG 0 37761.432 $PGRMB,0.0,200,,,,K,,N,N*31
MSG 0 37761.492 $PGRMM,WGS 84*06
MSG 0 37761.851 $GPRMC,143042,A,4303.0240,N,07038.7739,W,000.0,076.1,030712,016.1,W*73
POS 0 37842.000 365926.807 4767726.683
QUA 0 37842.000 7 9.100 0.900 9.000 1.000 0.000 0.000 0.000
RAW 0 37842.000 4 430302.40000 -703877.39000 -22.10000 143042.00000
MSG 0 37762.001 $GPGGA,143042,4303.0240,N,07038.7739,W,1,09,0.9,10.3,M,-32.4,M,,*4E
MSG 0 37762.145 $GPGSA,A,3,,14,16,20,22,,25,29,30,31,32,,1.8,0.9,1.5*3A
MSG 0 37762.264 $GPGSV,3,1,11,11,00,251,34,14,43,118,49,16,19,205,45,20,27,304,43*73
MSG 0 37762.409 $PGRME,4.4,M,7.4,M,8.6,M*23
MSG 0 37762.470 $PGRMB,0.0,200,,,,K,,N,N*31
MSG 0 37762.530 $PGRMM,WGS 84*06
MSG 0 37762.846 $GPRMC,143043,A,4303.0240,N,07038.7738,W,000.4,131.9,030712,016.1,W*7D
POS 0 37843.000 365926.943 4767726.681
QUA 0 37843.000 7 9.100 0.900 9.000 1.000 0.000 0.000 0.000
RAW 0 37843.000 4 430302.40000 -703877.38000 -22.30000 143043.00000
MSG 0 37762.995 $GPGGA,143043,4303.0240,N,07038.7738,W,1,09,0.9,10.1,M,-32.4,M,,*4C
MSG 0 37763.139 $GPGSA,A,3,,14,16,20,22,,25,29,30,31,32,,1.8,0.9,1.5*3A
MSG 0 37763.258 $GPGSV,3,2,11,22,06,173,44,23,05,306,37,25,34,048,46,29,21,086,46*74
MSG 0 37763.404 $PGRME,4.4,M,7.4,M,8.6,M*23
MSG 0 37763.464 $PGRMB,0.0,200,,,,K,,N,N*31
MSG 0 37763.524 $PGRMM,WGS 84*06
MSG 0 37763.847 $GPRMC,143044,A,4303.0239,N,07038.7736,W,000.4,101.2,030712,016.1,W*72
POS 0 37844.000 365927.211 4767726.490
QUA 0 37844.000 7 9.100 0.900 9.000 1.000 0.000 0.000 0.000
RAW 0 37844.000 4 430302.39000 -703877.36000 -22.30000 143044.00000
MSG 0 37763.997 $GPGGA,143044,4303.0239,N,07038.7736,W,1,09,0.9,10.1,M,-32.4,M,,*4B
MSG 0 37764.141 $GPGSA,A,3,,14,16,20,22,,25,29,30,31,32,,1.8,0.9,1.5*3A
MSG 0 37764.260 $GPGSV,3,3,11,30,47,205,47,31,74,002,51,32,47,277,46*48
MSG 0 37764.378 $PGRME,4.4,M,7.4,M,8.6,M*23
MSG 0 37764.439 $PGRMB,0.0,200,,,,K,,N,N*31
MSG 0 37764.499 $PGRMM,WGS 84*06
MSG 0 37764.841 $GPRMC,143045,A,4303.0240,N,07038.7738,W,000.0,101.2,030712,016.1,W*77
POS 0 37845.000 365926.943 4767726.681
QUA 0 37845.000 7 9.100 0.900 9.000 1.000 0.000 0.000 0.000
RAW 0 37845.000 4 430302.40000 -703877.38000 -22.30000 143045.00000
MSG 0 37764.991 $GPGGA,143045,4303.0240,N,07038.7738,W,1,09,0.9,10.1,M,-32.4,M,,*4A
MSG 0 37765.135 $GPGSA,A,3,,14,16,20,22,,25,29,30,31,32,,1.8,0.9,1.5*3A
MSG 0 37765.254 $GPGSV,3,1,11,11,00,251,33,14,43,118,49,16,19,205,45,20,27,304,43*74
MSG 0 37765.399 $PGRME,4.4,M,7.5,M,8.7,M*23
MSG 0 37765.460 $PGRMB,0.0,200,,,,K,,N,N*31
MSG 0 37765.520 $PGRMM,WGS 84*06
MSG 0 37765.847 $GPRMC,143046,A,4303.0240,N,07038.7736,W,000.4,085.3,030712,016.1,W*72
POS 0 37846.000 365927.214 4767726.675
QUA 0 37846.000 7 9.100 0.900 9.000 1.000 0.000 0.000 0.000
RAW 0 37846.000 4 430302.40000 -703877.36000 -22.30000 143046.00000
MSG 0 37765.997 $GPGGA,143046,4303.0240,N,07038.7736,W,1,09,0.9,10.1,M,-32.4,M,,*47
MSG 0 37766.140 $GPGSA,A,3,,14,16,20,22,,25,29,30,31,32,,1.8,0.9,1.5*3A
MSG 0 37766.259 $GPGSV,3,2,11,22,06,173,43,23,05,306,37,25,34,048,47,29,21,086,46*72
MSG 0 37766.405 $PGRME,4.4,M,7.5,M,8.7,M*23
MSG 0 37766.465 $PGRMB,0.0,200,,,,K,,N,N*31
MSG 0 37766.525 $PGRMM,WGS 84*06
MSG 0 37766.856 $GPRMC,143047,A,4303.0239,N,07038.7731,W,000.6,099.3,030712,016.1,W*75
POS 0 37847.000 365927.889 4767726.477
QUA 0 37847.000 7 9.100 0.900 9.000 1.000 0.000 0.000 0.000
RAW 0 37847.000 4 430302.39000 -703877.31000 -22.50000 143047.00000
MSG 0 37767.006 $GPGGA,143047,4303.0239,N,07038.7731,W,1,09,0.9,9.9,M,-32.4,M,,*7F
MSG 0 37767.147 $GPGSA,A,3,,14,16,20,22,,25,29,30,31,32,,1.8,0.9,1.5*3A
MSG 0 37767.266 $GPGSV,3,3,11,30,47,205,47,31,74,002,51,32,47,277,47*49
MSG 0 37767.385 $PGRME,4.4,M,7.5,M,8.7,M*23
MSG 0 37767.445 $PGRMB,0.0,200,,,,K,,N,N*31
MSG 0 37767.505 $PGRMM,WGS 84*06
MSG 0 37767.853 $GPRMC,143048,A,4303.0239,N,07038.7733,W,000.0,099.3,030712,016.1,W*7E
POS 0 37848.000 365927.618 4767726.482
QUA 0 37848.000 7 9.100 0.900 9.000 1.000 0.000 0.000 0.000
RAW 0 37848.000 4 430302.39000 -703877.33000 -22.20000 143048.00000
MSG 0 37768.003 $GPGGA,143048,4303.0239,N,07038.7733,W,1,09,0.9,10.2,M,-32.4,M,,*41
MSG 0 37768.146 $GPGSA,A,3,,14,16,20,22,,25,29,30,31,32,,1.8,0.9,1.5*3A
MSG 0 37768.265 $GPGSV,3,1,11,11,00,251,00,14,43,118,49,16,19,205,45,20,27,304,44*73
MSG 0 37768.411 $PGRME,4.4,M,7.5,M,8.7,M*23
MSG 0 37768.471 $PGRMB,0.0,200,,,,K,,N,N*31
MSG 0 37768.532 $PGRMM,WGS 84*06
MSG 0 37768.846 $GPRMC,143049,A,4303.0239,N,07038.7733,W,000.1,099.3,030712,016.1,W*7E
POS 0 37849.000 365927.618 4767726.482
QUA 0 37849.000 7 9.100 0.900 9.000 1.000 0.000 0.000 0.000
RAW 0 37849.000 4 430302.39000 -703877.33000 -21.80000 143049.00000
MSG 0 37768.995 $GPGGA,143049,4303.0239,N,07038.7733,W,1,09,0.9,10.6,M,-32.4,M,,*44
MSG 0 37769.139 $GPGSA,A,3,,14,16,20,22,,25,29,30,31,32,,1.8,0.9,1.5*3A
MSG 0 37769.258 $GPGSV,3,2,11,22,06,173,44,23,05,306,37,25,34,048,47,29,21,086,48*7B
MSG 0 37769.404 $PGRME,4.4,M,7.5,M,8.7,M*23
MSG 0 37769.464 $PGRMB,0.0,200,,,,K,,N,N*31
MSG 0 37769.524 $PGRMM,WGS 84*06
MSG 0 37769.846 $GPRMC,143050,A,4303.0239,N,07038.7731,W,000.4,092.0,030712,016.1,W*79
POS 0 37850.000 365927.889 4767726.477
QUA 0 37850.000 7 9.100 0.900 9.000 1.000 0.000 0.000 0.000
RAW 0 37850.000 4 430302.39000 -703877.31000 -22.00000 143050.00000
MSG 0 37769.995 $GPGGA,143050,4303.0239,N,07038.7731,W,1,09,0.9,10.4,M,-32.4,M,,*4C
MSG 0 37770.139 $GPGSA,A,3,,14,16,20,22,,25,29,30,31,32,,1.8,0.9,1.5*3A
MSG 0 37770.258 $GPGSV,3,3,11,30,47,205,47,31,74,002,50,32,47,277,47*48
MSG 0 37770.376 $PGRME,4.4,M,7.5,M,8.7,M*23
MSG 0 37770.437 $PGRMB,0.0,200,,,,K,,N,N*31
MSG 0 37770.497 $PGRMM,WGS 84*06
MSG 0 37770.841 $GPRMC,143051,A,4303.0239,N,07038.7731,W,000.0,092.0,030712,016.1,W*7C
POS 0 37851.000 365927.889 4767726.477
QUA 0 37851.000 7 9.100 0.900 9.000 1.000 0.000 0.000 0.000
RAW 0 37851.000 4 430302.39000 -703877.31000 -22.30000 143051.00000
MSG 0 37770.991 $GPGGA,143051,4303.0239,N,07038.7731,W,1,09,0.9,10.1,M,-32.4,M,,*48
MSG 0 37771.134 $GPGSA,A,3,,14,16,20,22,,25,29,30,31,32,,1.8,0.9,1.5*3A
MSG 0 37771.253 $GPGSV,3,1,11,11,00,251,34,14,43,118,49,16,19,205,45,20,28,303,44*7C
MSG 0 37771.399 $PGRME,4.4,M,7.5,M,8.7,M*23
MSG 0 37771.459 $PGRMB,0.0,200,,,,K,,N,N*31
MSG 0 37771.520 $PGRMM,WGS 84*06
MSG 0 37771.870 $GPRMC,143052,A,4303.0239,N,07038.7732,W,000.0,092.0,030712,016.1,W*7C
POS 0 37852.000 365927.754 4767726.480
QUA 0 37852.000 7 9.100 0.900 9.000 1.000 0.000 0.000 0.000
RAW 0 37852.000 4 430302.39000 -703877.32000 -22.40000 143052.00000
MSG 0 37772.020 $GPGGA,143052,4303.0239,N,07038.7732,W,1,09,0.9,10.0,M,-32.4,M,,*49
MSG 0 37772.163 $GPGSA,A,3,,14,16,20,22,,25,29,30,31,32,,1.8,0.9,1.5*3A
MSG 0 37772.282 $GPGSV,3,2,11,22,06,173,43,23,05,306,36,25,34,048,47,29,21,086,47*72
MSG 0 37772.428 $PGRME,4.4,M,7.5,M,8.7,M*23
MSG 0 37772.488 $PGRMB,0.0,200,,,,K,,N,N*31
MSG 0 37772.549 $PGRMM,WGS 84*06
MSG 0 37772.858 $GPRMC,143053,A,4303.0238,N,07038.7730,W,000.5,108.5,030712,016.1,W*7C
POS 0 37853.000 365928.021 4767726.289
QUA 0 37853.000 7 9.100 0.900 9.000 1.000 0.000 0.000 0.000
RAW 0 37853.000 4 430302.38000 -703877.30000 -22.20000 143053.00000
MSG 0 37773.008 $GPGGA,143053,4303.0238,N,07038.7730,W,1,09,0.9,10.2,M,-32.4,M,,*49
MSG 0 37773.152 $GPGSA,A,3,,14,16,20,22,,25,29,30,31,32,,1.8,0.9,1.5*3A
MSG 0 37773.270 $GPGSV,3,3,11,30,47,205,47,31,74,002,51,32,47,277,46*48
MSG 0 37773.389 $PGRME,4.4,M,7.5,M,8.7,M*23
MSG 0 37773.449 $PGRMB,0.0,200,,,,K,,N,N*31
MSG 0 37773.510 $PGRMM,WGS 84*06
MSG 0 37773.859 $GPRMC,143054,A,4303.0237,N,07038.7727,W,000.5,117.8,030712,016.1,W*71
POS 0 37854.000 365928.425 4767726.096
QUA 0 37854.000 7 9.100 0.900 9.000 1.000 0.000 0.000 0.000
RAW 0 37854.000 4 430302.37000 -703877.27000 -22.20000 143054.00000
MSG 0 37774.009 $GPGGA,143054,4303.0237,N,07038.7727,W,1,09,0.9,10.2,M,-32.4,M,,*47
MSG 0 37774.152 $GPGSA,A,3,,14,16,20,22,,25,29,30,31,32,,1.8,0.9,1.5*3A
MSG 0 37774.271 $GPGSV,3,1,11,11,00,251,33,14,43,118,48,16,19,205,45,20,28,303,45*7B
MSG 0 37774.417 $PGRME,4.4,M,7.5,M,8.7,M*23
MSG 0 37774.477 $PGRMB,0.0,200,,,,K,,N,N*31
MSG 0 37774.538 $PGRMM,WGS 84*06
MSG 0 37774.859 $GPRMC,143055,A,4303.0237,N,07038.7728,W,000.2,117.8,030712,016.1,W*78
POS 0 37855.000 365928.289 4767726.099
QUA 0 37855.000 7 9.100 0.900 9.000 1.000 0.000 0.000 0.000
RAW 0 37855.000 4 430302.37000 -703877.28000 -21.90000 143055.00000
MSG 0 37775.009 $GPGGA,143055,4303.0237,N,07038.7728,W,1,09,0.9,10.5,M,-32.4,M,,*4E
MSG 0 37775.153 $GPGSA,A,3,,14,16,20,22,,25,29,30,31,32,,1.8,0.9,1.5*3A
MSG 0 37775.271 $GPGSV,3,2,11,22,06,173,43,23,05,306,37,25,34,048,47,29,21,086,46*72
MSG 0 37775.417 $PGRME,4.4,M,7.5,M,8.7,M*23
MSG 0 37775.478 $PGRMB,0.0,200,,,,K,,N,N*31
MSG 0 37775.538 $PGRMM,WGS 84*06
MSG 0 37775.859 $GPRMC,143056,A,4303.0237,N,07038.7727,W,000.2,096.5,030712,016.1,W*71
POS 0 37856.000 365928.425 4767726.096
QUA 0 37856.000 7 9.100 0.900 9.000 1.000 0.000 0.000 0.000
RAW 0 37856.000 4 430302.37000 -703877.27000 -21.70000 143056.00000
MSG 0 37776.009 $GPGGA,143056,4303.0237,N,07038.7727,W,1,09,0.9,10.7,M,-32.4,M,,*40
MSG 0 37776.153 $GPGSA,A,3,,14,16,20,22,,25,29,30,31,32,,1.8,0.9,1.5*3A
MSG 0 37776.272 $GPGSV,3,3,11,30,47,205,47,31,74,002,51,32,47,277,46*48
MSG 0 37776.390 $PGRME,4.4,M,7.5,M,8.7,M*23
MSG 0 37776.451 $PGRMB,0.0,200,,,,K,,N,N*31
MSG 0 37776.511 $PGRMM,WGS 84*06
MSG 0 37776.845 $GPRMC,143057,A,4303.0236,N,07038.7726,W,000.2,130.3,030712,016.1,W*7B
POS 0 37857.000 365928.557 4767725.908
QUA 0 37857.000 7 9.100 0.900 9.000 1.000 0.000 0.000 0.000
RAW 0 37857.000 4 430302.36000 -703877.26000 -22.00000 143057.00000
MSG 0 37776.995 $GPGGA,143057,4303.0236,N,07038.7726,W,1,09,0.9,10.4,M,-32.4,M,,*42
MSG 0 37777.138 $GPGSA,A,3,,14,16,20,22,,25,29,30,31,32,,1.8,0.9,1.5*3A
MSG 0 37777.257 $GPGSV,3,1,11,11,00,251,34,14,43,118,48,16,19,205,45,20,28,303,45*7C
MSG 0 37777.403 $PGRME,4.4,M,7.5,M,8.7,M*23
MSG 0 37777.463 $PGRMB,0.0,200,,,,K,,N,N*31
MSG 0 37777.524 $PGRMM,WGS 84*06
MSG 0 37777.839 $GPRMC,143058,A,4303.0236,N,07038.7726,W,000.0,130.3,030712,016.1,W*76
POS 0 37858.000 365928.557 4767725.908
QUA 0 37858.000 7 9.100 0.900 9.000 1.000 0.000 0.000 0.000
RAW 0 37858.000 4 430302.36000 -703877.26000 -22.20000 143058.00000
MSG 0 37777.989 $GPGGA,143058,4303.0236,N,07038.7726,W,1,09,0.9,10.2,M,-32.4,M,,*4B
MSG 0 37778.132 $GPGSA,A,3,,14,16,20,22,,25,29,30,31,32,,1.8,0.9,1.5*3A
MSG 0 37778.251 $GPGSV,3,2,11,22,06,173,43,23,05,306,37,25,34,048,47,29,21,086,46*72
MSG 0 37778.397 $PGRME,4.4,M,7.5,M,8.7,M*23
MSG 0 37778.457 $PGRMB,0.0,200,,,,K,,N,N*31
MSG 0 37778.517 $PGRMM,WGS 84*06
MSG 0 37778.851 $GPRMC,143059,A,4303.0236,N,07038.7725,W,000.3,089.4,030712,016.1,W*73
POS 0 37859.000 365928.693 4767725.906
QUA 0 37859.000 7 9.100 0.900 9.000 1.000 0.000 0.000 0.000
RAW 0 37859.000 4 430302.36000 -703877.25000 -22.00000 143059.00000
MSG 0 37779.001 $GPGGA,143059,4303.0236,N,07038.7725,W,1,09,0.9,10.4,M,-32.4,M,,*4F
MSG 0 37779.144 $GPGSA,A,3,,14,16,20,22,,25,29,30,31,32,,1.8,0.9,1.5*3A
MSG 0 37779.263 $GPGSV,3,3,11,30,47,205,47,31,74,002,50,32,47,277,46*49
MSG 0 37779.382 $PGRME,4.4,M,7.5,M,8.7,M*23
MSG 0 37779.442 $PGRMB,0.0,200,,,,K,,N,N*31
MSG 0 37779.502 $PGRMM,WGS 84*06
MSG 0 37779.851 $GPRMC,143100,A,4303.0235,N,07038.7722,W,000.4,113.1,030712,016.1,W*7A
POS 0 37860.000 365929.096 4767725.713
QUA 0 37860.000 7 9.100 0.900 9.000 1.000 0.000 0.000 0.000
RAW 0 37860.000 4 430302.35000 -703877.22000 -22.00000 143100.00000
MSG 0 37780.001 $GPGGA,143100,4303.0235,N,07038.7722,W,1,09,0.9,10.4,M,-32.4,M,,*46
MSG 0 37780.145 $GPGSA,A,3,,14,16,20,22,,25,29,30,31,32,,1.8,0.9,1.5*3A
MSG 0 37780.264 $GPGSV,3,1,11,11,00,251,34,14,43,118,48,16,19,205,44,20,28,303,45*7D
MSG 0 37780.410 $PGRME,4.4,M,7.5,M,8.7,M*23
MSG 0 37780.470 $PGRMB,0.0,200,,,,K,,N,N*31
MSG 0 37780.530 $PGRMM,WGS 84*06
MSG 0 37780.847 $GPRMC,143101,A,4303.0234,N,07038.7722,W,000.2,126.3,030712,016.1,W*78
POS 0 37861.000 365929.093 4767725.528
QUA 0 37861.000 7 9.100 0.900 9.000 1.000 0.000 0.000 0.000
RAW 0 37861.000 4 430302.34000 -703877.22000 -21.90000 143101.00000
MSG 0 37780.997 $GPGGA,143101,4303.0234,N,07038.7722,W,1,09,0.9,10.5,M,-32.4,M,,*47
MSG 0 37781.140 $GPGSA,A,3,,14,16,20,22,,25,29,30,31,32,,1.8,0.9,1.5*3A
MSG 0 37781.259 $GPGSV,3,2,11,22,05,172,43,23,05,306,37,25,34,048,48,29,21,086,46*7F
MSG 0 37781.405 $PGRME,4.4,M,7.5,M,8.7,M*23
MSG 0 37781.465 $PGRMB,0.0,200,,,,K,,N,N*31
MSG 0 37781.526 $PGRMM,WGS 84*06
MSG 0 37781.846 $GPRMC,143102,A,4303.0234,N,07038.7720,W,000.4,114.4,030712,016.1,W*79
POS 0 37862.000 365929.364 4767725.522
QUA 0 37862.000 7 9.100 0.900 9.000 1.000 0.000 0.000 0.000
RAW 0 37862.000 4 430302.34000 -703877.20000 -21.60000 143102.00000
MSG 0 37781.996 $GPGGA,143102,4303.0234,N,07038.7720,W,1,09,0.9,10.8,M,-32.4,M,,*4B
MSG 0 37782.139 $GPGSA,A,3,,14,16,20,22,,25,29,30,31,32,,1.8,0.9,1.5*3A
MSG 0 37782.258 $GPGSV,3,3,11,30,47,205,46,31,74,002,50,32,47,277,45*4B
MSG 0 37782.377 $PGRME,4.4,M,7.5,M,8.7,M*23
MSG 0 37782.437 $PGRMB,0.0,200,,,,K,,N,N*31
MSG 0 37782.497 $PGRMM,WGS 84*06
MSG 0 37782.845 $GPRMC,143103,A,4303.0233,N,07038.7721,W,000.2,175.1,030712,016.1,W*7A
POS 0 37863.000 365929.225 4767725.340
QUA 0 37863.000 7 9.100 0.900 9.000 1.000 0.000 0.000 0.000
RAW 0 37863.000 4 430302.33000 -703877.21000 -21.70000 143103.00000
MSG 0 37782.995 $GPGGA,143103,4303.0233,N,07038.7721,W,1,09,0.9,10.7,M,-32.4,M,,*43
MSG 0 37783.139 $GPGSA,A,3,,14,16,20,22,,25,29,30,31,32,,1.8,0.9,1.5*3A
MSG 0 37783.257 $GPGSV,3,1,11,11,00,251,33,14,43,118,48,16,19,205,44,20,28,303,45*7A
MSG 0 37783.403 $PGRME,4.4,M,7.5,M,8.7,M*23
MSG 0 37783.463 $PGRMB,0.0,200,,,,K,,N,N*31
MSG 0 37783.524 $PGRMM,WGS 84*06
MSG 0 37783.841 $GPRMC,143104,A,4303.0233,N,07038.7721,W,000.0,175.1,030712,016.1,W*7F
POS 0 37864.000 365929.225 4767725.340
QUA 0 37864.000 7 9.100 0.900 9.000 1.000 0.000 0.000 0.000
RAW 0 37864.000 4 430302.33000 -703877.21000 -21.90000 143104.00000
MSG 0 37783.991 $GPGGA,143104,4303.0233,N,07038.7721,W,1,09,0.9,10.5,M,-32.4,M,,*46
MSG 0 37784.135 $GPGSA,A,3,,14,16,20,22,,25,29,30,31,32,,1.8,0.9,1.5*3A
MSG 0 37784.254 $GPGSV,3,2,11,22,05,172,42,23,05,307,37,25,34,048,48,29,21,086,46*7F
MSG 0 37784.399 $PGRME,4.4,M,7.5,M,8.7,M*23
MSG 0 37784.460 $PGRMB,0.0,200,,,,K,,N,N*31
MSG 0 37784.520 $PGRMM,WGS 84*06
MSG 0 37784.857 $GPRMC,143105,A,4303.0233,N,07038.7719,W,000.5,119.5,030712,016.1,W*7E
POS 0 37865.000 365929.496 4767725.335
QUA 0 37865.000 7 9.100 0.900 9.000 1.000 0.000 0.000 0.000
RAW 0 37865.000 4 430302.33000 -703877.19000 -22.10000 143105.00000
MSG 0 37785.007 $GPGGA,143105,4303.0233,N,07038.7719,W,1,09,0.9,10.3,M,-32.4,M,,*4A
MSG 0 37785.150 $GPGSA,A,3,,14,16,20,22,,25,29,30,31,32,,1.8,0.9,1.5*3A
MSG 0 37785.269 $GPGSV,3,3,11,30,47,205,47,31,74,002,50,32,47,277,46*49
MSG 0 37785.388 $PGRME,4.4,M,7.5,M,8.7,M*23
MSG 0 37785.448 $PGRMB,0.0,200,,,,K,,N,N*31
MSG 0 37785.508 $PGRMM,WGS 84*06
MSG 0 37785.845 $GPRMC,143106,A,4303.0232,N,07038.7717,W,000.3,111.7,030712,016.1,W*7E
POS 0 37866.000 365929.764 4767725.144
QUA 0 37866.000 7 9.100 0.900 9.000 1.000 0.000 0.000 0.000
RAW 0 37866.000 4 430302.32000 -703877.17000 -21.90000 143106.00000
MSG 0 37785.995 $GPGGA,143106,4303.0232,N,07038.7717,W,1,09,0.9,10.5,M,-32.4,M,,*40
MSG 0 37786.139 $GPGSA,A,3,,14,16,20,22,,25,29,30,31,32,,1.8,0.9,1.5*3A
MSG 0 37786.257 $GPGSV,3,1,11,11,00,251,34,14,43,118,48,16,19,205,44,20,28,303,45*7D
MSG 0 37786.403 $PGRME,4.4,M,7.5,M,8.7,M*23
MSG 0 37786.463 $PGRMB,0.0,200,,,,K,,N,N*31
MSG 0 37786.524 $PGRMM,WGS 84*06
MSG 0 37786.841 $GPRMC,143107,A,4303.0231,N,07038.7718,W,000.0,111.7,030712,016.1,W*70
POS 0 37867.000 365929.625 4767724.962
QUA 0 37867.000 7 9.100 0.900 9.000 1.000 0.000 0.000 0.000
RAW 0 37867.000 4 430302.31000 -703877.18000 -21.60000 143107.00000
MSG 0 37786.991 $GPGGA,143107,4303.0231,N,07038.7718,W,1,09,0.9,10.8,M,-32.4,M,,*40
MSG 0 37787.134 $GPGSA,A,3,,14,16,20,22,,25,29,30,31,32,,1.8,0.9,1.5*3A
MSG 0 37787.253 $GPGSV,3,2,11,22,05,172,42,23,05,307,37,25,34,048,47,29,21,086,46*70
MSG 0 37787.399 $PGRME,4.4,M,7.5,M,8.7,M*23
MSG 0 37787.459 $PGRMB,0.0,200,,,,K,,N,N*31
MSG 0 37787.519 $PGRMM,WGS 84*06
MSG 0 37787.845 $GPRMC,143108,A,4303.0231,N,07038.7716,W,000.5,114.7,030712,016.1,W*71
POS 0 37868.000 365929.896 4767724.956
QUA 0 37868.000 7 9.100 0.900 9.000 1.000 0.000 0.000 0.000
RAW 0 37868.000 4 430302.31000 -703877.16000 -21.80000 143108.00000
MSG 0 37787.995 $GPGGA,143108,4303.0231,N,07038.7716,W,1,09,0.9,10.6,M,-32.4,M,,*4F
MSG 0 37788.139 $GPGSA,A,3,,14,16,20,22,,25,29,30,31,32,,1.8,0.9,1.5*3A
MSG 0 37788.257 $GPGSV,3,3,11,30,47,205,47,31,74,002,50,32,47,277,46*49
MSG 0 37788.376 $PGRME,4.4,M,7.5,M,8.7,M*23
MSG 0 37788.436 $PGRMB,0.0,200,,,,K,,N,N*31
MSG 0 37788.497 $PGRMM,WGS 84*06
MSG 0 37788.845 $GPRMC,143109,A,4303.0230,N,07038.7712,W,000.5,116.5,030712,016.1,W*75
POS 0 37869.000 365930.436 4767724.761
QUA 0 37869.000 7 9.100 0.900 9.000 1.000 0.000 0.000 0.000
RAW 0 37869.000 4 430302.30000 -703877.12000 -22.00000 143109.00000
MSG 0 37788.995 $GPGGA,143109,4303.0230,N,07038.7712,W,1,09,0.9,10.4,M,-32.4,M,,*49
MSG 0 37789.138 $GPGSA,A,3,,14,16,20,22,,25,29,30,31,32,,1.8,0.9,1.5*3A
MSG 0 37789.257 $GPGSV,3,1,11,11,00,251,34,14,43,118,48,16,19,205,43,20,28,303,45*7A
MSG 0 37789.403 $PGRME,4.4,M,7.5,M,8.7,M*23
MSG 0 37789.463 $PGRMB,0.0,200,,,,K,,N,N*31
MSG 0 37789.524 $PGRMM,WGS 84*06
MSG 0 37789.840 $GPRMC,143110,A,4303.0230,N,07038.7714,W,000.0,116.5,030712,016.1,W*7E
POS 0 37870.000 365930.164 4767724.766
QUA 0 37870.000 7 9.100 0.900 9.000 1.000 0.000 0.000 0.000
RAW 0 37870.000 4 430302.30000 -703877.14000 -21.40000 143110.00000
MSG 0 37789.990 $GPGGA,143110,4303.0230,N,07038.7714,W,1,09,0.9,11.0,M,-32.4,M,,*42
MSG 0 37790.134 $GPGSA,A,3,,14,16,20,22,,25,29,30,31,32,,1.8,0.9,1.5*3A
MSG 0 37790.253 $GPGSV,3,2,11,22,05,172,41,23,05,307,37,25,33,048,47,29,21,086,46*74
MSG 0 37790.398 $PGRME,4.4,M,7.5,M,8.7,M*23
MSG 0 37790.459 $PGRMB,0.0,200,,,,K,,N,N*31
MSG 0 37790.519 $PGRMM,WGS 84*06
MSG 0 37790.859 $GPRMC,143111,A,4303.0230,N,07038.7714,W,000.2,116.5,030712,016.1,W*7D
POS 0 37871.000 365930.164 4767724.766
QUA 0 37871.000 7 9.100 0.900 9.000 1.000 0.000 0.000 0.000
RAW 0 37871.000 4 430302.30000 -703877.14000 -21.10000 143111.00000
MSG 0 37791.009 $GPGGA,143111,4303.0230,N,07038.7714,W,1,09,0.9,11.3,M,-32.4,M,,*40
MSG 0 37791.153 $GPGSA,A,3,,14,16,20,22,,25,29,30,31,32,,1.8,0.9,1.5*3A
MSG 0 37791.271 $GPGSV,3,3,11,30,47,205,47,31,74,002,50,32,47,277,47*48
MSG 0 37791.390 $PGRME,4.4,M,7.5,M,8.7,M*23
MSG 0 37791.450 $PGRMB,0.0,200,,,,K,,N,N*31
MSG 0 37791.511 $PGRMM,WGS 84*06
MSG 0 37791.844 $GPRMC,143112,A,4303.0229,N,07038.7711,W,000.4,100.3,030712,016.1,W*74
POS 0 37872.000 365930.568 4767724.573
QUA 0 37872.000 7 9.100 0.900 9.000 1.000 0.000 0.000 0.000
RAW 0 37872.000 4 430302.29000 -703877.11000 -21.50000 143112.00000
MSG 0 37791.994 $GPGGA,143112,4303.0229,N,07038.7711,W,1,09,0.9,10.9,M,-32.4,M,,*45
MSG 0 37792.138 $GPGSA,A,3,,14,16,20,22,,25,29,30,31,32,,1.8,0.9,1.5*3A
MSG 0 37792.257 $GPGSV,3,1,11,11,00,251,34,14,43,118,48,16,19,205,43,20,28,303,44*7B
MSG 0 37792.402 $PGRME,4.4,M,7.5,M,8.7,M*23
MSG 0 37792.463 $PGRMB,0.0,200,,,,K,,N,N*31
MSG 0 37792.523 $PGRMM,WGS 84*06
MSG 0 37792.840 $GPRMC,143113,A,4303.0229,N,07038.7712,W,000.0,100.3,030712,016.1,W*72
POS 0 37873.000 365930.432 4767724.576
QUA 0 37873.000 7 9.100 0.900 9.000 1.000 0.000 0.000 0.000
RAW 0 37873.000 4 430302.29000 -703877.12000 -21.60000 143113.00000
MSG 0 37792.989 $GPGGA,143113,4303.0229,N,07038.7712,W,1,09,0.9,10.8,M,-32.4,M,,*46
MSG 0 37793.133 $GPGSA,A,3,,14,16,20,22,,25,29,30,31,32,,1.8,0.9,1.5*3A
MSG 0 37793.252 $GPGSV,3,2,11,22,05,172,44,23,05,307,37,25,33,048,47,29,21,086,47*70
MSG 0 37793.398 $PGRME,4.4,M,7.5,M,8.7,M*23
MSG 0 37793.458 $PGRMB,0.0,200,,,,K,,N,N*31
MSG 0 37793.518 $PGRMM,WGS 84*06
MSG 0 37793.844 $GPRMC,143114,A,4303.0229,N,07038.7712,W,000.1,100.3,030712,016.1,W*74
POS 0 37874.000 365930.432 4767724.576
QUA 0 37874.000 7 9.100 0.900 9.000 1.000 0.000 0.000 0.000
RAW 0 37874.000 4 430302.29000 -703877.12000 -21.70000 143114.00000
MSG 0 37793.994 $GPGGA,143114,4303.0229,N,07038.7712,W,1,09,0.9,10.7,M,-32.4,M,,*4E
MSG 0 37794.138 $GPGSA,A,3,,14,16,20,22,,25,29,30,31,32,,1.8,0.9,1.5*3A
MSG 0 37794.257 $GPGSV,3,3,11,30,47,205,46,31,74,002,50,32,47,277,46*48
MSG 0 37794.375 $PGRME,4.4,M,7.5,M,8.7,M*23
MSG 0 37794.436 $PGRMB,0.0,200,,,,K,,N,N*31
MSG 0 37794.496 $PGRMM,WGS 84*06
MSG 0 37794.845 $GPRMC,143115,A,4303.0227,N,07038.7708,W,000.6,125.9,030712,016.1,W*7A
POS 0 37875.000 365930.968 4767724.195
QUA 0 37875.000 7 9.100 0.900 9.000 1.000 0.000 0.000 0.000
RAW 0 37875.000 4 430302.27000 -703877.08000 -21.90000 143115.00000
MSG 0 37794.995 $GPGGA,143115,4303.0227,N,07038.7708,W,1,09,0.9,10.5,M,-32.4,M,,*48
MSG 0 37795.138 $GPGSA,A,3,,14,16,20,22,,25,29,30,31,32,,1.8,0.9,1.5*3A
MSG 0 37795.257 $GPGSV,3,1,11,11,00,251,34,14,43,118,49,16,19,205,43,20,28,303,44*7A
MSG 0 37795.403 $PGRME,4.4,M,7.5,M,8.7,M*23
MSG 0 37795.463 $PGRMB,0.0,200,,,,K,,N,N*31
MSG 0 37795.523 $PGRMM,WGS 84*06
MSG 0 37795.845 $GPRMC,143116,A,4303.0226,N,07038.7706,W,000.6,125.3,030712,016.1,W*7C
POS 0 37876.000 365931.236 4767724.004
QUA 0 37876.000 7 9.100 0.900 9.000 1.000 0.000 0.000 0.000
RAW 0 37876.000 4 430302.26000 -703877.06000 -21.70000 143116.00000
MSG 0 37795.995 $GPGGA,143116,4303.0226,N,07038.7706,W,1,09,0.9,10.7,M,-32.4,M,,*46
MSG 0 37796.139 $GPGSA,A,3,,14,16,20,22,,25,29,30,31,32,,1.8,0.9,1.5*3A
MSG 0 37796.257 $GPGSV,3,2,11,22,05,172,43,23,05,307,37,25,33,048,45,29,21,086,48*7A
MSG 0 37796.403 $PGRME,4.4,M,7.5,M,8.7,M*23
MSG 0 37796.464 $PGRMB,0.0,200,,,,K,,N,N*31
MSG 0 37796.524 $PGRMM,WGS 84*06
MSG 0 37796.844 $GPRMC,143117,A,4303.0225,N,07038.7706,W,000.4,142.8,030712,016.1,W*76
POS 0 37877.000 365931.232 4767723.819
QUA 0 37877.000 7 9.100 0.900 9.000 1.000 0.000 0.000 0.000
RAW 0 37877.000 4 430302.25000 -703877.06000 -21.40000 143117.00000
MSG 0 37796.994 $GPGGA,143117,4303.0225,N,07038.7706,W,1,09,0.9,11.0,M,-32.4,M,,*42
MSG 0 37797.138 $GPGSA,A,3,,14,16,20,22,,25,29,30,31,32,,1.8,0.9,1.5*3A
MSG 0 37797.256 $GPGSV,3,3,11,30,47,205,46,31,74,002,50,32,47,277,47*49
MSG 0 37797.375 $PGRME,4.4,M,7.5,M,8.7,M*23
MSG 0 37797.435 $PGRMB,0.0,200,,,,K,,N,N*31
MSG 0 37797.496 $PGRMM,WGS 84*06
MSG 0 37797.845 $GPRMC,143118,A,4303.0225,N,07038.7707,W,000.2,142.8,030712,016.1,W*7E
POS 0 37878.000 365931.096 4767723.822
QUA 0 37878.000 7 9.100 0.900 9.000 1.000 0.000 0.000 0.000
RAW 0 37878.000 4 430302.25000 -703877.07000 -21.20000 143118.00000
MSG 0 37797.995 $GPGGA,143118,4303.0225,N,07038.7707,W,1,09,0.9,11.2,M,-32.4,M,,*4E
MSG 0 37798.138 $GPGSA,A,3,,14,16,20,22,,25,29,30,31,32,,1.8,0.9,1.5*3A
MSG 0 37798.257 $GPGSV,3,1,11,11,00,251,34,14,43,118,49,16,19,205,44,20,28,303,44*7D
MSG 0 37798.403 $PGRME,4.4,M,7.5,M,8.7,M*23
MSG 0 37798.463 $PGRMB,0.0,200,,,,K,,N,N*31
MSG 0 37798.523 $PGRMM,WGS 84*06
MSG 0 37798.845 $GPRMC,143119,A,4303.0225,N,07038.7705,W,000.3,109.7,030712,016.1,W*7C
POS 0 37879.000 365931.368 4767723.817
QUA 0 37879.000 7 9.100 0.900 9.000 1.000 0.000 0.000 0.000
RAW 0 37879.000 4 430302.25000 -703877.05000 -21.10000 143119.00000
MSG 0 37798.995 $GPGGA,143119,4303.0225,N,07038.7705,W,1,09,0.9,11.3,M,-32.4,M,,*4C
MSG 0 37799.138 $GPGSA,A,3,,14,16,20,22,,25,29,30,31,32,,1.8,0.9,1.5*3A
MSG 0 37799.257 $GPGSV,3,2,11,22,05,172,44,23,05,307,37,25,33,048,45,29,21,086,48*7D
MSG 0 37799.403 $PGRME,4.4,M,7.5,M,8.7,M*23
MSG 0 37799.463 $PGRMB,0.0,200,,,,K,,N,N*31
MSG 0 37799.523 $PGRMM,WGS 84*06
MSG 0 37799.845 $GPRMC,143120,A,4303.0225,N,07038.7704,W,000.3,087.6,030712,016.1,W*71
POS 0 37880.000 365931.503 4767723.814
QUA 0 37880.000 7 9.100 0.900 9.000 1.000 0.000 0.000 0.000
RAW 0 37880.000 4 430302.25000 -703877.04000 -21.20000 143120.00000
MSG 0 37799.994 $GPGGA,143120,4303.0225,N,07038.7704,W,1,09,0.9,11.2,M,-32.4,M,,*46
MSG 0 37800.138 $GPGSA,A,3,,14,16,20,22,,25,29,30,31,32,,1.8,0.9,1.5*3A
MSG 0 37800.257 $GPGSV,3,3,11,30,47,205,47,31,74,002,50,32,47,277,47*48
MSG 0 37800.375 $PGRME,4.4,M,7.5,M,8.7,M*23
MSG 0 37800.436 $PGRMB,0.0,200,,,,K,,N,N*31
MSG 0 37800.496 $PGRMM,WGS 84*06
MSG 0 37800.845 $GPRMC,143121,A,4303.0225,N,07038.7707,W,000.3,264.9,030712,016.1,W*73
POS 0 37881.000 365931.096 4767723.822
QUA 0 37881.000 7 9.100 0.900 9.000 1.000 0.000 0.000 0.000
RAW 0 37881.000 4 430302.25000 -703877.07000 -21.30000 143121.00000
MSG 0 37800.995 $GPGGA,143121,4303.0225,N,07038.7707,W,1,09,0.9,11.1,M,-32.4,M,,*47
MSG 0 37801.139 $GPGSA,A,3,,14,16,20,22,,25,29,30,31,32,,1.8,0.9,1.5*3A
MSG 0 37801.257 $GPGSV,3,1,11,11,00,251,34,14,43,118,49,16,19,205,44,20,28,303,44*7D
MSG 0 37801.403 $PGRME,4.4,M,7.5,M,8.7,M*23
MSG 0 37801.464 $PGRMB,0.0,200,,,,K,,N,N*31
MSG 0 37801.524 $PGRMM,WGS 84*06
MSG 0 37801.844 $GPRMC,143122,A,4303.0225,N,07038.7704,W,000.3,083.8,030712,016.1,W*79
POS 0 37882.000 365931.503 4767723.814
QUA 0 37882.000 7 9.100 0.900 9.000 1.000 0.000 0.000 0.000
RAW 0 37882.000 4 430302.25000 -703877.04000 -21.50000 143122.00000
MSG 0 37801.993 $GPGGA,143122,4303.0225,N,07038.7704,W,1,09,0.9,10.9,M,-32.4,M,,*4E
MSG 0 37802.137 $GPGSA,A,3,,14,16,20,22,,25,29,30,31,32,,1.8,0.9,1.5*3A
MSG 0 37802.256 $GPGSV,3,2,11,22,05,172,42,23,05,307,37,25,33,048,46,29,21,086,47*77
MSG 0 37802.402 $PGRME,4.4,M,7.5,M,8.7,M*23
MSG 0 37802.462 $PGRMB,0.0,200,,,,K,,N,N*31
MSG 0 37802.522 $PGRMM,WGS 84*06
MSG 0 37802.848 $GPRMC,143123,A,4303.0223,N,07038.7700,W,000.8,123.4,030712,016.1,W*76
POS 0 37883.000 365932.039 4767723.433
QUA 0 37883.000 7 9.100 0.900 9.000 1.000 0.000 0.000 0.000
RAW 0 37883.000 4 430302.23000 -703877.00000 -21.70000 143123.00000
MSG 0 37802.998 $GPGGA,143123,4303.0223,N,07038.7700,W,1,09,0.9,10.7,M,-32.4,M,,*43
MSG 0 37803.141 $GPGSA,A,3,,14,16,20,22,,25,29,30,31,32,,1.8,0.9,1.5*3A
MSG 0 37803.260 $GPGSV,3,3,11,30,47,205,47,31,74,002,50,32,47,277,47*48
MSG 0 37803.379 $PGRME,4.4,M,7.5,M,8.7,M*23
MSG 0 37803.439 $PGRMB,0.0,200,,,,K,,N,N*31
MSG 0 37803.499 $PGRMM,WGS 84*06
FIX 99 37803.737 61 365932.039 4767723.433
