FTP NEW 2
VER 11.0.6.21
INF "" "" "" "" 0.000 0.000 0.000
ELL WGS-84 6378137.000 298.257223563
PRO TME -69.000000 0.999600 0.000000 0.000000 0.000000 500000.0000 0.0000
DTM 0.00 0.00 0.00 0.00000 0.00000 0.00000 0.00000
GEO ??? 0.000
HVU 1.0000000000 1.0000000000
TND 12:21:15 07/03/2012 240
DEV 0 32869 "Garmin GPS" 49156 C:\HYPACK 2011\devices\GPS.dll 11.0.10.6
OFF 0 0.000 0.000 0.000 0.000 0.000 0.000 0.000
DDT 0 SYN 
DEV 1 0 "Disabled" 0 Odom CV3 MK3 Disabled Unknown
USR "NOAA Joint Hydrographic Center" "HYPACK Inc." 0x8 15681181
EOH 0001FFFFFFFFFFFFFFFFFFFFFFFFFFFFFFFFFFFFFFFFFFFFFFFFFFFFFFFFFFFFFFFFFFFFFFFFFFFFFFFFFFFFFFFFFFFFFFFFFFFFFFFFFFFFFFFFFFFFFFFFFFFFFFFFFFFFFFFFFFFFFFFFFFFFFFFFFFFFFFFFFFFFFFFFFFFFFFFFFFFF003021300906052B0E03021A0500041465C52F3333E4D4D2CD03A322702961B86A6ED6CA
POS 0 44554.000 365694.409 4769022.362
QUA 0 44554.000 7 9.100 0.900 10.000 1.000 0.000 0.000 0.000
RAW 0 44554.000 4 430372.13000 -703896.38000 -21.80000 162234.00000
MSG 0 44473.881 $GPGGA,162234,4303.7213,N,07038.9638,W,1,10,0.9,10.6,M,-32.4,M,,*4C
MSG 0 44474.025 $GPGSA,A,3,,06,10,13,16,20,23,29,30,31,32,,1.4,0.9,1.1*34
MSG 0 44474.148 $GPGSV,3,2,11,16,71,236,45,20,20,251,42,23,48,304,46,29,15,039,42*74
MSG 0 44474.293 $PGRME,4.5,M,6.0,M,7.6,M*28
MSG 0 44474.354 $PGRMT,GPS 17-HVS Ver. 2.80,P,P,R,R,P,,40,R*0F
MSG 0 44474.454 $PGRMB,0.0,200,,,,K,,N,N*31
MSG 0 44474.514 $PGRMM,WGS 84*06
MSG 0 44474.730 $GPRMC,162235,A,4303.7212,N,07038.9636,W,000.4,134.2,030712,016.1,W*72
POS 0 44555.000 365694.677 4769022.171
QUA 0 44555.000 7 9.200 0.800 10.000 1.000 0.000 0.000 0.000
RAW 0 44555.000 4 430372.12000 -703896.36000 -21.80000 162235.00000
MSG 0 44474.880 $GPGGA,162235,4303.7212,N,07038.9636,W,1,10,0.8,10.6,M,-32.4,M,,*43
MSG 0 44475.024 $GPGSA,A,3,,06,10,13,16,20,23,29,30,31,32,,1.4,0.8,1.1*35
MSG 0 44475.147 $GPGSV,3,3,11,30,76,036,50,31,40,085,50,32,19,223,45*4E
MSG 0 44475.266 $PGRME,4.5,M,6.0,M,7.6,M*28
MSG 0 44475.326 $PGRMB,0.0,200,,,,K,,N,N*31
MSG 0 44475.386 $PGRMM,WGS 84*06
FIX 99 44475.741 88 365694.677 4769022.171
MSG 0 44475.743 $GPRMC,162236,A,4303.7212,N,07038.9633,W,000.5,108.3,030712,016.1,W*7B
POS 0 44556.000 365695.084 4769022.163
QUA 0 44556.000 7 9.100 0.900 10.000 1.000 0.000 0.000 0.000
RAW 0 44556.000 4 430372.12000 -703896.33000 -22.00000 162236.00000
MSG 0 44475.893 $GPGGA,162236,4303.7212,N,07038.9633,W,1,10,0.9,10.4,M,-32.4,M,,*46
MSG 0 44476.037 $GPGSA,A,3,,06,10,13,16,20,23,29,30,31,32,,1.4,0.9,1.2*37
MSG 0 44476.159 $GPGSV,3,1,11,03,23,181,32,06,32,164,46,10,00,335,43,13,18,317,41*7E
MSG 0 44476.305 $PGRME,4.5,M,6.0,M,7.6,M*28
MSG 0 44476.365 $PGRMB,0.0,200,,,,K,,N,N*31
MSG 0 44476.426 $PGRMM,WGS 84*06
MSG 0 44476.731 $GPRMC,162237,A,4303.7212,N,07038.9634,W,000.3,120.0,030712,016.1,W*72
POS 0 44557.000 365694.948 4769022.166
QUA 0 44557.000 7 9.100 0.900 10.000 1.000 0.000 0.000 0.000
RAW 0 44557.000 4 430372.12000 -703896.34000 -21.90000 162237.00000
MSG 0 44476.881 $GPGGA,162237,4303.7212,N,07038.9634,W,1,10,0.9,10.5,M,-32.4,M,,*41
MSG 0 44477.024 $GPGSA,A,3,,06,10,13,16,20,23,29,30,31,32,,1.4,0.9,1.2*37
MSG 0 44477.147 $GPGSV,3,2,11,16,71,236,45,20,20,251,41,23,48,304,47,29,15,039,43*77
MSG 0 44477.293 $PGRME,4.5,M,6.0,M,7.6,M*28
MSG 0 44477.353 $PGRMB,0.0,200,,,,K,,N,N*31
MSG 0 44477.414 $PGRMM,WGS 84*06
MSG 0 44477.738 $GPRMC,162238,A,4303.7211,N,07038.9633,W,000.3,133.8,030712,016.1,W*73
POS 0 44558.000 365695.080 4769021.978
QUA 0 44558.000 7 9.100 0.900 10.000 1.000 0.000 0.000 0.000
RAW 0 44558.000 4 430372.11000 -703896.33000 -21.80000 162238.00000
MSG 0 44477.888 $GPGGA,162238,4303.7211,N,07038.9633,W,1,10,0.9,10.6,M,-32.4,M,,*49
MSG 0 44478.031 $GPGSA,A,3,,06,10,13,16,20,23,29,30,31,32,,1.4,0.9,1.2*37
MSG 0 44478.154 $GPGSV,3,3,11,30,76,036,50,31,40,085,50,32,19,223,45*4E
MSG 0 44478.273 $PGRME,4.5,M,6.0,M,7.6,M*28
MSG 0 44478.333 $PGRMB,0.0,200,,,,K,,N,N*31
MSG 0 44478.393 $PGRMM,WGS 84*06
MSG 0 44478.743 $GPRMC,162239,A,4303.7210,N,07038.9631,W,000.4,125.3,030712,016.1,W*7A
POS 0 44559.000 365695.348 4769021.788
QUA 0 44559.000 7 9.200 0.800 10.000 1.000 0.000 0.000 0.000
RAW 0 44559.000 4 430372.10000 -703896.31000 -21.70000 162239.00000
MSG 0 44478.893 $GPGGA,162239,4303.7210,N,07038.9631,W,1,10,0.8,10.7,M,-32.4,M,,*4B
MSG 0 44479.036 $GPGSA,A,3,,06,10,13,16,20,23,29,30,31,32,,1.4,0.8,1.1*35
MSG 0 44479.159 $GPGSV,3,1,11,03,23,181,32,06,32,164,46,10,00,335,44,13,18,317,41*79
MSG 0 44479.305 $PGRME,4.5,M,6.0,M,7.6,M*28
MSG 0 44479.365 $PGRMB,0.0,200,,,,K,,N,N*31
MSG 0 44479.426 $PGRMM,WGS 84*06
MSG 0 44479.742 $GPRMC,162240,A,4303.7209,N,07038.9629,W,000.5,131.6,030712,016.1,W*74
POS 0 44560.000 365695.616 4769021.597
QUA 0 44560.000 7 9.200 0.800 10.000 1.000 0.000 0.000 0.000
RAW 0 44560.000 4 430372.09000 -703896.29000 -21.80000 162240.00000
MSG 0 44479.892 $GPGGA,162240,4303.7209,N,07038.9629,W,1,10,0.8,10.6,M,-32.4,M,,*45
MSG 0 44480.035 $GPGSA,A,3,,06,10,13,16,20,23,29,30,31,32,,1.4,0.8,1.1*35
MSG 0 44480.158 $GPGSV,3,2,11,16,71,236,45,20,20,251,41,23,48,304,46,29,15,039,43*76
MSG 0 44480.304 $PGRME,4.5,M,6.0,M,7.6,M*28
MSG 0 44480.364 $PGRMB,0.0,200,,,,K,,N,N*31
MSG 0 44480.425 $PGRMM,WGS 84*06
MSG 0 44480.730 $GPRMC,162241,A,4303.7209,N,07038.9629,W,000.3,142.5,030712,016.1,W*74
POS 0 44561.000 365695.616 4769021.597
QUA 0 44561.000 7 9.100 0.900 10.000 1.000 0.000 0.000 0.000
RAW 0 44561.000 4 430372.09000 -703896.29000 -21.80000 162241.00000
MSG 0 44480.880 $GPGGA,162241,4303.7209,N,07038.9629,W,1,10,0.9,10.6,M,-32.4,M,,*45
MSG 0 44481.024 $GPGSA,A,3,,06,10,13,16,20,23,29,30,31,32,,1.4,0.9,1.1*34
MSG 0 44481.147 $GPGSV,3,3,11,30,76,036,51,31,40,085,50,32,19,223,45*4F
MSG 0 44481.265 $PGRME,4.6,M,6.1,M,7.6,M*2A
MSG 0 44481.326 $PGRMB,0.0,200,,,,K,,N,N*31
MSG 0 44481.386 $PGRMM,WGS 84*06
MSG 0 44481.730 $GPRMC,162242,A,4303.7208,N,07038.9628,W,000.4,140.4,030712,016.1,W*73
POS 0 44562.000 365695.748 4769021.410
QUA 0 44562.000 7 9.100 0.900 10.000 1.000 0.000 0.000 0.000
RAW 0 44562.000 4 430372.08000 -703896.28000 -21.80000 162242.00000
MSG 0 44481.880 $GPGGA,162242,4303.7208,N,07038.9628,W,1,10,0.9,10.6,M,-32.4,M,,*46
MSG 0 44482.024 $GPGSA,A,3,,06,10,13,16,20,23,29,30,31,32,,1.4,0.9,1.1*34
MSG 0 44482.147 $GPGSV,3,1,11,03,23,181,32,06,32,164,46,10,00,335,45,13,18,317,41*78
MSG 0 44482.292 $PGRME,4.5,M,6.0,M,7.5,M*2B
MSG 0 44482.353 $PGRMB,0.0,200,,,,K,,N,N*31
MSG 0 44482.413 $PGRMM,WGS 84*06
MSG 0 44482.731 $GPRMC,162243,A,4303.7207,N,07038.9626,W,000.5,110.5,030712,016.1,W*76
POS 0 44563.000 365696.016 4769021.219
QUA 0 44563.000 7 9.100 0.900 10.000 1.000 0.000 0.000 0.000
RAW 0 44563.000 4 430372.07000 -703896.26000 -21.80000 162243.00000
MSG 0 44482.881 $GPGGA,162243,4303.7207,N,07038.9626,W,1,10,0.9,10.6,M,-32.4,M,,*46
MSG 0 44483.024 $GPGSA,A,3,,06,10,13,16,20,23,29,30,31,32,,1.4,0.9,1.1*34
MSG 0 44483.147 $GPGSV,3,2,11,16,72,238,45,20,20,251,41,23,48,304,46,29,15,039,43*7B
MSG 0 44483.293 $PGRME,4.5,M,6.0,M,7.5,M*2B
MSG 0 44483.353 $PGRMB,0.0,200,,,,K,,N,N*31
MSG 0 44483.414 $PGRMM,WGS 84*06
MSG 0 44483.743 $GPRMC,162244,A,4303.7206,N,07038.9625,W,000.4,123.0,030712,016.1,W*77
POS 0 44564.000 365696.148 4769021.031
QUA 0 44564.000 7 9.100 0.900 10.000 1.000 0.000 0.000 0.000
RAW 0 44564.000 4 430372.06000 -703896.25000 -21.90000 162244.00000
MSG 0 44483.893 $GPGGA,162244,4303.7206,N,07038.9625,W,1,10,0.9,10.5,M,-32.4,M,,*40
MSG 0 44484.036 $GPGSA,A,3,,06,10,13,16,20,23,29,30,31,32,,1.4,0.9,1.1*34
MSG 0 44484.159 $GPGSV,3,3,11,30,76,036,51,31,40,085,50,32,19,223,44*4E
MSG 0 44484.278 $PGRME,4.5,M,6.0,M,7.5,M*2B
MSG 0 44484.338 $PGRMB,0.0,200,,,,K,,N,N*31
MSG 0 44484.399 $PGRMM,WGS 84*06
MSG 0 44484.740 $GPRMC,162245,A,4303.7206,N,07038.9624,W,000.3,124.8,030712,016.1,W*7F
POS 0 44565.000 365696.283 4769021.029
QUA 0 44565.000 7 9.100 0.900 10.000 1.000 0.000 0.000 0.000
RAW 0 44565.000 4 430372.06000 -703896.24000 -21.90000 162245.00000
MSG 0 44484.890 $GPGGA,162245,4303.7206,N,07038.9624,W,1,10,0.9,10.5,M,-32.4,M,,*40
MSG 0 44485.034 $GPGSA,A,3,,06,10,13,16,20,23,29,30,31,32,,1.4,0.9,1.1*34
MSG 0 44485.157 $GPGSV,3,1,11,03,23,181,00,06,32,164,47,10,00,335,45,13,18,317,41*78
MSG 0 44485.303 $PGRME,4.5,M,6.0,M,7.5,M*2B
MSG 0 44485.363 $PGRMB,0.0,200,,,,K,,N,N*31
MSG 0 44485.423 $PGRMM,WGS 84*06
MSG 0 44485.746 $GPRMC,162246,A,4303.7205,N,07038.9622,W,000.5,129.4,030712,016.1,W*7E
POS 0 44566.000 365696.551 4769020.838
QUA 0 44566.000 7 9.200 0.800 10.000 1.000 0.000 0.000 0.000
RAW 0 44566.000 4 430372.05000 -703896.22000 -21.70000 162246.00000
MSG 0 44485.896 $GPGGA,162246,4303.7205,N,07038.9622,W,1,10,0.8,10.7,M,-32.4,M,,*45
MSG 0 44486.040 $GPGSA,A,3,,06,10,13,16,20,23,29,30,31,32,,1.4,0.8,1.1*35
MSG 0 44486.163 $GPGSV,3,2,11,16,72,238,46,20,20,251,41,23,48,304,45,29,15,039,44*7C
MSG 0 44486.308 $PGRME,4.5,M,6.0,M,7.5,M*2B
MSG 0 44486.369 $PGRMB,0.0,200,,,,K,,N,N*31
MSG 0 44486.429 $PGRMM,WGS 84*06
MSG 0 44486.741 $GPRMC,162247,A,4303.7204,N,07038.9623,W,000.3,159.2,030712,016.1,W*78
POS 0 44567.000 365696.412 4769020.656
QUA 0 44567.000 7 9.100 0.900 10.000 1.000 0.000 0.000 0.000
RAW 0 44567.000 4 430372.04000 -703896.23000 -21.40000 162247.00000
MSG 0 44486.891 $GPGGA,162247,4303.7204,N,07038.9623,W,1,10,0.9,11.0,M,-32.4,M,,*43
MSG 0 44487.035 $GPGSA,A,3,,06,10,13,16,20,23,29,30,31,32,,1.4,0.9,1.1*34
MSG 0 44487.158 $GPGSV,3,3,11,30,76,036,51,31,40,085,50,32,19,223,45*4F
MSG 0 44487.276 $PGRME,4.6,M,6.1,M,7.6,M*2A
MSG 0 44487.337 $PGRMB,0.0,200,,,,K,,N,N*31
MSG 0 44487.397 $PGRMM,WGS 84*06
MSG 0 44487.741 $GPRMC,162248,A,4303.7203,N,07038.9621,W,000.4,140.1,030712,016.1,W*7E
POS 0 44568.000 365696.680 4769020.466
QUA 0 44568.000 7 9.100 0.900 10.000 1.000 0.000 0.000 0.000
RAW 0 44568.000 4 430372.03000 -703896.21000 -21.80000 162248.00000
MSG 0 44487.891 $GPGGA,162248,4303.7203,N,07038.9621,W,1,10,0.9,10.6,M,-32.4,M,,*4E
MSG 0 44488.035 $GPGSA,A,3,,06,10,13,16,20,23,29,30,31,32,,1.4,0.9,1.1*34
MSG 0 44488.158 $GPGSV,3,1,11,03,23,181,33,06,32,164,48,10,00,335,45,13,18,317,43*75
MSG 0 44488.304 $PGRME,4.5,M,6.0,M,7.5,M*2B
MSG 0 44488.364 $PGRMB,0.0,200,,,,K,,N,N*31
MSG 0 44488.424 $PGRMM,WGS 84*06
MSG 0 44488.740 $GPRMC,162249,A,4303.7202,N,07038.9618,W,000.6,127.2,030712,016.1,W*74
POS 0 44569.000 365697.083 4769020.272
QUA 0 44569.000 7 9.100 0.900 10.000 1.000 0.000 0.000 0.000
RAW 0 44569.000 4 430372.02000 -703896.18000 -22.30000 162249.00000
MSG 0 44488.890 $GPGGA,162249,4303.7202,N,07038.9618,W,1,10,0.9,10.1,M,-32.4,M,,*43
MSG 0 44489.034 $GPGSA,A,3,,06,10,13,16,20,23,29,30,31,32,,1.4,0.9,1.1*34
MSG 0 44489.157 $GPGSV,3,2,11,16,72,238,46,20,20,251,42,23,48,304,46,29,15,039,43*7B
MSG 0 44489.302 $PGRME,4.5,M,6.0,M,7.5,M*2B
MSG 0 44489.363 $PGRMB,0.0,200,,,,K,,N,N*31
MSG 0 44489.423 $PGRMM,WGS 84*06
MSG 0 44489.742 $GPRMC,162250,A,4303.7202,N,07038.9617,W,000.5,109.7,030712,016.1,W*79
POS 0 44570.000 365697.219 4769020.270
QUA 0 44570.000 7 9.100 0.900 10.000 1.000 0.000 0.000 0.000
RAW 0 44570.000 4 430372.02000 -703896.17000 -22.20000 162250.00000
MSG 0 44489.892 $GPGGA,162250,4303.7202,N,07038.9617,W,1,10,0.9,10.2,M,-32.4,M,,*47
MSG 0 44490.036 $GPGSA,A,3,,06,10,13,16,20,23,29,30,31,32,,1.4,0.9,1.1*34
MSG 0 44490.159 $GPGSV,3,3,11,30,76,036,51,31,40,085,50,32,19,223,46*4C
MSG 0 44490.277 $PGRME,4.5,M,6.0,M,7.5,M*2B
MSG 0 44490.338 $PGRMB,0.0,200,,,,K,,N,N*31
MSG 0 44490.398 $PGRMM,WGS 84*06
MSG 0 44490.740 $GPRMC,162251,A,4303.7201,N,07038.9615,W,000.5,110.7,030712,016.1,W*71
POS 0 44571.000 365697.487 4769020.079
QUA 0 44571.000 7 9.100 0.900 10.000 1.000 0.000 0.000 0.000
RAW 0 44571.000 4 430372.01000 -703896.15000 -22.00000 162251.00000
MSG 0 44490.890 $GPGGA,162251,4303.7201,N,07038.9615,W,1,10,0.9,10.4,M,-32.4,M,,*41
MSG 0 44491.034 $GPGSA,A,3,,06,10,13,16,20,23,29,30,31,32,,1.4,0.9,1.1*34
MSG 0 44491.157 $GPGSV,3,1,11,03,23,181,00,06,32,164,49,10,00,335,44,13,18,317,42*74
MSG 0 44491.303 $PGRME,4.6,M,6.1,M,7.6,M*2A
MSG 0 44491.363 $PGRMB,0.0,200,,,,K,,N,N*31
MSG 0 44491.423 $PGRMM,WGS 84*06
MSG 0 44491.731 $GPRMC,162252,A,4303.7200,N,07038.9613,W,000.6,122.2,030712,016.1,W*72
POS 0 44572.000 365697.754 4769019.889
QUA 0 44572.000 7 9.100 0.900 10.000 1.000 0.000 0.000 0.000
RAW 0 44572.000 4 430372.00000 -703896.13000 -21.70000 162252.00000
MSG 0 44491.881 $GPGGA,162252,4303.7200,N,07038.9613,W,1,10,0.9,10.7,M,-32.4,M,,*46
MSG 0 44492.024 $GPGSA,A,3,,06,10,13,16,20,23,29,30,31,32,,1.4,0.9,1.1*34
MSG 0 44492.147 $GPGSV,3,2,11,16,72,238,46,20,20,251,42,23,48,304,47,29,15,039,43*7A
MSG 0 44492.293 $PGRME,4.5,M,6.0,M,7.5,M*2B
MSG 0 44492.353 $PGRMB,0.0,200,,,,K,,N,N*31
MSG 0 44492.414 $PGRMM,WGS 84*06
MSG 0 44492.730 $GPRMC,162253,A,4303.7200,N,07038.9613,W,000.3,127.5,030712,016.1,W*74
POS 0 44573.000 365697.754 4769019.889
QUA 0 44573.000 7 9.100 0.900 10.000 1.000 0.000 0.000 0.000
RAW 0 44573.000 4 430372.00000 -703896.13000 -21.70000 162253.00000
MSG 0 44492.880 $GPGGA,162253,4303.7200,N,07038.9613,W,1,10,0.9,10.7,M,-32.4,M,,*47
MSG 0 44493.024 $GPGSA,A,3,,06,10,13,16,20,23,29,30,31,32,,1.4,0.9,1.1*34
MSG 0 44493.147 $GPGSV,3,3,11,30,76,036,51,31,40,085,51,32,19,223,45*4E
MSG 0 44493.266 $PGRME,4.5,M,6.0,M,7.5,M*2B
MSG 0 44493.326 $PGRMB,0.0,200,,,,K,,N,N*31
MSG 0 44493.386 $PGRMM,WGS 84*06
MSG 0 44493.742 $GPRMC,162254,A,4303.7198,N,07038.9613,W,000.4,156.6,030712,016.1,W*73
POS 0 44574.000 365697.747 4769019.519
QUA 0 44574.000 7 9.100 0.900 10.000 1.000 0.000 0.000 0.000
RAW 0 44574.000 4 430371.98000 -703896.13000 -22.10000 162254.00000
MSG 0 44493.892 $GPGGA,162254,4303.7198,N,07038.9613,W,1,10,0.9,10.3,M,-32.4,M,,*46
MSG 0 44494.036 $GPGSA,A,3,,06,10,13,16,20,23,29,30,31,32,,1.4,0.9,1.1*34
MSG 0 44494.159 $GPGSV,3,1,11,03,23,181,31,06,32,164,49,10,00,335,42,13,18,317,42*70
MSG 0 44494.305 $PGRME,4.5,M,6.0,M,7.5,M*2B
MSG 0 44494.365 $PGRMB,0.0,200,,,,K,,N,N*31
MSG 0 44494.425 $PGRMM,WGS 84*06
MSG 0 44494.730 $GPRMC,162255,A,4303.7197,N,07038.9610,W,000.5,135.7,030712,016.1,W*7B
POS 0 44575.000 365698.151 4769019.326
QUA 0 44575.000 7 9.100 0.900 10.000 1.000 0.000 0.000 0.000
RAW 0 44575.000 4 430371.97000 -703896.10000 -22.00000 162255.00000
MSG 0 44494.880 $GPGGA,162255,4303.7197,N,07038.9610,W,1,10,0.9,10.4,M,-32.4,M,,*4C
MSG 0 44495.024 $GPGSA,A,3,,06,10,13,16,20,23,29,30,31,32,,1.4,0.9,1.1*34
MSG 0 44495.146 $GPGSV,3,2,11,16,72,238,46,20,20,251,41,23,48,304,47,29,15,039,42*78
MSG 0 44495.292 $PGRME,4.5,M,6.0,M,7.5,M*2B
MSG 0 44495.352 $PGRMB,0.0,200,,,,K,,N,N*31
MSG 0 44495.413 $PGRMM,WGS 84*06
MSG 0 44495.728 $GPRMC,162256,A,4303.7196,N,07038.9608,W,000.6,135.3,030712,016.1,W*77
POS 0 44576.000 365698.418 4769019.135
QUA 0 44576.000 7 9.100 0.900 10.000 1.000 0.000 0.000 0.000
RAW 0 44576.000 4 430371.96000 -703896.08000 -21.90000 162256.00000
MSG 0 44495.878 $GPGGA,162256,4303.7196,N,07038.9608,W,1,10,0.9,10.5,M,-32.4,M,,*46
MSG 0 44496.022 $GPGSA,A,3,,06,10,13,16,20,23,29,30,31,32,,1.4,0.9,1.1*34
MSG 0 44496.145 $GPGSV,3,3,11,30,76,036,51,31,40,085,52,32,19,223,45*4D
MSG 0 44496.264 $PGRME,4.6,M,6.1,M,7.6,M*2A
MSG 0 44496.324 $PGRMB,0.0,200,,,,K,,N,N*31
MSG 0 44496.384 $PGRMM,WGS 84*06
MSG 0 44496.742 $GPRMC,162257,A,4303.7196,N,07038.9607,W,000.4,110.6,030712,016.1,W*79
POS 0 44577.000 365698.554 4769019.133
QUA 0 44577.000 7 9.100 0.900 10.000 1.000 0.000 0.000 0.000
RAW 0 44577.000 4 430371.96000 -703896.07000 -21.80000 162257.00000
MSG 0 44496.892 $GPGGA,162257,4303.7196,N,07038.9607,W,1,10,0.9,10.6,M,-32.4,M,,*4B
MSG 0 44497.036 $GPGSA,A,3,,06,10,13,16,20,23,29,30,31,32,,1.4,0.9,1.1*34
MSG 0 44497.159 $GPGSV,3,1,11,03,23,181,32,06,32,164,49,10,00,335,41,13,18,317,42*70
MSG 0 44497.304 $PGRME,4.5,M,6.0,M,7.5,M*2B
MSG 0 44497.365 $PGRMB,0.0,200,,,,K,,N,N*31
MSG 0 44497.425 $PGRMM,WGS 84*06
MSG 0 44497.730 $GPRMC,162258,A,4303.7195,N,07038.9605,W,000.5,121.3,030712,016.1,W*71
POS 0 44578.000 365698.822 4769018.942
QUA 0 44578.000 7 9.200 0.800 10.000 1.000 0.000 0.000 0.000
RAW 0 44578.000 4 430371.95000 -703896.05000 -22.00000 162258.00000
MSG 0 44497.880 $GPGGA,162258,4303.7195,N,07038.9605,W,1,10,0.8,10.4,M,-32.4,M,,*46
MSG 0 44498.023 $GPGSA,A,3,,06,10,13,16,20,23,29,30,31,32,,1.4,0.8,1.1*35
MSG 0 44498.146 $GPGSV,3,2,11,16,72,238,46,20,19,250,42,23,48,304,47,29,15,039,44*76
MSG 0 44498.292 $PGRME,4.5,M,6.0,M,7.5,M*2B
MSG 0 44498.352 $PGRMB,0.0,200,,,,K,,N,N*31
MSG 0 44498.413 $PGRMM,WGS 84*06
MSG 0 44498.730 $GPRMC,162259,A,4303.7194,N,07038.9603,W,000.5,116.0,030712,016.1,W*70
POS 0 44579.000 365699.090 4769018.752
QUA 0 44579.000 7 9.200 0.800 10.000 1.000 0.000 0.000 0.000
RAW 0 44579.000 4 430371.94000 -703896.03000 -22.10000 162259.00000
MSG 0 44498.880 $GPGGA,162259,4303.7194,N,07038.9603,W,1,10,0.8,10.3,M,-32.4,M,,*47
MSG 0 44499.024 $GPGSA,A,3,,06,10,13,16,20,23,29,30,31,32,,1.4,0.8,1.1*35
MSG 0 44499.147 $GPGSV,3,3,11,30,76,036,51,31,40,085,51,32,19,223,44*4F
MSG 0 44499.265 $PGRME,4.5,M,6.0,M,7.5,M*2B
MSG 0 44499.326 $PGRMB,0.0,200,,,,K,,N,N*31
MSG 0 44499.386 $PGRMM,WGS 84*06
MSG 0 44499.730 $GPRMC,162300,A,4303.7194,N,07038.9601,W,000.5,113.7,030712,016.1,W*7D
POS 0 44580.000 365699.361 4769018.746
QUA 0 44580.000 7 9.200 0.800 10.000 1.000 0.000 0.000 0.000
RAW 0 44580.000 4 430371.94000 -703896.01000 -22.10000 162300.00000
MSG 0 44499.880 $GPGGA,162300,4303.7194,N,07038.9601,W,1,10,0.8,10.3,M,-32.4,M,,*48
MSG 0 44500.024 $GPGSA,A,3,,06,10,13,16,20,23,29,30,31,32,,1.4,0.8,1.1*35
MSG 0 44500.147 $GPGSV,3,1,11,03,23,181,32,06,32,164,50,10,00,335,42,13,18,317,41*78
MSG 0 44500.292 $PGRME,4.5,M,6.0,M,7.5,M*2B
MSG 0 44500.353 $PGRMB,0.0,200,,,,K,,N,N*31
MSG 0 44500.413 $PGRMM,WGS 84*06
MSG 0 44500.736 $GPRMC,162301,A,4303.7192,N,07038.9600,W,000.6,142.1,030712,016.1,W*7A
POS 0 44581.000 365699.490 4769018.374
QUA 0 44581.000 7 9.200 0.800 10.000 1.000 0.000 0.000 0.000
RAW 0 44581.000 4 430371.92000 -703896.00000 -22.10000 162301.00000
MSG 0 44500.886 $GPGGA,162301,4303.7192,N,07038.9600,W,1,10,0.8,10.3,M,-32.4,M,,*4E
MSG 0 44501.030 $GPGSA,A,3,,06,10,13,16,20,23,29,30,31,32,,1.4,0.8,1.1*35
MSG 0 44501.152 $GPGSV,3,2,11,16,72,238,46,20,19,250,43,23,48,304,47,29,15,039,44*77
MSG 0 44501.298 $PGRME,4.5,M,6.0,M,7.5,M*2B
MSG 0 44501.358 $PGRMB,0.0,200,,,,K,,N,N*31
MSG 0 44501.419 $PGRMM,WGS 84*06
MSG 0 44501.738 $GPRMC,162302,A,4303.7191,N,07038.9597,W,000.7,120.2,030712,016.1,W*71
POS 0 44582.000 365699.893 4769018.180
QUA 0 44582.000 7 9.200 0.800 10.000 1.000 0.000 0.000 0.000
RAW 0 44582.000 4 430371.91000 -703895.97000 -21.90000 162302.00000
MSG 0 44501.888 $GPGGA,162302,4303.7191,N,07038.9597,W,1,10,0.8,10.5,M,-32.4,M,,*45
MSG 0 44502.031 $GPGSA,A,3,,06,10,13,16,20,23,29,30,31,32,,1.4,0.8,1.1*35
MSG 0 44502.154 $GPGSV,3,3,11,30,76,036,51,31,40,085,50,32,19,223,43*49
MSG 0 44502.273 $PGRME,4.5,M,6.0,M,7.5,M*2B
MSG 0 44502.333 $PGRMB,0.0,200,,,,K,,N,N*31
MSG 0 44502.394 $PGRMM,WGS 84*06
MSG 0 44502.741 $GPRMC,162303,A,4303.7190,N,07038.9597,W,000.5,137.6,030712,016.1,W*71
POS 0 44583.000 365699.889 4769017.995
QUA 0 44583.000 7 9.200 0.800 10.000 1.000 0.000 0.000 0.000
RAW 0 44583.000 4 430371.90000 -703895.97000 -21.80000 162303.00000
MSG 0 44502.891 $GPGGA,162303,4303.7190,N,07038.9597,W,1,10,0.8,10.6,M,-32.4,M,,*46
MSG 0 44503.035 $GPGSA,A,3,,06,10,13,16,20,23,29,30,31,32,,1.4,0.8,1.1*35
MSG 0 44503.157 $GPGSV,3,1,11,03,23,181,00,06,32,164,50,10,00,335,42,13,18,317,41*79
MSG 0 44503.303 $PGRME,4.5,M,6.0,M,7.5,M*2B
MSG 0 44503.364 $PGRMB,0.0,200,,,,K,,N,N*31
MSG 0 44503.424 $PGRMM,WGS 84*06
MSG 0 44503.740 $GPRMC,162304,A,4303.7190,N,07038.9596,W,000.3,122.4,030712,016.1,W*77
POS 0 44584.000 365700.025 4769017.993
QUA 0 44584.000 7 9.200 0.800 10.000 1.000 0.000 0.000 0.000
RAW 0 44584.000 4 430371.90000 -703895.96000 -21.90000 162304.00000
MSG 0 44503.890 $GPGGA,162304,4303.7190,N,07038.9596,W,1,10,0.8,10.5,M,-32.4,M,,*43
MSG 0 44504.034 $GPGSA,A,3,,06,10,13,16,20,23,29,30,31,32,,1.4,0.8,1.1*35
MSG 0 44504.157 $GPGSV,3,2,11,16,72,238,46,20,19,250,44,23,48,304,47,29,15,039,44*70
MSG 0 44504.303 $PGRME,4.5,M,6.0,M,7.5,M*2B
MSG 0 44504.363 $PGRMB,0.0,200,,,,K,,N,N*31
MSG 0 44504.423 $PGRMM,WGS 84*06
MSG 0 44504.734 $GPRMC,162305,A,4303.7188,N,07038.9593,W,000.6,120.3,030712,016.1,W*7A
POS 0 44585.000 365700.425 4769017.614
QUA 0 44585.000 7 9.200 0.800 10.000 1.000 0.000 0.000 0.000
RAW 0 44585.000 4 430371.88000 -703895.93000 -22.20000 162305.00000
MSG 0 44504.883 $GPGGA,162305,4303.7188,N,07038.9593,W,1,10,0.8,10.2,M,-32.4,M,,*49
MSG 0 44505.027 $GPGSA,A,3,,06,10,13,16,20,23,29,30,31,32,,1.4,0.8,1.1*35
MSG 0 44505.150 $GPGSV,3,3,11,30,76,036,50,31,40,085,50,32,19,223,43*48
MSG 0 44505.269 $PGRME,4.5,M,6.0,M,7.5,M*2B
MSG 0 44505.329 $PGRMB,0.0,200,,,,K,,N,N*31
MSG 0 44505.389 $PGRMM,WGS 84*06
MSG 0 44505.733 $GPRMC,162306,A,4303.7187,N,07038.9591,W,000.6,129.6,030712,016.1,W*78
POS 0 44586.000 365700.693 4769017.424
QUA 0 44586.000 7 9.200 0.800 10.000 1.000 0.000 0.000 0.000
RAW 0 44586.000 4 430371.87000 -703895.91000 -22.40000 162306.00000
MSG 0 44505.883 $GPGGA,162306,4303.7187,N,07038.9591,W,1,10,0.8,10.0,M,-32.4,M,,*45
MSG 0 44506.027 $GPGSA,A,3,,06,10,13,16,20,23,29,30,31,32,,1.4,0.8,1.1*35
MSG 0 44506.150 $GPGSV,3,1,11,03,23,181,00,06,32,164,49,10,00,335,42,13,18,317,40*70
MSG 0 44506.296 $PGRME,4.5,M,6.0,M,7.5,M*2B
MSG 0 44506.356 $PGRMB,0.0,200,,,,K,,N,N*31
MSG 0 44506.416 $PGRMM,WGS 84*06
MSG 0 44506.734 $GPRMC,162307,A,4303.7187,N,07038.9589,W,000.5,119.9,030712,016.1,W*7F
POS 0 44587.000 365700.964 4769017.419
QUA 0 44587.000 7 9.200 0.800 10.000 1.000 0.000 0.000 0.000
RAW 0 44587.000 4 430371.87000 -703895.89000 -22.20000 162307.00000
MSG 0 44506.884 $GPGGA,162307,4303.7187,N,07038.9589,W,1,10,0.8,10.2,M,-32.4,M,,*4F
MSG 0 44507.027 $GPGSA,A,3,,06,10,13,16,20,23,29,30,31,32,,1.4,0.8,1.1*35
MSG 0 44507.150 $GPGSV,3,2,11,16,72,238,46,20,19,250,44,23,48,304,47,29,15,039,44*70
MSG 0 44507.296 $PGRME,4.5,M,6.0,M,7.5,M*2B
MSG 0 44507.356 $PGRMB,0.0,200,,,,K,,N,N*31
MSG 0 44507.417 $PGRMM,WGS 84*06
MSG 0 44507.734 $GPRMC,162308,A,4303.7185,N,07038.9586,W,000.8,126.6,030712,016.1,W*73
POS 0 44588.000 365701.364 4769017.041
QUA 0 44588.000 7 9.200 0.800 10.000 1.000 0.000 0.000 0.000
RAW 0 44588.000 4 430371.85000 -703895.86000 -22.30000 162308.00000
MSG 0 44507.884 $GPGGA,162308,4303.7185,N,07038.9586,W,1,10,0.8,10.1,M,-32.4,M,,*4E
MSG 0 44508.027 $GPGSA,A,3,,06,10,13,16,20,23,29,30,31,32,,1.4,0.8,1.1*35
MSG 0 44508.150 $GPGSV,3,3,11,30,76,036,50,31,40,085,49,32,19,223,44*47
MSG 0 44508.269 $PGRME,4.5,M,6.0,M,7.5,M*2B
MSG 0 44508.329 $PGRMB,0.0,200,,,,K,,N,N*31
MSG 0 44508.390 $PGRMM,WGS 84*06
MSG 0 44508.733 $GPRMC,162309,A,4303.7184,N,07038.9584,W,000.7,122.5,030712,016.1,W*79
POS 0 44589.000 365701.632 4769016.850
QUA 0 44589.000 7 9.200 0.800 10.000 1.000 0.000 0.000 0.000
RAW 0 44589.000 4 430371.84000 -703895.84000 -22.10000 162309.00000
MSG 0 44508.883 $GPGGA,162309,4303.7184,N,07038.9584,W,1,10,0.8,10.3,M,-32.4,M,,*4E
MSG 0 44509.027 $GPGSA,A,3,,06,10,13,16,20,23,29,30,31,32,,1.4,0.8,1.1*35
MSG 0 44509.149 $GPGSV,3,1,11,03,23,181,00,06,32,164,49,10,00,335,41,13,18,317,42*71
MSG 0 44509.295 $PGRME,4.5,M,6.0,M,7.5,M*2B
MSG 0 44509.356 $PGRMB,0.0,200,,,,K,,N,N*31
MSG 0 44509.416 $PGRMM,WGS 84*06
MSG 0 44509.734 $GPRMC,162310,A,4303.7184,N,07038.9584,W,000.3,127.8,030712,016.1,W*7D
POS 0 44590.000 365701.632 4769016.850
QUA 0 44590.000 7 9.200 0.800 10.000 1.000 0.000 0.000 0.000
RAW 0 44590.000 4 430371.84000 -703895.84000 -22.00000 162310.00000
MSG 0 44509.884 $GPGGA,162310,4303.7184,N,07038.9584,W,1,10,0.8,10.4,M,-32.4,M,,*41
MSG 0 44510.028 $GPGSA,A,3,,06,10,13,16,20,23,29,30,31,32,,1.4,0.8,1.1*35
MSG 0 44510.151 $GPGSV,3,2,11,16,72,238,46,20,19,250,44,23,49,303,47,29,15,039,43*71
MSG 0 44510.296 $PGRME,4.5,M,6.0,M,7.5,M*2B
MSG 0 44510.357 $PGRMB,0.0,200,,,,K,,N,N*31
MSG 0 44510.417 $PGRMM,WGS 84*06
MSG 0 44510.736 $GPRMC,162311,A,4303.7183,N,07038.9583,W,000.4,125.9,030712,016.1,W*78
POS 0 44591.000 365701.764 4769016.662
QUA 0 44591.000 7 9.200 0.800 10.000 1.000 0.000 0.000 0.000
RAW 0 44591.000 4 430371.83000 -703895.83000 -22.20000 162311.00000
MSG 0 44510.886 $GPGGA,162311,4303.7183,N,07038.9583,W,1,10,0.8,10.2,M,-32.4,M,,*46
MSG 0 44511.030 $GPGSA,A,3,,06,10,13,16,20,23,29,30,31,32,,1.4,0.8,1.1*35
MSG 0 44511.152 $GPGSV,3,3,11,30,76,036,50,31,40,085,50,32,19,223,43*48
MSG 0 44511.271 $PGRME,4.5,M,6.0,M,7.5,M*2B
MSG 0 44511.331 $PGRMB,0.0,200,,,,K,,N,N*31
MSG 0 44511.392 $PGRMM,WGS 84*06
MSG 0 44511.736 $GPRMC,162312,A,4303.7181,N,07038.9579,W,000.8,125.3,030712,016.1,W*7A
POS 0 44592.000 365702.300 4769016.282
QUA 0 44592.000 7 9.200 0.800 10.000 1.000 0.000 0.000 0.000
RAW 0 44592.000 4 430371.81000 -703895.79000 -22.50000 162312.00000
MSG 0 44511.886 $GPGGA,162312,4303.7181,N,07038.9579,W,1,10,0.8,9.9,M,-32.4,M,,*71
MSG 0 44512.028 $GPGSA,A,3,,06,10,13,16,20,23,29,30,31,32,,1.4,0.8,1.1*35
MSG 0 44512.151 $GPGSV,3,1,11,03,23,181,00,06,32,164,49,10,00,335,40,13,18,317,42*70
MSG 0 44512.297 $PGRME,4.5,M,6.0,M,7.5,M*2B
MSG 0 44512.357 $PGRMB,0.0,200,,,,K,,N,N*31
MSG 0 44512.417 $PGRMM,WGS 84*06
MSG 0 44512.728 $GPRMC,162313,A,4303.7181,N,07038.9578,W,000.5,126.0,030712,016.1,W*77
POS 0 44593.000 365702.435 4769016.279
QUA 0 44593.000 7 9.200 0.800 10.000 1.000 0.000 0.000 0.000
RAW 0 44593.000 4 430371.81000 -703895.78000 -22.40000 162313.00000
MSG 0 44512.878 $GPGGA,162313,4303.7181,N,07038.9578,W,1,10,0.8,10.0,M,-32.4,M,,*40
MSG 0 44513.021 $GPGSA,A,3,,06,10,13,16,20,23,29,30,31,32,,1.4,0.8,1.1*35
MSG 0 44513.144 $GPGSV,3,2,11,16,72,238,45,20,19,250,44,23,49,303,48,29,15,039,43*7D
MSG 0 44513.290 $PGRME,4.5,M,6.0,M,7.5,M*2B
MSG 0 44513.350 $PGRMB,0.0,200,,,,K,,N,N*31
MSG 0 44513.411 $PGRMM,WGS 84*06
MSG 0 44513.735 $GPRMC,162314,A,4303.7180,N,07038.9576,W,000.5,114.4,030712,016.1,W*7A
POS 0 44594.000 365702.703 4769016.088
QUA 0 44594.000 7 9.200 0.800 10.000 1.000 0.000 0.000 0.000
RAW 0 44594.000 4 430371.80000 -703895.76000 -22.30000 162314.00000
MSG 0 44513.885 $GPGGA,162314,4303.7180,N,07038.9576,W,1,10,0.8,10.1,M,-32.4,M,,*49
MSG 0 44514.029 $GPGSA,A,3,,06,10,13,16,20,23,29,30,31,32,,1.4,0.8,1.1*35
MSG 0 44514.152 $GPGSV,3,3,11,30,76,036,50,31,40,085,50,32,19,223,44*4F
MSG 0 44514.271 $PGRME,4.5,M,6.0,M,7.5,M*2B
MSG 0 44514.331 $PGRMB,0.0,200,,,,K,,N,N*31
MSG 0 44514.391 $PGRMM,WGS 84*06
MSG 0 44514.737 $GPRMC,162315,A,4303.7177,N,07038.9571,W,001.0,125.9,030712,016.1,W*7F
POS 0 44595.000 365703.371 4769015.520
QUA 0 44595.000 7 9.200 0.800 10.000 1.000 0.000 0.000 0.000
RAW 0 44595.000 4 430371.77000 -703895.71000 -22.60000 162315.00000
MSG 0 44514.887 $GPGGA,162315,4303.7177,N,07038.9571,W,1,10,0.8,9.8,M,-32.4,M,,*76
MSG 0 44515.029 $GPGSA,A,3,,06,10,13,16,20,23,29,30,31,32,,1.4,0.8,1.1*35
MSG 0 44515.151 $GPGSV,3,1,11,03,23,181,00,06,32,164,50,10,00,335,40,13,18,317,41*7B
MSG 0 44515.297 $PGRME,4.5,M,6.0,M,7.5,M*2B
MSG 0 44515.358 $PGRMB,0.0,200,,,,K,,N,N*31
MSG 0 44515.418 $PGRMM,WGS 84*06
MSG 0 44515.729 $GPRMC,162316,A,4303.7177,N,07038.9570,W,000.7,123.7,030712,016.1,W*73
POS 0 44596.000 365703.506 4769015.517
QUA 0 44596.000 7 9.200 0.800 10.000 1.000 0.000 0.000 0.000
RAW 0 44596.000 4 430371.77000 -703895.70000 -22.60000 162316.00000
MSG 0 44515.879 $GPGGA,162316,4303.7177,N,07038.9570,W,1,10,0.8,9.8,M,-32.4,M,,*74
MSG 0 44516.021 $GPGSA,A,3,,06,10,13,16,20,23,29,30,31,32,,1.4,0.8,1.1*35
MSG 0 44516.144 $GPGSV,3,2,11,16,72,238,45,20,19,250,45,23,49,303,48,29,15,039,43*7C
MSG 0 44516.289 $PGRME,4.5,M,6.0,M,7.5,M*2B
MSG 0 44516.350 $PGRMB,0.0,200,,,,K,,N,N*31
MSG 0 44516.410 $PGRMM,WGS 84*06
MSG 0 44516.739 $GPRMC,162317,A,4303.7177,N,07038.9570,W,000.3,122.8,030712,016.1,W*78
POS 0 44597.000 365703.506 4769015.517
QUA 0 44597.000 7 9.200 0.800 10.000 1.000 0.000 0.000 0.000
RAW 0 44597.000 4 430371.77000 -703895.70000 -22.40000 162317.00000
MSG 0 44516.889 $GPGGA,162317,4303.7177,N,07038.9570,W,1,10,0.8,10.0,M,-32.4,M,,*45
MSG 0 44517.033 $GPGSA,A,3,,06,10,13,16,20,23,29,30,31,32,,1.4,0.8,1.1*35
MSG 0 44517.156 $GPGSV,3,3,11,30,76,036,50,31,40,085,50,32,19,223,44*4F
MSG 0 44517.274 $PGRME,4.5,M,6.0,M,7.5,M*2B
MSG 0 44517.335 $PGRMB,0.0,200,,,,K,,N,N*31
MSG 0 44517.395 $PGRMM,WGS 84*06
MSG 0 44517.737 $GPRMC,162318,A,4303.7174,N,07038.9566,W,000.8,128.4,030712,016.1,W*7E
POS 0 44598.000 365704.038 4769014.951
QUA 0 44598.000 7 9.200 0.800 10.000 1.000 0.000 0.000 0.000
RAW 0 44598.000 4 430371.74000 -703895.66000 -22.40000 162318.00000
MSG 0 44517.887 $GPGGA,162318,4303.7174,N,07038.9566,W,1,10,0.8,10.0,M,-32.4,M,,*4E
MSG 0 44518.031 $GPGSA,A,3,,06,10,13,16,20,23,29,30,31,32,,1.4,0.8,1.1*35
MSG 0 44518.154 $GPGSV,3,1,11,03,23,181,00,06,32,164,49,10,00,335,39,13,18,317,41*7D
MSG 0 44518.300 $PGRME,4.5,M,6.0,M,7.5,M*2B
MSG 0 44518.360 $PGRMB,0.0,200,,,,K,,N,N*31
MSG 0 44518.420 $PGRMM,WGS 84*06
MSG 0 44518.740 $GPRMC,162319,A,4303.7174,N,07038.9564,W,000.7,125.3,030712,016.1,W*78
POS 0 44599.000 365704.310 4769014.946
QUA 0 44599.000 7 9.200 0.800 10.000 1.000 0.000 0.000 0.000
RAW 0 44599.000 4 430371.74000 -703895.64000 -22.30000 162319.00000
MSG 0 44518.890 $GPGGA,162319,4303.7174,N,07038.9564,W,1,10,0.8,10.1,M,-32.4,M,,*4C
MSG 0 44519.034 $GPGSA,A,3,,06,10,13,16,20,23,29,30,31,32,,1.4,0.8,1.1*35
MSG 0 44519.157 $GPGSV,3,2,11,16,72,238,45,20,19,250,45,23,49,303,48,29,15,039,43*7C
MSG 0 44519.302 $PGRME,4.5,M,6.0,M,7.5,M*2B
MSG 0 44519.363 $PGRMB,0.0,200,,,,K,,N,N*31
MSG 0 44519.423 $PGRMM,WGS 84*06
MSG 0 44519.737 $GPRMC,162320,A,4303.7174,N,07038.9565,W,000.2,122.7,030712,016.1,W*75
POS 0 44600.000 365704.174 4769014.949
QUA 0 44600.000 7 9.200 0.800 10.000 1.000 0.000 0.000 0.000
RAW 0 44600.000 4 430371.74000 -703895.65000 -22.30000 162320.00000
MSG 0 44519.887 $GPGGA,162320,4303.7174,N,07038.9565,W,1,10,0.8,10.1,M,-32.4,M,,*47
MSG 0 44520.031 $GPGSA,A,3,,06,10,13,16,20,23,29,30,31,32,,1.4,0.8,1.1*35
MSG 0 44520.154 $GPGSV,3,3,11,30,76,036,50,31,40,085,50,32,19,223,44*4F
MSG 0 44520.272 $PGRME,4.5,M,6.0,M,7.5,M*2B
MSG 0 44520.333 $PGRMB,0.0,200,,,,K,,N,N*31
MSG 0 44520.393 $PGRMM,WGS 84*06
MSG 0 44520.739 $GPRMC,162321,A,4303.7172,N,07038.9561,W,000.7,126.0,030712,016.1,W*70
POS 0 44601.000 365704.710 4769014.568
QUA 0 44601.000 7 9.200 0.800 10.000 1.000 0.000 0.000 0.000
RAW 0 44601.000 4 430371.72000 -703895.61000 -22.70000 162321.00000
MSG 0 44520.889 $GPGGA,162321,4303.7172,N,07038.9561,W,1,10,0.8,9.7,M,-32.4,M,,*7A
MSG 0 44521.031 $GPGSA,A,3,,06,10,13,16,20,23,29,30,31,32,,1.4,0.8,1.1*35
MSG 0 44521.154 $GPGSV,3,1,11,03,23,181,00,06,32,164,49,10,00,335,39,13,18,317,41*7D
MSG 0 44521.299 $PGRME,4.5,M,6.0,M,7.5,M*2B
MSG 0 44521.360 $PGRMB,0.0,200,,,,K,,N,N*31
MSG 0 44521.420 $PGRMM,WGS 84*06
MSG 0 44521.741 $GPRMC,162322,A,4303.7170,N,07038.9557,W,001.1,128.0,030712,016.1,W*7D
POS 0 44602.000 365705.245 4769014.187
QUA 0 44602.000 7 9.200 0.800 10.000 1.000 0.000 0.000 0.000
RAW 0 44602.000 4 430371.70000 -703895.57000 -23.00000 162322.00000
MSG 0 44521.891 $GPGGA,162322,4303.7170,N,07038.9557,W,1,10,0.8,9.4,M,-32.4,M,,*7D
MSG 0 44522.033 $GPGSA,A,3,,06,10,13,16,20,23,29,30,31,32,,1.4,0.8,1.1*35
MSG 0 44522.156 $GPGSV,3,2,11,16,72,238,46,20,19,250,45,23,49,303,48,29,15,039,43*7F
MSG 0 44522.301 $PGRME,4.5,M,6.0,M,7.5,M*2B
MSG 0 44522.362 $PGRMB,0.0,200,,,,K,,N,N*31
MSG 0 44522.422 $PGRMM,WGS 84*06
MSG 0 44522.740 $GPRMC,162323,A,4303.7170,N,07038.9556,W,000.6,116.9,030712,016.1,W*7F
POS 0 44603.000 365705.381 4769014.184
QUA 0 44603.000 7 9.200 0.800 10.000 1.000 0.000 0.000 0.000
RAW 0 44603.000 4 430371.70000 -703895.56000 -22.60000 162323.00000
MSG 0 44522.890 $GPGGA,162323,4303.7170,N,07038.9556,W,1,10,0.8,9.8,M,-32.4,M,,*71
MSG 0 44523.031 $GPGSA,A,3,,06,10,13,16,20,23,29,30,31,32,,1.4,0.8,1.1*35
MSG 0 44523.154 $GPGSV,3,3,11,30,76,036,51,31,40,085,50,32,19,223,44*4E
MSG 0 44523.273 $PGRME,4.5,M,6.0,M,7.5,M*2B
MSG 0 44523.333 $PGRMB,0.0,200,,,,K,,N,N*31
MSG 0 44523.393 $PGRMM,WGS 84*06
MSG 0 44523.742 $GPRMC,162324,A,4303.7169,N,07038.9555,W,000.5,125.0,030712,016.1,W*79
POS 0 44604.000 365705.513 4769013.996
QUA 0 44604.000 7 9.100 0.900 10.000 1.000 0.000 0.000 0.000
RAW 0 44604.000 4 430371.69000 -703895.55000 -22.30000 162324.00000
MSG 0 44523.892 $GPGGA,162324,4303.7169,N,07038.9555,W,1,10,0.9,10.1,M,-32.4,M,,*4D
MSG 0 44524.035 $GPGSA,A,3,,06,10,13,16,20,23,29,30,31,32,,1.4,0.9,1.1*34
MSG 0 44524.158 $GPGSV,3,1,11,03,23,181,00,06,32,164,49,10,00,335,40,13,18,317,39*7C
MSG 0 44524.304 $PGRME,4.5,M,6.0,M,7.5,M*2B
MSG 0 44524.364 $PGRMB,0.0,200,,,,K,,N,N*31
MSG 0 44524.425 $PGRMM,WGS 84*06
MSG 0 44524.727 $GPRMC,162325,A,4303.7167,N,07038.9551,W,000.8,126.0,030712,016.1,W*7C
POS 0 44605.000 365706.049 4769013.616
QUA 0 44605.000 7 9.100 0.900 10.000 1.000 0.000 0.000 0.000
RAW 0 44605.000 4 430371.67000 -703895.51000 -22.50000 162325.00000
MSG 0 44524.877 $GPGGA,162325,4303.7167,N,07038.9551,W,1,10,0.9,9.9,M,-32.4,M,,*76
MSG 0 44525.019 $GPGSA,A,3,,06,10,13,16,20,23,29,30,31,32,,1.4,0.9,1.1*34
MSG 0 44525.142 $GPGSV,3,2,11,16,72,238,46,20,19,250,44,23,49,303,48,29,15,039,43*7E
MSG 0 44525.288 $PGRME,4.6,M,6.1,M,7.6,M*2A
MSG 0 44525.348 $PGRMB,0.0,200,,,,K,,N,N*31
MSG 0 44525.408 $PGRMM,WGS 84*06
MSG 0 44525.737 $GPRMC,162326,A,4303.7166,N,07038.9549,W,000.7,125.3,030712,016.1,W*78
POS 0 44606.000 365706.316 4769013.425
QUA 0 44606.000 7 9.100 0.900 10.000 1.000 0.000 0.000 0.000
RAW 0 44606.000 4 430371.66000 -703895.49000 -22.80000 162326.00000
MSG 0 44525.887 $GPGGA,162326,4303.7166,N,07038.9549,W,1,10,0.9,9.6,M,-32.4,M,,*72
MSG 0 44526.028 $GPGSA,A,3,,06,10,13,16,20,23,29,30,31,32,,1.4,0.9,1.1*34
MSG 0 44526.151 $GPGSV,3,3,11,30,76,036,51,31,40,085,50,32,19,223,44*4E
MSG 0 44526.270 $PGRME,4.5,M,6.0,M,7.5,M*2B
MSG 0 44526.330 $PGRMB,0.0,200,,,,K,,N,N*31
MSG 0 44526.390 $PGRMM,WGS 84*06
MSG 0 44526.742 $GPRMC,162327,A,4303.7166,N,07038.9551,W,000.2,161.2,030712,016.1,W*74
POS 0 44607.000 365706.045 4769013.431
QUA 0 44607.000 7 9.200 0.800 10.000 1.000 0.000 0.000 0.000
RAW 0 44607.000 4 430371.66000 -703895.51000 -22.60000 162327.00000
MSG 0 44526.892 $GPGGA,162327,4303.7166,N,07038.9551,W,1,10,0.8,9.8,M,-32.4,M,,*75
MSG 0 44527.033 $GPGSA,A,3,,06,10,13,16,20,23,29,30,31,32,,1.4,0.8,1.1*35
MSG 0 44527.156 $GPGSV,3,1,11,03,23,181,32,06,32,164,49,10,00,335,40,13,18,317,40*73
MSG 0 44527.302 $PGRME,4.5,M,6.0,M,7.5,M*2B
MSG 0 44527.362 $PGRMB,0.0,200,,,,K,,N,N*31
MSG 0 44527.422 $PGRMM,WGS 84*06
MSG 0 44527.737 $GPRMC,162328,A,4303.7164,N,07038.9547,W,000.6,128.4,030712,016.1,W*71
POS 0 44608.000 365706.581 4769013.050
QUA 0 44608.000 7 9.100 0.900 10.000 1.000 0.000 0.000 0.000
RAW 0 44608.000 4 430371.64000 -703895.47000 -22.50000 162328.00000
MSG 0 44527.887 $GPGGA,162328,4303.7164,N,07038.9547,W,1,10,0.9,9.9,M,-32.4,M,,*7F
MSG 0 44528.028 $GPGSA,A,3,,06,10,13,16,20,23,29,30,31,32,,1.4,0.9,1.1*34
MSG 0 44528.151 $GPGSV,3,2,11,16,72,238,46,20,19,250,45,23,49,303,48,29,15,039,43*7F
MSG 0 44528.297 $PGRME,4.5,M,6.0,M,7.5,M*2B
MSG 0 44528.357 $PGRMB,0.0,200,,,,K,,N,N*31
MSG 0 44528.418 $PGRMM,WGS 84*06
MSG 0 44528.727 $GPRMC,162329,A,4303.7161,N,07038.9544,W,001.0,133.1,030712,016.1,W*7E
POS 0 44609.000 365706.977 4769012.486
QUA 0 44609.000 7 9.200 0.800 10.000 1.000 0.000 0.000 0.000
RAW 0 44609.000 4 430371.61000 -703895.44000 -22.70000 162329.00000
MSG 0 44528.877 $GPGGA,162329,4303.7161,N,07038.9544,W,1,10,0.8,9.7,M,-32.4,M,,*77
MSG 0 44529.018 $GPGSA,A,3,,06,10,13,16,20,23,29,30,31,32,,1.4,0.8,1.1*35
MSG 0 44529.141 $GPGSV,3,3,11,30,76,036,50,31,40,085,51,32,19,223,44*4E
MSG 0 44529.260 $PGRME,4.5,M,6.0,M,7.5,M*2B
MSG 0 44529.320 $PGRMB,0.0,200,,,,K,,N,N*31
MSG 0 44529.380 $PGRMM,WGS 84*06
MSG 0 44529.726 $GPRMC,162330,A,4303.7162,N,07038.9544,W,000.4,123.5,030712,016.1,W*75
POS 0 44610.000 365706.980 4769012.671
QUA 0 44610.000 7 9.200 0.800 10.000 1.000 0.000 0.000 0.000
RAW 0 44610.000 4 430371.62000 -703895.44000 -22.60000 162330.00000
MSG 0 44529.876 $GPGGA,162330,4303.7162,N,07038.9544,W,1,10,0.8,9.8,M,-32.4,M,,*73
MSG 0 44530.018 $GPGSA,A,3,,06,10,13,16,20,23,29,30,31,32,,1.4,0.8,1.1*35
MSG 0 44530.141 $GPGSV,3,1,11,03,23,181,00,06,32,164,49,10,00,335,40,13,18,317,40*72
MSG 0 44530.286 $PGRME,4.5,M,6.0,M,7.5,M*2B
MSG 0 44530.347 $PGRMB,0.0,200,,,,K,,N,N*31
MSG 0 44530.407 $PGRMM,WGS 84*06
MSG 0 44530.742 $GPRMC,162331,A,4303.7161,N,07038.9542,W,000.5,124.9,030712,016.1,W*7B
POS 0 44611.000 365707.248 4769012.481
QUA 0 44611.000 7 9.200 0.800 10.000 1.000 0.000 0.000 0.000
RAW 0 44611.000 4 430371.61000 -703895.42000 -22.80000 162331.00000
MSG 0 44530.891 $GPGGA,162331,4303.7161,N,07038.9542,W,1,10,0.8,9.6,M,-32.4,M,,*79
MSG 0 44531.033 $GPGSA,A,3,,06,10,13,16,20,23,29,30,31,32,,1.4,0.8,1.1*35
MSG 0 44531.156 $GPGSV,3,2,11,16,72,238,46,20,19,250,45,23,49,303,48,29,15,039,43*7F
MSG 0 44531.302 $PGRME,4.5,M,6.0,M,7.5,M*2B
MSG 0 44531.362 $PGRMB,0.0,200,,,,K,,N,N*31
MSG 0 44531.422 $PGRMM,WGS 84*06
MSG 0 44531.737 $GPRMC,162332,A,4303.7158,N,07038.9537,W,001.1,124.9,030712,016.1,W*75
POS 0 44612.000 365707.916 4769011.912
QUA 0 44612.000 7 9.200 0.800 10.000 1.000 0.000 0.000 0.000
RAW 0 44612.000 4 430371.58000 -703895.37000 -23.10000 162332.00000
MSG 0 44531.887 $GPGGA,162332,4303.7158,N,07038.9537,W,1,10,0.8,9.3,M,-32.4,M,,*77
MSG 0 44532.028 $GPGSA,A,3,,06,10,13,16,20,23,29,30,31,32,,1.4,0.8,1.1*35
MSG 0 44532.151 $GPGSV,3,3,11,30,76,036,50,31,40,085,50,32,19,223,44*4F
MSG 0 44532.270 $PGRME,4.5,M,6.0,M,7.5,M*2B
MSG 0 44532.330 $PGRMB,0.0,200,,,,K,,N,N*31
MSG 0 44532.390 $PGRMM,WGS 84*06
MSG 0 44532.727 $GPRMC,162333,A,4303.7158,N,07038.9536,W,000.7,125.1,030712,016.1,W*7B
POS 0 44613.000 365708.052 4769011.910
QUA 0 44613.000 7 9.200 0.800 10.000 1.000 0.000 0.000 0.000
RAW 0 44613.000 4 430371.58000 -703895.36000 -23.00000 162333.00000
MSG 0 44532.877 $GPGGA,162333,4303.7158,N,07038.9536,W,1,10,0.8,9.4,M,-32.4,M,,*70
MSG 0 44533.018 $GPGSA,A,3,,06,10,13,16,20,23,29,30,31,32,,1.4,0.8,1.1*35
MSG 0 44533.141 $GPGSV,3,1,11,03,23,181,32,06,32,164,49,10,00,335,41,13,18,317,40*72
MSG 0 44533.287 $PGRME,4.5,M,6.0,M,7.5,M*2B
MSG 0 44533.347 $PGRMB,0.0,200,,,,K,,N,N*31
MSG 0 44533.408 $PGRMM,WGS 84*06
MSG 0 44533.735 $GPRMC,162334,A,4303.7158,N,07038.9535,W,000.4,120.4,030712,016.1,W*7C
POS 0 44614.000 365708.187 4769011.907
QUA 0 44614.000 7 9.200 0.800 10.000 1.000 0.000 0.000 0.000
RAW 0 44614.000 4 430371.58000 -703895.35000 -22.60000 162334.00000
MSG 0 44533.885 $GPGGA,162334,4303.7158,N,07038.9535,W,1,10,0.8,9.8,M,-32.4,M,,*78
MSG 0 44534.027 $GPGSA,A,3,,06,10,13,16,20,23,29,30,31,32,,1.4,0.8,1.1*35
MSG 0 44534.150 $GPGSV,3,2,11,16,72,238,45,20,19,250,44,23,49,303,48,29,14,038,44*7A
MSG 0 44534.295 $PGRME,4.5,M,6.0,M,7.5,M*2B
MSG 0 44534.356 $PGRMT,GPS 17-HVS Ver. 2.80,P,P,R,R,P,,40,R*0F
MSG 0 44534.456 $PGRMB,0.0,200,,,,K,,N,N*31
MSG 0 44534.516 $PGRMM,WGS 84*06
MSG 0 44534.728 $GPRMC,162335,A,4303.7155,N,07038.9533,W,000.7,133.8,030712,016.1,W*7B
POS 0 44615.000 365708.448 4769011.347
QUA 0 44615.000 7 9.200 0.800 10.000 1.000 0.000 0.000 0.000
RAW 0 44615.000 4 430371.55000 -703895.33000 -22.60000 162335.00000
MSG 0 44534.878 $GPGGA,162335,4303.7155,N,07038.9533,W,1,10,0.8,9.8,M,-32.4,M,,*72
MSG 0 44535.020 $GPGSA,A,3,,06,10,13,16,20,23,29,30,31,32,,1.4,0.8,1.1*35
MSG 0 44535.143 $GPGSV,3,3,11,30,76,037,51,31,40,085,50,32,19,223,43*48
MSG 0 44535.261 $PGRME,4.5,M,6.0,M,7.5,M*2B
MSG 0 44535.322 $PGRMB,0.0,200,,,,K,,N,N*31
MSG 0 44535.382 $PGRMM,WGS 84*06
MSG 0 44535.727 $GPRMC,162336,A,4303.7154,N,07038.9531,W,000.7,137.5,030712,016.1,W*72
POS 0 44616.000 365708.716 4769011.156
QUA 0 44616.000 7 9.200 0.800 10.000 1.000 0.000 0.000 0.000
RAW 0 44616.000 4 430371.54000 -703895.31000 -22.90000 162336.00000
MSG 0 44535.877 $GPGGA,162336,4303.7154,N,07038.9531,W,1,10,0.8,9.5,M,-32.4,M,,*7F
MSG 0 44536.018 $GPGSA,A,3,,06,10,13,16,20,23,29,30,31,32,,1.4,0.8,1.1*35
MSG 0 44536.141 $GPGSV,3,1,11,03,23,181,32,06,32,164,49,10,00,335,40,13,18,317,41*72
MSG 0 44536.287 $PGRME,4.5,M,6.0,M,7.5,M*2B
MSG 0 44536.347 $PGRMB,0.0,200,,,,K,,N,N*31
MSG 0 44536.408 $PGRMM,WGS 84*06
MSG 0 44536.740 $GPRMC,162337,A,4303.7153,N,07038.9531,W,000.5,146.9,030712,016.1,W*7C
POS 0 44617.000 365708.712 4769010.971
QUA 0 44617.000 7 9.200 0.800 10.000 1.000 0.000 0.000 0.000
RAW 0 44617.000 4 430371.53000 -703895.31000 -22.80000 162337.00000
MSG 0 44536.890 $GPGGA,162337,4303.7153,N,07038.9531,W,1,10,0.8,9.6,M,-32.4,M,,*7A
MSG 0 44537.031 $GPGSA,A,3,,06,10,13,16,20,23,29,30,31,32,,1.4,0.8,1.1*35
MSG 0 44537.154 $GPGSV,3,2,11,16,72,238,45,20,19,250,44,23,49,303,48,29,14,038,44*7A
MSG 0 44537.300 $PGRME,4.5,M,6.0,M,7.5,M*2B
MSG 0 44537.360 $PGRMB,0.0,200,,,,K,,N,N*31
MSG 0 44537.420 $PGRMM,WGS 84*06
MSG 0 44537.726 $GPRMC,162338,A,4303.7152,N,07038.9529,W,000.5,146.8,030712,016.1,W*7A
POS 0 44618.000 365708.980 4769010.781
QUA 0 44618.000 7 9.200 0.800 10.000 1.000 0.000 0.000 0.000
RAW 0 44618.000 4 430371.52000 -703895.29000 -22.70000 162338.00000
MSG 0 44537.876 $GPGGA,162338,4303.7152,N,07038.9529,W,1,10,0.8,9.7,M,-32.4,M,,*7C
MSG 0 44538.018 $GPGSA,A,3,,06,10,13,16,20,23,29,30,31,32,,1.4,0.8,1.1*35
MSG 0 44538.141 $GPGSV,3,3,11,30,76,037,51,31,40,085,50,32,19,223,43*48
MSG 0 44538.259 $PGRME,4.5,M,6.0,M,7.5,M*2B
MSG 0 44538.320 $PGRMB,0.0,200,,,,K,,N,N*31
MSG 0 44538.380 $PGRMM,WGS 84*06
MSG 0 44538.728 $GPRMC,162339,A,4303.7149,N,07038.9526,W,000.9,133.9,030712,016.1,W*71
POS 0 44619.000 365709.376 4769010.217
QUA 0 44619.000 7 9.200 0.800 10.000 1.000 0.000 0.000 0.000
RAW 0 44619.000 4 430371.49000 -703895.26000 -22.90000 162339.00000
MSG 0 44538.878 $GPGGA,162339,4303.7149,N,07038.9526,W,1,10,0.8,9.5,M,-32.4,M,,*7A
MSG 0 44539.019 $GPGSA,A,3,,06,10,13,16,20,23,29,30,31,32,,1.4,0.8,1.1*35
MSG 0 44539.142 $GPGSV,3,1,11,03,23,181,31,06,32,164,49,10,00,335,39,13,18,317,42*7C
MSG 0 44539.288 $PGRME,4.5,M,6.0,M,7.5,M*2B
MSG 0 44539.348 $PGRMB,0.0,200,,,,K,,N,N*31
MSG 0 44539.409 $PGRMM,WGS 84*06
MSG 0 44539.728 $GPRMC,162340,A,4303.7149,N,07038.9524,W,000.6,126.7,030712,016.1,W*78
POS 0 44620.000 365709.647 4769010.212
QUA 0 44620.000 7 9.200 0.800 10.000 1.000 0.000 0.000 0.000
RAW 0 44620.000 4 430371.49000 -703895.24000 -23.00000 162340.00000
MSG 0 44539.878 $GPGGA,162340,4303.7149,N,07038.9524,W,1,10,0.8,9.4,M,-32.4,M,,*77
MSG 0 44540.019 $GPGSA,A,3,,06,10,13,16,20,23,29,30,31,32,,1.4,0.8,1.1*35
MSG 0 44540.142 $GPGSV,3,2,11,16,72,238,45,20,19,250,44,23,49,303,48,29,14,038,44*7A
MSG 0 44540.288 $PGRME,4.5,M,6.0,M,7.5,M*2B
MSG 0 44540.348 $PGRMB,0.0,200,,,,K,,N,N*31
MSG 0 44540.409 $PGRMM,WGS 84*06
MSG 0 44540.726 $GPRMC,162341,A,4303.7149,N,07038.9523,W,000.5,121.2,030712,016.1,W*7F
POS 0 44621.000 365709.783 4769010.209
QUA 0 44621.000 7 9.200 0.800 10.000 1.000 0.000 0.000 0.000
RAW 0 44621.000 4 430371.49000 -703895.23000 -23.00000 162341.00000
MSG 0 44540.876 $GPGGA,162341,4303.7149,N,07038.9523,W,1,10,0.8,9.4,M,-32.4,M,,*71
MSG 0 44541.018 $GPGSA,A,3,,06,10,13,16,20,23,29,30,31,32,,1.4,0.8,1.1*35
MSG 0 44541.141 $GPGSV,3,3,11,30,76,037,51,31,39,086,50,32,19,223,44*42
MSG 0 44541.259 $PGRME,4.5,M,6.0,M,7.5,M*2B
MSG 0 44541.320 $PGRMB,0.0,200,,,,K,,N,N*31
MSG 0 44541.380 $PGRMM,WGS 84*06
MSG 0 44541.738 $GPRMC,162342,A,4303.7147,N,07038.9519,W,000.8,121.3,030712,016.1,W*77
POS 0 44622.000 365710.319 4769009.828
QUA 0 44622.000 7 9.200 0.800 10.000 1.000 0.000 0.000 0.000
RAW 0 44622.000 4 430371.47000 -703895.19000 -23.10000 162342.00000
MSG 0 44541.888 $GPGGA,162342,4303.7147,N,07038.9519,W,1,10,0.8,9.3,M,-32.4,M,,*72
MSG 0 44542.029 $GPGSA,A,3,,06,10,13,16,20,23,29,30,31,32,,1.4,0.8,1.1*35
MSG 0 44542.152 $GPGSV,3,1,11,03,23,181,00,06,32,164,49,10,00,335,39,13,18,317,43*7F
MSG 0 44542.298 $PGRME,4.5,M,6.0,M,7.5,M*2B
MSG 0 44542.358 $PGRMB,0.0,200,,,,K,,N,N*31
MSG 0 44542.419 $PGRMM,WGS 84*06
MSG 0 44542.727 $GPRMC,162343,A,4303.7145,N,07038.9517,W,000.8,127.8,030712,016.1,W*77
POS 0 44623.000 365710.583 4769009.453
QUA 0 44623.000 7 9.200 0.800 10.000 1.000 0.000 0.000 0.000
RAW 0 44623.000 4 430371.45000 -703895.17000 -23.20000 162343.00000
MSG 0 44542.877 $GPGGA,162343,4303.7145,N,07038.9517,W,1,10,0.8,9.2,M,-32.4,M,,*7E
MSG 0 44543.018 $GPGSA,A,3,,06,10,13,16,20,23,29,30,31,32,,1.4,0.8,1.1*35
MSG 0 44543.141 $GPGSV,3,2,11,16,72,238,45,20,19,250,45,23,49,303,47,29,14,038,43*73
MSG 0 44543.287 $PGRME,4.5,M,6.0,M,7.5,M*2B
MSG 0 44543.347 $PGRMB,0.0,200,,,,K,,N,N*31
MSG 0 44543.408 $PGRMM,WGS 84*06
MSG 0 44543.738 $GPRMC,162344,A,4303.7144,N,07038.9516,W,000.6,136.6,030712,016.1,W*70
POS 0 44624.000 365710.715 4769009.265
QUA 0 44624.000 7 9.200 0.800 10.000 1.000 0.000 0.000 0.000
RAW 0 44624.000 4 430371.44000 -703895.16000 -23.00000 162344.00000
MSG 0 44543.888 $GPGGA,162344,4303.7144,N,07038.9516,W,1,10,0.8,9.4,M,-32.4,M,,*7F
MSG 0 44544.030 $GPGSA,A,3,,06,10,13,16,20,23,29,30,31,32,,1.4,0.8,1.1*35
MSG 0 44544.153 $GPGSV,3,3,11,30,76,037,51,31,39,086,50,32,19,223,44*42
MSG 0 44544.271 $PGRME,4.5,M,6.0,M,7.5,M*2B
MSG 0 44544.332 $PGRMB,0.0,200,,,,K,,N,N*31
MSG 0 44544.392 $PGRMM,WGS 84*06
MSG 0 44544.761 $GPRMC,162345,A,4303.7142,N,07038.9514,W,000.8,142.9,030712,016.1,W*77
POS 0 44625.000 365710.979 4769008.890
QUA 0 44625.000 7 9.200 0.800 10.000 1.000 0.000 0.000 0.000
RAW 0 44625.000 4 430371.42000 -703895.14000 -23.00000 162345.00000
MSG 0 44544.911 $GPGGA,162345,4303.7142,N,07038.9514,W,1,10,0.8,9.4,M,-32.4,M,,*7A
MSG 0 44545.052 $GPGSA,A,3,,06,10,13,16,20,23,29,30,31,32,,1.4,0.8,1.1*35
MSG 0 44545.175 $GPGSV,3,1,11,03,24,181,00,06,32,164,48,10,00,335,40,13,18,317,44*70
MSG 0 44545.321 $PGRME,4.5,M,6.0,M,7.5,M*2B
MSG 0 44545.381 $PGRMB,0.0,200,,,,K,,N,N*31
MSG 0 44545.442 $PGRMM,WGS 84*06
MSG 0 44545.728 $GPRMC,162346,A,4303.7140,N,07038.9511,W,000.8,136.0,030712,016.1,W*79
POS 0 44626.000 365711.379 4769008.511
QUA 0 44626.000 7 9.100 0.900 10.000 1.000 0.000 0.000 0.000
RAW 0 44626.000 4 430371.40000 -703895.11000 -22.80000 162346.00000
MSG 0 44545.878 $GPGGA,162346,4303.7140,N,07038.9511,W,1,10,0.9,9.6,M,-32.4,M,,*7D
MSG 0 44546.019 $GPGSA,A,3,,06,10,13,16,20,23,29,30,31,32,,1.4,0.9,1.1*34
MSG 0 44546.142 $GPGSV,3,2,11,16,72,238,45,20,19,250,44,23,49,303,48,29,14,038,43*7D
MSG 0 44546.288 $PGRME,4.6,M,6.0,M,7.6,M*2B
MSG 0 44546.348 $PGRMB,0.0,200,,,,K,,N,N*31
MSG 0 44546.409 $PGRMM,WGS 84*06
MSG 0 44546.740 $GPRMC,162347,A,4303.7140,N,07038.9511,W,000.4,145.5,030712,016.1,W*75
POS 0 44627.000 365711.379 4769008.511
QUA 0 44627.000 7 9.100 0.900 10.000 1.000 0.000 0.000 0.000
RAW 0 44627.000 4 430371.40000 -703895.11000 -22.80000 162347.00000
MSG 0 44546.890 $GPGGA,162347,4303.7140,N,07038.9511,W,1,10,0.9,9.6,M,-32.4,M,,*7C
MSG 0 44547.032 $GPGSA,A,3,,06,10,13,16,20,23,29,30,31,32,,1.4,0.9,1.1*34
MSG 0 44547.154 $GPGSV,3,3,11,30,76,037,51,31,39,086,50,32,19,223,43*45
MSG 0 44547.273 $PGRME,4.5,M,6.0,M,7.5,M*2B
MSG 0 44547.334 $PGRMB,0.0,200,,,,K,,N,N*31
MSG 0 44547.394 $PGRMM,WGS 84*06
MSG 0 44547.731 $GPRMC,162348,A,4303.7139,N,07038.9509,W,000.5,117.4,030712,016.1,W*7A
POS 0 44628.000 365711.647 4769008.321
QUA 0 44628.000 7 9.200 0.800 10.000 1.000 0.000 0.000 0.000
RAW 0 44628.000 4 430371.39000 -703895.09000 -22.90000 162348.00000
MSG 0 44547.881 $GPGGA,162348,4303.7139,N,07038.9509,W,1,10,0.8,9.5,M,-32.4,M,,*76
MSG 0 44548.023 $GPGSA,A,3,,06,10,13,16,20,23,29,30,31,32,,1.4,0.8,1.1*35
MSG 0 44548.146 $GPGSV,3,1,11,03,24,181,32,06,32,164,48,10,00,335,39,13,18,317,44*7F
MSG 0 44548.291 $PGRME,4.5,M,6.0,M,7.5,M*2B
MSG 0 44548.352 $PGRMB,0.0,200,,,,K,,N,N*31
MSG 0 44548.412 $PGRMM,WGS 84*06
MSG 0 44548.728 $GPRMC,162349,A,4303.7137,N,07038.9507,W,000.7,134.4,030712,016.1,W*78
POS 0 44629.000 365711.911 4769007.946
QUA 0 44629.000 7 9.200 0.800 10.000 1.000 0.000 0.000 0.000
RAW 0 44629.000 4 430371.37000 -703895.07000 -23.10000 162349.00000
MSG 0 44548.878 $GPGGA,162349,4303.7137,N,07038.9507,W,1,10,0.8,9.3,M,-32.4,M,,*71
MSG 0 44549.019 $GPGSA,A,3,,06,10,13,16,20,23,29,30,31,32,,1.4,0.8,1.1*35
MSG 0 44549.142 $GPGSV,3,2,11,16,72,238,45,20,19,250,45,23,49,303,48,29,14,038,43*7C
MSG 0 44549.288 $PGRME,4.5,M,6.0,M,7.5,M*2B
MSG 0 44549.348 $PGRMB,0.0,200,,,,K,,N,N*31
MSG 0 44549.409 $PGRMM,WGS 84*06
MSG 0 44549.728 $GPRMC,162350,A,4303.7135,N,07038.9504,W,000.8,129.8,030712,016.1,W*7E
POS 0 44630.000 365712.311 4769007.567
QUA 0 44630.000 7 9.100 0.900 10.000 1.000 0.000 0.000 0.000
RAW 0 44630.000 4 430371.35000 -703895.04000 -23.50000 162350.00000
MSG 0 44549.878 $GPGGA,162350,4303.7135,N,07038.9504,W,1,10,0.9,8.9,M,-32.4,M,,*72
MSG 0 44550.020 $GPGSA,A,3,,06,10,13,16,20,23,29,30,31,32,,1.4,0.9,1.1*34
MSG 0 44550.143 $GPGSV,3,3,11,30,76,037,50,31,39,086,50,32,19,223,43*44
MSG 0 44550.261 $PGRME,4.5,M,6.0,M,7.5,M*2B
MSG 0 44550.322 $PGRMB,0.0,200,,,,K,,N,N*31
MSG 0 44550.382 $PGRMM,WGS 84*06
MSG 0 44550.739 $GPRMC,162351,A,4303.7134,N,07038.9503,W,000.7,141.7,030712,016.1,W*77
POS 0 44631.000 365712.443 4769007.380
QUA 0 44631.000 7 9.200 0.800 10.000 1.000 0.000 0.000 0.000
RAW 0 44631.000 4 430371.34000 -703895.03000 -23.10000 162351.00000
MSG 0 44550.889 $GPGGA,162351,4303.7134,N,07038.9503,W,1,10,0.8,9.3,M,-32.4,M,,*7F
MSG 0 44551.031 $GPGSA,A,3,,06,10,13,16,20,23,29,30,31,32,,1.4,0.8,1.1*35
MSG 0 44551.154 $GPGSV,3,1,11,03,24,181,32,06,32,164,48,10,00,335,40,13,18,317,43*76
MSG 0 44551.299 $PGRME,4.5,M,6.0,M,7.5,M*2B
MSG 0 44551.360 $PGRMB,0.0,200,,,,K,,N,N*31
MSG 0 44551.420 $PGRMM,WGS 84*06
MSG 0 44551.728 $GPRMC,162352,A,4303.7132,N,07038.9501,W,000.7,138.4,030712,016.1,W*7D
POS 0 44632.000 365712.707 4769007.004
QUA 0 44632.000 7 9.200 0.800 10.000 1.000 0.000 0.000 0.000
RAW 0 44632.000 4 430371.32000 -703895.01000 -22.90000 162352.00000
MSG 0 44551.878 $GPGGA,162352,4303.7132,N,07038.9501,W,1,10,0.8,9.5,M,-32.4,M,,*7E
MSG 0 44552.019 $GPGSA,A,3,,06,10,13,16,20,23,29,30,31,32,,1.4,0.8,1.1*35
MSG 0 44552.142 $GPGSV,3,2,11,16,72,238,45,20,19,250,45,23,49,303,48,29,14,038,44*7B
MSG 0 44552.288 $PGRME,4.5,M,6.0,M,7.5,M*2B
MSG 0 44552.348 $PGRMB,0.0,200,,,,K,,N,N*31
MSG 0 44552.409 $PGRMM,WGS 84*06
MSG 0 44552.737 $GPRMC,162353,A,4303.7131,N,07038.9500,W,000.7,136.7,030712,016.1,W*73
POS 0 44633.000 365712.839 4769006.816
QUA 0 44633.000 7 9.200 0.800 10.000 1.000 0.000 0.000 0.000
RAW 0 44633.000 4 430371.31000 -703895.00000 -23.00000 162353.00000
MSG 0 44552.886 $GPGGA,162353,4303.7131,N,07038.9500,W,1,10,0.8,9.4,M,-32.4,M,,*7C
MSG 0 44553.028 $GPGSA,A,3,,06,10,13,16,20,23,29,30,31,32,,1.4,0.8,1.1*35
MSG 0 44553.151 $GPGSV,3,3,11,30,76,037,50,31,39,086,50,32,19,223,43*44
MSG 0 44553.270 $PGRME,4.5,M,6.0,M,7.5,M*2B
MSG 0 44553.330 $PGRMB,0.0,200,,,,K,,N,N*31
MSG 0 44553.390 $PGRMM,WGS 84*06
MSG 0 44553.749 $GPRMC,162354,A,4303.7131,N,07038.9499,W,000.4,125.3,030712,016.1,W*70
POS 0 44634.000 365712.975 4769006.814
QUA 0 44634.000 7 9.200 0.800 10.000 1.000 0.000 0.000 0.000
RAW 0 44634.000 4 430371.31000 -703894.99000 -23.20000 162354.00000
MSG 0 44553.899 $GPGGA,162354,4303.7131,N,07038.9499,W,1,10,0.8,9.2,M,-32.4,M,,*7C
MSG 0 44554.040 $GPGSA,A,3,,06,10,13,16,20,23,29,30,31,32,,1.4,0.8,1.1*35
MSG 0 44554.163 $GPGSV,3,1,11,03,24,181,00,06,32,164,48,10,00,335,39,13,18,317,44*7E
MSG 0 44554.309 $PGRME,4.5,M,6.0,M,7.5,M*2B
MSG 0 44554.369 $PGRMB,0.0,200,,,,K,,N,N*31
MSG 0 44554.430 $PGRMM,WGS 84*06
MSG 0 44554.752 $GPRMC,162355,A,4303.7129,N,07038.9497,W,000.6,139.0,030712,016.1,W*7A
POS 0 44635.000 365713.239 4769006.438
QUA 0 44635.000 7 9.100 0.900 10.000 1.000 0.000 0.000 0.000
RAW 0 44635.000 4 430371.29000 -703894.97000 -23.60000 162355.00000
MSG 0 44554.902 $GPGGA,162355,4303.7129,N,07038.9497,W,1,10,0.9,8.8,M,-32.4,M,,*70
MSG 0 44555.043 $GPGSA,A,3,,06,10,13,16,20,23,29,30,31,32,,1.4,0.9,1.1*34
MSG 0 44555.166 $GPGSV,3,2,11,16,72,238,45,20,19,250,43,23,49,303,47,29,14,038,44*72
MSG 0 44555.312 $PGRME,4.6,M,6.0,M,7.6,M*2B
MSG 0 44555.372 $PGRMB,0.0,200,,,,K,,N,N*31
MSG 0 44555.433 $PGRMM,WGS 84*06
MSG 0 44555.727 $GPRMC,162356,A,4303.7127,N,07038.9494,W,000.7,128.0,030712,016.1,W*75
POS 0 44636.000 365713.639 4769006.060
QUA 0 44636.000 7 9.100 0.900 10.000 1.000 0.000 0.000 0.000
RAW 0 44636.000 4 430371.27000 -703894.94000 -23.50000 162356.00000
MSG 0 44555.877 $GPGGA,162356,4303.7127,N,07038.9494,W,1,10,0.9,8.9,M,-32.4,M,,*7F
MSG 0 44556.019 $GPGSA,A,3,,06,10,13,16,20,23,29,30,31,32,,1.4,0.9,1.1*34
MSG 0 44556.142 $GPGSV,3,3,11,30,76,037,51,31,39,086,50,32,19,223,43*45
MSG 0 44556.260 $PGRME,4.6,M,6.0,M,7.6,M*2B
MSG 0 44556.321 $PGRMB,0.0,200,,,,K,,N,N*31
MSG 0 44556.381 $PGRMM,WGS 84*06
MSG 0 44556.726 $GPRMC,162357,A,4303.7126,N,07038.9492,W,000.7,128.3,030712,016.1,W*70
POS 0 44637.000 365713.907 4769005.870
QUA 0 44637.000 7 9.100 0.900 10.000 1.000 0.000 0.000 0.000
RAW 0 44637.000 4 430371.26000 -703894.92000 -23.20000 162357.00000
MSG 0 44556.876 $GPGGA,162357,4303.7126,N,07038.9492,W,1,10,0.9,9.2,M,-32.4,M,,*73
MSG 0 44557.018 $GPGSA,A,3,,06,10,13,16,20,23,29,30,31,32,,1.4,0.9,1.1*34
MSG 0 44557.140 $GPGSV,3,1,11,03,24,181,32,06,32,164,49,10,00,335,40,13,18,317,43*77
MSG 0 44557.286 $PGRME,4.5,M,6.0,M,7.5,M*2B
MSG 0 44557.347 $PGRMB,0.0,200,,,,K,,N,N*31
MSG 0 44557.407 $PGRMM,WGS 84*06
MSG 0 44557.728 $GPRMC,162358,A,4303.7125,N,07038.9492,W,000.5,138.8,030712,016.1,W*74
POS 0 44638.000 365713.903 4769005.684
QUA 0 44638.000 7 9.200 0.800 10.000 1.000 0.000 0.000 0.000
RAW 0 44638.000 4 430371.25000 -703894.92000 -22.90000 162358.00000
MSG 0 44557.878 $GPGGA,162358,4303.7125,N,07038.9492,W,1,10,0.8,9.5,M,-32.4,M,,*79
MSG 0 44558.019 $GPGSA,A,3,,06,10,13,16,20,23,29,30,31,32,,1.4,0.8,1.1*35
MSG 0 44558.142 $GPGSV,3,2,11,16,72,238,45,20,19,250,44,23,49,303,47,29,14,038,44*75
MSG 0 44558.288 $PGRME,4.5,M,6.0,M,7.5,M*2B
MSG 0 44558.348 $PGRMB,0.0,200,,,,K,,N,N*31
MSG 0 44558.409 $PGRMM,WGS 84*06
MSG 0 44558.726 $GPRMC,162359,A,4303.7123,N,07038.9489,W,000.8,132.3,030712,016.1,W*75
POS 0 44639.000 365714.303 4769005.306
QUA 0 44639.000 7 9.200 0.800 10.000 1.000 0.000 0.000 0.000
RAW 0 44639.000 4 430371.23000 -703894.89000 -23.40000 162359.00000
MSG 0 44558.876 $GPGGA,162359,4303.7123,N,07038.9489,W,1,10,0.8,9.0,M,-32.4,M,,*71
MSG 0 44559.018 $GPGSA,A,3,,06,10,13,16,20,23,29,30,31,32,,1.4,0.8,1.1*35
MSG 0 44559.140 $GPGSV,3,3,11,30,76,037,50,31,39,086,51,32,19,223,44*42
MSG 0 44559.259 $PGRME,4.5,M,6.0,M,7.5,M*2B
MSG 0 44559.319 $PGRMB,0.0,200,,,,K,,N,N*31
MSG 0 44559.380 $PGRMM,WGS 84*06
MSG 0 44559.726 $GPRMC,162400,A,4303.7121,N,07038.9487,W,000.7,141.4,030712,016.1,W*7E
POS 0 44640.000 365714.567 4769004.931
QUA 0 44640.000 7 9.100 0.900 10.000 1.000 0.000 0.000 0.000
RAW 0 44640.000 4 430371.21000 -703894.87000 -23.50000 162400.00000
MSG 0 44559.876 $GPGGA,162400,4303.7121,N,07038.9487,W,1,10,0.9,8.9,M,-32.4,M,,*7F
MSG 0 44560.018 $GPGSA,A,3,,06,10,13,16,20,23,29,30,31,32,,1.4,0.9,1.1*34
MSG 0 44560.141 $GPGSV,3,1,11,03,24,181,32,06,32,164,49,10,00,335,40,13,18,317,42*76
MSG 0 44560.286 $PGRME,4.5,M,6.0,M,7.5,M*2B
MSG 0 44560.347 $PGRMB,0.0,200,,,,K,,N,N*31
MSG 0 44560.407 $PGRMM,WGS 84*06
MSG 0 44560.727 $GPRMC,162401,A,4303.7121,N,07038.9487,W,000.5,146.1,030712,016.1,W*7F
POS 0 44641.000 365714.567 4769004.931
QUA 0 44641.000 7 9.200 0.800 10.000 1.000 0.000 0.000 0.000
RAW 0 44641.000 4 430371.21000 -703894.87000 -23.50000 162401.00000
MSG 0 44560.877 $GPGGA,162401,4303.7121,N,07038.9487,W,1,10,0.8,8.9,M,-32.4,M,,*7F
MSG 0 44561.019 $GPGSA,A,3,,06,10,13,16,20,23,29,30,31,32,,1.4,0.8,1.1*35
MSG 0 44561.142 $GPGSV,3,2,11,16,72,238,45,20,19,250,44,23,49,303,48,29,14,038,43*7D
MSG 0 44561.287 $PGRME,4.5,M,6.0,M,7.5,M*2B
MSG 0 44561.348 $PGRMB,0.0,200,,,,K,,N,N*31
MSG 0 44561.408 $PGRMM,WGS 84*06
MSG 0 44561.727 $GPRMC,162402,A,4303.7118,N,07038.9483,W,000.9,136.2,030712,016.1,W*7A
POS 0 44642.000 365715.099 4769004.365
QUA 0 44642.000 7 9.200 0.800 10.000 1.000 0.000 0.000 0.000
RAW 0 44642.000 4 430371.18000 -703894.83000 -23.50000 162402.00000
MSG 0 44561.877 $GPGGA,162402,4303.7118,N,07038.9483,W,1,10,0.8,8.9,M,-32.4,M,,*72
MSG 0 44562.019 $GPGSA,A,3,,06,10,13,16,20,23,29,30,31,32,,1.4,0.8,1.1*35
MSG 0 44562.142 $GPGSV,3,3,11,30,76,037,51,31,39,086,50,32,19,223,43*45
MSG 0 44562.260 $PGRME,4.5,M,6.0,M,7.5,M*2B
MSG 0 44562.321 $PGRMB,0.0,200,,,,K,,N,N*31
MSG 0 44562.381 $PGRMM,WGS 84*06
MSG 0 44562.726 $GPRMC,162403,A,4303.7117,N,07038.9482,W,000.7,132.1,030712,016.1,W*7C
POS 0 44643.000 365715.231 4769004.177
QUA 0 44643.000 7 9.200 0.800 10.000 1.000 0.000 0.000 0.000
RAW 0 44643.000 4 430371.17000 -703894.82000 -23.40000 162403.00000
MSG 0 44562.876 $GPGGA,162403,4303.7117,N,07038.9482,W,1,10,0.8,9.0,M,-32.4,M,,*75
MSG 0 44563.017 $GPGSA,A,3,,06,10,13,16,20,23,29,30,31,32,,1.4,0.8,1.1*35
MSG 0 44563.140 $GPGSV,3,1,11,03,24,181,32,06,32,164,49,10,00,335,41,13,18,317,43*76
MSG 0 44563.286 $PGRME,4.5,M,6.0,M,7.5,M*2B
MSG 0 44563.346 $PGRMB,0.0,200,,,,K,,N,N*31
MSG 0 44563.407 $PGRMM,WGS 84*06
MSG 0 44563.735 $GPRMC,162404,A,4303.7117,N,07038.9481,W,000.4,127.1,030712,016.1,W*7F
POS 0 44644.000 365715.367 4769004.174
QUA 0 44644.000 7 9.200 0.800 10.000 1.000 0.000 0.000 0.000
RAW 0 44644.000 4 430371.17000 -703894.81000 -23.20000 162404.00000
MSG 0 44563.885 $GPGGA,162404,4303.7117,N,07038.9481,W,1,10,0.8,9.2,M,-32.4,M,,*73
MSG 0 44564.027 $GPGSA,A,3,,06,10,13,16,20,23,29,30,31,32,,1.4,0.8,1.1*35
MSG 0 44564.150 $GPGSV,3,2,11,16,72,238,45,20,19,250,44,23,49,303,48,29,14,038,44*7A
MSG 0 44564.295 $PGRME,4.5,M,6.0,M,7.5,M*2B
MSG 0 44564.356 $PGRMB,0.0,200,,,,K,,N,N*31
MSG 0 44564.416 $PGRMM,WGS 84*06
MSG 0 44564.753 $GPRMC,162405,A,4303.7116,N,07038.9479,W,000.5,127.1,030712,016.1,W*79
POS 0 44645.000 365715.635 4769003.984
QUA 0 44645.000 7 9.200 0.800 10.000 1.000 0.000 0.000 0.000
RAW 0 44645.000 4 430371.16000 -703894.79000 -23.20000 162405.00000
MSG 0 44564.903 $GPGGA,162405,4303.7116,N,07038.9479,W,1,10,0.8,9.2,M,-32.4,M,,*74
MSG 0 44565.045 $GPGSA,A,3,,06,10,13,16,20,23,29,30,31,32,,1.4,0.8,1.1*35
MSG 0 44565.167 $GPGSV,3,3,11,30,76,037,51,31,39,086,50,32,19,223,43*45
MSG 0 44565.286 $PGRME,4.5,M,6.0,M,7.5,M*2B
MSG 0 44565.347 $PGRMB,0.0,200,,,,K,,N,N*31
MSG 0 44565.407 $PGRMM,WGS 84*06
MSG 0 44565.726 $GPRMC,162406,A,4303.7115,N,07038.9476,W,000.7,125.0,030712,016.1,W*77
POS 0 44646.000 365716.038 4769003.791
QUA 0 44646.000 7 9.200 0.800 10.000 1.000 0.000 0.000 0.000
RAW 0 44646.000 4 430371.15000 -703894.76000 -23.60000 162406.00000
MSG 0 44565.876 $GPGGA,162406,4303.7115,N,07038.9476,W,1,10,0.8,8.8,M,-32.4,M,,*70
MSG 0 44566.018 $GPGSA,A,3,,06,10,13,16,20,23,29,30,31,32,,1.4,0.8,1.1*35
MSG 0 44566.140 $GPGSV,3,1,11,03,24,181,00,06,33,163,49,10,00,335,40,13,18,317,43*70
MSG 0 44566.286 $PGRME,4.5,M,6.0,M,7.5,M*2B
MSG 0 44566.347 $PGRMB,0.0,200,,,,K,,N,N*31
MSG 0 44566.407 $PGRMM,WGS 84*06
MSG 0 44566.738 $GPRMC,162407,A,4303.7113,N,07038.9475,W,000.7,133.5,030712,016.1,W*71
POS 0 44647.000 365716.166 4769003.418
QUA 0 44647.000 7 9.200 0.800 10.000 1.000 0.000 0.000 0.000
RAW 0 44647.000 4 430371.13000 -703894.75000 -23.60000 162407.00000
MSG 0 44566.888 $GPGGA,162407,4303.7113,N,07038.9475,W,1,10,0.8,8.8,M,-32.4,M,,*74
MSG 0 44567.029 $GPGSA,A,3,,06,10,13,16,20,23,29,30,31,32,,1.4,0.8,1.1*35
MSG 0 44567.152 $GPGSV,3,2,11,16,72,238,46,20,19,250,44,23,49,303,48,29,14,038,44*79
MSG 0 44567.298 $PGRME,4.5,M,6.0,M,7.5,M*2B
MSG 0 44567.358 $PGRMB,0.0,200,,,,K,,N,N*31
MSG 0 44567.419 $PGRMM,WGS 84*06
MSG 0 44567.736 $GPRMC,162408,A,4303.7112,N,07038.9473,W,000.7,134.6,030712,016.1,W*7D
POS 0 44648.000 365716.434 4769003.228
QUA 0 44648.000 7 9.200 0.800 10.000 1.000 0.000 0.000 0.000
RAW 0 44648.000 4 430371.12000 -703894.73000 -23.50000 162408.00000
MSG 0 44567.886 $GPGGA,162408,4303.7112,N,07038.9473,W,1,10,0.8,8.9,M,-32.4,M,,*7D
MSG 0 44568.027 $GPGSA,A,3,,06,10,13,16,20,23,29,30,31,32,,1.4,0.8,1.1*35
