FTP NEW 2
VER 11.0.6.21
INF "" "" "" "" 0.000 0.000 0.000
ELL WGS-84 6378137.000 298.257223563
PRO TME -69.000000 0.999600 0.000000 0.000000 0.000000 500000.0000 0.0000
DTM 0.00 0.00 0.00 0.00000 0.00000 0.00000 0.00000
GEO ??? 0.000
HVU 1.0000000000 1.0000000000
TND 13:04:37 07/03/2012 240
DEV 0 32869 "Garmin GPS" 49156 C:\HYPACK 2011\devices\GPS.dll 11.0.10.6
OFF 0 0.000 0.000 0.000 0.000 0.000 0.000 0.000
DDT 0 SYN 
DEV 1 0 "Disabled" 0 Odom CV3 MK3 Disabled Unknown
USR "NOAA Joint Hydrographic Center" "HYPACK Inc." 0x8 15681181
EOH 0001FFFFFFFFFFFFFFFFFFFFFFFFFFFFFFFFFFFFFFFFFFFFFFFFFFFFFFFFFFFFFFFFFFFFFFFFFFFFFFFFFFFFFFFFFFFFFFFFFFFFFFFFFFFFFFFFFFFFFFFFFFFFFFFFFFFFFFFFFFFFFFFFFFFFFFFFFFFFFFFFFFFFFFFFFFFFFFFFFFFF003021300906052B0E03021A05000414AFD8EDE6D0EE914DF254C5591A2DBADF6EFD1C4D
MSG 0 47075.656 $GPRMC,170556,A,4305.7756,N,07038.8045,W,000.5,137.5,030712,016.1,W*76
POS 0 47156.000 365985.263 4772820.384
QUA 0 47156.000 7 9.200 0.800 11.000 1.000 0.000 0.000 0.000
RAW 0 47156.000 4 430577.56000 -703880.45000 -24.10000 170556.00000
MSG 0 47075.806 $GPGGA,170556,4305.7756,N,07038.8045,W,1,11,0.8,8.3,M,-32.4,M,,*7F
MSG 0 47075.948 $GPGSA,A,3,,06,10,13,16,20,21,23,29,30,31,32,1.1,0.8,0.8*3B
MSG 0 47076.075 $GPGSV,3,3,12,29,01,030,45,30,56,050,50,31,25,101,47,32,04,212,43*77
MSG 0 47076.220 $PGRME,5.0,M,5.7,M,7.6,M*28
MSG 0 47076.281 $PGRMB,0.0,200,,,,K,,N,N*31
MSG 0 47076.341 $PGRMM,WGS 84*06
MSG 0 47076.658 $GPRMC,170557,A,4305.7757,N,07038.8043,W,000.4,099.3,030712,016.1,W*72
POS 0 47157.000 365985.538 4772820.564
QUA 0 47157.000 7 9.200 0.800 11.000 1.000 0.000 0.000 0.000
RAW 0 47157.000 4 430577.57000 -703880.43000 -23.60000 170557.00000
MSG 0 47076.808 $GPGGA,170557,4305.7757,N,07038.8043,W,1,11,0.8,8.8,M,-32.4,M,,*72
MSG 0 47076.950 $GPGSA,A,3,,06,10,13,16,20,21,23,29,30,31,32,1.1,0.8,0.8*3B
MSG 0 47077.077 $GPGSV,3,1,12,03,43,176,32,06,51,152,50,10,06,320,37,13,35,312,46*78
MSG 0 47077.222 $PGRME,5.0,M,5.7,M,7.6,M*28
MSG 0 47077.283 $PGRMB,0.0,200,,,,K,,N,N*31
MSG 0 47077.343 $PGRMM,WGS 84*06
FIX 99 47077.606 100 365985.538 4772820.564
MSG 0 47077.657 $GPRMC,170558,A,4305.7756,N,07038.8043,W,000.3,137.4,030712,016.1,W*79
POS 0 47158.000 365985.534 4772820.379
QUA 0 47158.000 7 9.200 0.800 11.000 1.000 0.000 0.000 0.000
RAW 0 47158.000 4 430577.56000 -703880.43000 -23.40000 170558.00000
MSG 0 47077.807 $GPGGA,170558,4305.7756,N,07038.8043,W,1,11,0.8,9.0,M,-32.4,M,,*75
MSG 0 47077.949 $GPGSA,A,3,,06,10,13,16,20,21,23,29,30,31,32,1.1,0.8,0.8*3B
MSG 0 47078.076 $GPGSV,3,2,12,16,82,344,49,20,07,236,42,21,06,075,38,23,60,275,49*7A
MSG 0 47078.221 $PGRME,5.0,M,5.7,M,7.6,M*28
MSG 0 47078.282 $PGRMB,0.0,200,,,,K,,N,N*31
MSG 0 47078.342 $PGRMM,WGS 84*06
MSG 0 47078.659 $GPRMC,170559,A,4305.7754,N,07038.8042,W,000.5,154.5,030712,016.1,W*79
POS 0 47159.000 365985.662 4772820.006
QUA 0 47159.000 7 9.200 0.800 11.000 1.000 0.000 0.000 0.000
RAW 0 47159.000 4 430577.54000 -703880.42000 -23.50000 170559.00000
MSG 0 47078.809 $GPGGA,170559,4305.7754,N,07038.8042,W,1,11,0.8,8.9,M,-32.4,M,,*7F
MSG 0 47078.950 $GPGSA,A,3,,06,10,13,16,20,21,23,29,30,31,32,1.1,0.8,0.8*3B
MSG 0 47079.077 $GPGSV,3,3,12,29,01,030,46,30,56,050,50,31,25,101,47,32,04,212,43*74
MSG 0 47079.223 $PGRME,5.0,M,5.7,M,7.6,M*28
MSG 0 47079.283 $PGRMB,0.0,200,,,,K,,N,N*31
MSG 0 47079.344 $PGRMM,WGS 84*06
MSG 0 47079.658 $GPRMC,170600,A,4305.7755,N,07038.8043,W,000.1,154.5,030712,016.1,W*72
POS 0 47160.000 365985.530 4772820.194
QUA 0 47160.000 7 9.200 0.800 11.000 1.000 0.000 0.000 0.000
RAW 0 47160.000 4 430577.55000 -703880.43000 -23.40000 170600.00000
MSG 0 47079.808 $GPGGA,170600,4305.7755,N,07038.8043,W,1,11,0.8,9.0,M,-32.4,M,,*78
MSG 0 47079.949 $GPGSA,A,3,,06,10,13,16,20,21,23,29,30,31,32,1.1,0.8,0.8*3B
MSG 0 47080.076 $GPGSV,3,1,12,03,43,176,32,06,51,152,49,10,06,320,39,13,35,312,46*7E
MSG 0 47080.222 $PGRME,5.0,M,5.7,M,7.6,M*28
MSG 0 47080.282 $PGRMB,0.0,200,,,,K,,N,N*31
MSG 0 47080.343 $PGRMM,WGS 84*06
MSG 0 47080.660 $GPRMC,170601,A,4305.7754,N,07038.8041,W,000.3,137.3,030712,016.1,W*71
POS 0 47161.000 365985.798 4772820.003
QUA 0 47161.000 7 9.200 0.800 11.000 1.000 0.000 0.000 0.000
RAW 0 47161.000 4 430577.54000 -703880.41000 -23.80000 170601.00000
MSG 0 47080.810 $GPGGA,170601,4305.7754,N,07038.8041,W,1,11,0.8,8.6,M,-32.4,M,,*7D
MSG 0 47080.951 $GPGSA,A,3,,06,10,13,16,20,21,23,29,30,31,32,1.1,0.8,0.8*3B
MSG 0 47081.078 $GPGSV,3,2,12,16,82,344,48,20,07,236,42,21,06,075,38,23,60,275,49*7B
MSG 0 47081.224 $PGRME,5.0,M,5.7,M,7.6,M*28
MSG 0 47081.285 $PGRMB,0.0,200,,,,K,,N,N*31
MSG 0 47081.345 $PGRMM,WGS 84*06
MSG 0 47081.659 $GPRMC,170602,A,4305.7752,N,07038.8039,W,000.6,145.6,030712,016.1,W*7E
POS 0 47162.000 365986.062 4772819.628
QUA 0 47162.000 7 9.200 0.800 11.000 1.000 0.000 0.000 0.000
RAW 0 47162.000 4 430577.52000 -703880.39000 -23.90000 170602.00000
MSG 0 47081.809 $GPGGA,170602,4305.7752,N,07038.8039,W,1,11,0.8,8.5,M,-32.4,M,,*74
MSG 0 47081.951 $GPGSA,A,3,,06,10,13,16,20,21,23,29,30,31,32,1.1,0.8,0.8*3B
MSG 0 47082.078 $GPGSV,3,3,12,29,01,030,47,30,56,050,49,31,25,101,47,32,04,212,42*7C
MSG 0 47082.223 $PGRME,5.0,M,5.7,M,7.6,M*28
MSG 0 47082.284 $PGRMB,0.0,200,,,,K,,N,N*31
MSG 0 47082.344 $PGRMM,WGS 84*06
MSG 0 47082.659 $GPRMC,170603,A,4305.7751,N,07038.8037,W,000.6,131.5,030712,016.1,W*72
POS 0 47163.000 365986.330 4772819.437
QUA 0 47163.000 7 9.200 0.800 11.000 1.000 0.000 0.000 0.000
RAW 0 47163.000 4 430577.51000 -703880.37000 -23.70000 170603.00000
MSG 0 47082.809 $GPGGA,170603,4305.7751,N,07038.8037,W,1,11,0.8,8.7,M,-32.4,M,,*7A
MSG 0 47082.951 $GPGSA,A,3,,06,10,13,16,20,21,23,29,30,31,32,1.1,0.8,0.8*3B
MSG 0 47083.078 $GPGSV,3,1,12,03,43,176,32,06,51,152,49,10,06,320,39,13,35,312,47*7F
MSG 0 47083.224 $PGRME,5.0,M,5.7,M,7.6,M*28
MSG 0 47083.284 $PGRMB,0.0,200,,,,K,,N,N*31
MSG 0 47083.344 $PGRMM,WGS 84*06
MSG 0 47083.658 $GPRMC,170604,A,4305.7752,N,07038.8036,W,000.4,097.5,030712,016.1,W*78
POS 0 47164.000 365986.469 4772819.620
QUA 0 47164.000 7 9.200 0.800 11.000 1.000 0.000 0.000 0.000
RAW 0 47164.000 4 430577.52000 -703880.36000 -23.30000 170604.00000
MSG 0 47083.808 $GPGGA,170604,4305.7752,N,07038.8036,W,1,11,0.8,9.1,M,-32.4,M,,*78
MSG 0 47083.950 $GPGSA,A,3,,06,10,13,16,20,21,23,29,30,31,32,1.1,0.8,0.8*3B
MSG 0 47084.077 $GPGSV,3,2,12,16,82,344,48,20,07,236,42,21,06,075,39,23,60,275,51*73
MSG 0 47084.223 $PGRME,5.0,M,5.7,M,7.6,M*28
MSG 0 47084.283 $PGRMB,0.0,200,,,,K,,N,N*31
MSG 0 47084.343 $PGRMM,WGS 84*06
MSG 0 47084.658 $GPRMC,170605,A,4305.7750,N,07038.8035,W,000.5,151.7,030712,016.1,W*70
POS 0 47165.000 365986.597 4772819.247
QUA 0 47165.000 7 9.200 0.800 11.000 1.000 0.000 0.000 0.000
RAW 0 47165.000 4 430577.50000 -703880.35000 -23.30000 170605.00000
MSG 0 47084.808 $GPGGA,170605,4305.7750,N,07038.8035,W,1,11,0.8,9.1,M,-32.4,M,,*78
MSG 0 47084.950 $GPGSA,A,3,,06,10,13,16,20,21,23,29,30,31,32,1.1,0.8,0.8*3B
MSG 0 47085.077 $GPGSV,3,3,12,29,01,030,46,30,56,050,49,31,25,101,47,32,04,212,40*7F
MSG 0 47085.223 $PGRME,5.0,M,5.7,M,7.6,M*28
MSG 0 47085.283 $PGRMB,0.0,200,,,,K,,N,N*31
MSG 0 47085.343 $PGRMM,WGS 84*06
MSG 0 47085.658 $GPRMC,170606,A,4305.7749,N,07038.8035,W,000.4,156.2,030712,016.1,W*78
POS 0 47166.000 365986.594 4772819.062
QUA 0 47166.000 7 9.200 0.800 11.000 1.000 0.000 0.000 0.000
RAW 0 47166.000 4 430577.49000 -703880.35000 -23.50000 170606.00000
MSG 0 47085.808 $GPGGA,170606,4305.7749,N,07038.8035,W,1,11,0.8,8.9,M,-32.4,M,,*7A
MSG 0 47085.950 $GPGSA,A,3,,06,10,13,16,20,21,23,29,30,31,32,1.1,0.8,0.8*3B
MSG 0 47086.077 $GPGSV,3,1,12,03,43,176,32,06,51,152,49,10,06,320,42,13,35,312,47*73
MSG 0 47086.223 $PGRME,5.0,M,5.7,M,7.6,M*28
MSG 0 47086.283 $PGRMB,0.0,200,,,,K,,N,N*31
MSG 0 47086.343 $PGRMM,WGS 84*06
MSG 0 47086.659 $GPRMC,170607,A,4305.7749,N,07038.8035,W,000.2,144.1,030712,016.1,W*7F
POS 0 47167.000 365986.594 4772819.062
QUA 0 47167.000 7 9.200 0.800 11.000 1.000 0.000 0.000 0.000
RAW 0 47167.000 4 430577.49000 -703880.35000 -23.60000 170607.00000
MSG 0 47086.809 $GPGGA,170607,4305.7749,N,07038.8035,W,1,11,0.8,8.8,M,-32.4,M,,*7A
MSG 0 47086.951 $GPGSA,A,3,,06,10,13,16,20,21,23,29,30,31,32,1.1,0.8,0.8*3B
MSG 0 47087.078 $GPGSV,3,2,12,16,82,344,48,20,07,236,42,21,06,075,39,23,60,275,51*73
MSG 0 47087.224 $PGRME,5.0,M,5.7,M,7.6,M*28
MSG 0 47087.284 $PGRMB,0.0,200,,,,K,,N,N*31
MSG 0 47087.344 $PGRMM,WGS 84*06
MSG 0 47087.658 $GPRMC,170608,A,4305.7747,N,07038.8032,W,000.5,139.0,030712,016.1,W*75
POS 0 47168.000 365986.993 4772818.684
QUA 0 47168.000 7 9.200 0.800 11.000 1.000 0.000 0.000 0.000
RAW 0 47168.000 4 430577.47000 -703880.32000 -23.50000 170608.00000
MSG 0 47087.808 $GPGGA,170608,4305.7747,N,07038.8032,W,1,11,0.8,8.9,M,-32.4,M,,*7D
MSG 0 47087.950 $GPGSA,A,3,,06,10,13,16,20,21,23,29,30,31,32,1.1,0.8,0.8*3B
MSG 0 47088.077 $GPGSV,3,3,12,29,01,030,45,30,56,050,49,31,25,101,46,32,04,212,41*7C
MSG 0 47088.223 $PGRME,5.0,M,5.7,M,7.6,M*28
MSG 0 47088.283 $PGRMB,0.0,200,,,,K,,N,N*31
MSG 0 47088.343 $PGRMM,WGS 84*06
MSG 0 47088.659 $GPRMC,170609,A,4305.7745,N,07038.8031,W,000.7,155.1,030712,016.1,W*7C
POS 0 47169.000 365987.122 4772818.311
QUA 0 47169.000 7 9.200 0.800 11.000 1.000 0.000 0.000 0.000
RAW 0 47169.000 4 430577.45000 -703880.31000 -23.30000 170609.00000
MSG 0 47088.809 $GPGGA,170609,4305.7745,N,07038.8031,W,1,11,0.8,9.1,M,-32.4,M,,*74
MSG 0 47088.951 $GPGSA,A,3,,06,10,13,16,20,21,23,29,30,31,32,1.1,0.8,0.8*3B
MSG 0 47089.078 $GPGSV,3,1,12,03,43,176,32,06,52,152,49,10,06,320,38,13,35,312,46*7C
MSG 0 47089.224 $PGRME,5.0,M,5.7,M,7.6,M*28
MSG 0 47089.284 $PGRMB,0.0,200,,,,K,,N,N*31
MSG 0 47089.344 $PGRMM,WGS 84*06
MSG 0 47089.660 $GPRMC,170610,A,4305.7746,N,07038.8030,W,000.3,125.1,030712,016.1,W*75
POS 0 47170.000 365987.261 4772818.493
QUA 0 47170.000 7 9.200 0.800 11.000 1.000 0.000 0.000 0.000
RAW 0 47170.000 4 430577.46000 -703880.30000 -23.10000 170610.00000
MSG 0 47089.810 $GPGGA,170610,4305.7746,N,07038.8030,W,1,11,0.8,9.3,M,-32.4,M,,*7C
MSG 0 47089.951 $GPGSA,A,3,,06,10,13,16,20,21,23,29,30,31,32,1.1,0.8,0.8*3B
MSG 0 47090.079 $GPGSV,3,2,12,16,82,344,48,20,07,236,41,21,06,075,38,23,60,275,51*71
MSG 0 47090.224 $PGRME,5.0,M,5.7,M,7.6,M*28
MSG 0 47090.285 $PGRMB,0.0,200,,,,K,,N,N*31
MSG 0 47090.345 $PGRMM,WGS 84*06
MSG 0 47090.659 $GPRMC,170611,A,4305.7746,N,07038.8030,W,000.2,118.9,030712,016.1,W*73
POS 0 47171.000 365987.261 4772818.493
QUA 0 47171.000 7 9.200 0.800 11.000 1.000 0.000 0.000 0.000
RAW 0 47171.000 4 430577.46000 -703880.30000 -23.30000 170611.00000
MSG 0 47090.809 $GPGGA,170611,4305.7746,N,07038.8030,W,1,11,0.8,9.1,M,-32.4,M,,*7F
MSG 0 47090.951 $GPGSA,A,3,,06,10,13,16,20,21,23,29,30,31,32,1.1,0.8,0.8*3B
MSG 0 47091.078 $GPGSV,3,3,12,29,01,030,44,30,56,050,49,31,25,101,44,32,04,212,42*7C
MSG 0 47091.223 $PGRME,5.0,M,5.7,M,7.6,M*28
MSG 0 47091.284 $PGRMB,0.0,200,,,,K,,N,N*31
MSG 0 47091.344 $PGRMM,WGS 84*06
MSG 0 47091.656 $GPRMC,170612,A,4305.7744,N,07038.8028,W,000.5,140.5,030712,016.1,W*7D
POS 0 47172.000 365987.525 4772818.118
QUA 0 47172.000 7 9.200 0.800 11.000 1.000 0.000 0.000 0.000
RAW 0 47172.000 4 430577.44000 -703880.28000 -23.60000 170612.00000
MSG 0 47091.806 $GPGGA,170612,4305.7744,N,07038.8028,W,1,11,0.8,8.8,M,-32.4,M,,*7F
MSG 0 47091.947 $GPGSA,A,3,,06,10,13,16,20,21,23,29,30,31,32,1.1,0.8,0.8*3B
MSG 0 47092.074 $GPGSV,3,1,12,03,43,176,32,06,52,152,49,10,06,320,39,13,35,312,46*7D
MSG 0 47092.220 $PGRME,5.0,M,5.7,M,7.6,M*28
MSG 0 47092.281 $PGRMB,0.0,200,,,,K,,N,N*31
MSG 0 47092.341 $PGRMM,WGS 84*06
MSG 0 47092.658 $GPRMC,170613,A,4305.7743,N,07038.8027,W,000.5,142.3,030712,016.1,W*70
POS 0 47173.000 365987.657 4772817.930
QUA 0 47173.000 7 9.200 0.800 11.000 1.000 0.000 0.000 0.000
RAW 0 47173.000 4 430577.43000 -703880.27000 -23.60000 170613.00000
MSG 0 47092.808 $GPGGA,170613,4305.7743,N,07038.8027,W,1,11,0.8,8.8,M,-32.4,M,,*76
MSG 0 47092.949 $GPGSA,A,3,,06,10,13,16,20,21,23,29,30,31,32,1.1,0.8,0.8*3B
MSG 0 47093.076 $GPGSV,3,2,12,16,82,344,48,20,07,236,42,21,06,075,38,23,60,275,51*72
MSG 0 47093.222 $PGRME,5.0,M,5.7,M,7.6,M*28
MSG 0 47093.282 $PGRMB,0.0,200,,,,K,,N,N*31
MSG 0 47093.343 $PGRMM,WGS 84*06
MSG 0 47093.657 $GPRMC,170614,A,4305.7742,N,07038.8025,W,000.6,134.2,030712,016.1,W*77
POS 0 47174.000 365987.924 4772817.739
QUA 0 47174.000 7 9.200 0.800 11.000 1.000 0.000 0.000 0.000
RAW 0 47174.000 4 430577.42000 -703880.25000 -23.30000 170614.00000
MSG 0 47093.807 $GPGGA,170614,4305.7742,N,07038.8025,W,1,11,0.8,9.1,M,-32.4,M,,*7A
MSG 0 47093.948 $GPGSA,A,3,,06,10,13,16,20,21,23,29,30,31,32,1.1,0.8,0.8*3B
MSG 0 47094.076 $GPGSV,3,3,12,29,01,030,42,30,56,050,49,31,25,101,44,32,04,212,43*7B
MSG 0 47094.221 $PGRME,5.0,M,5.7,M,7.6,M*28
MSG 0 47094.282 $PGRMB,0.0,200,,,,K,,N,N*31
MSG 0 47094.342 $PGRMM,WGS 84*06
MSG 0 47094.657 $GPRMC,170615,A,4305.7742,N,07038.8024,W,000.4,145.9,030712,016.1,W*78
POS 0 47175.000 365988.060 4772817.737
QUA 0 47175.000 7 9.200 0.800 11.000 1.000 0.000 0.000 0.000
RAW 0 47175.000 4 430577.42000 -703880.24000 -23.10000 170615.00000
MSG 0 47094.807 $GPGGA,170615,4305.7742,N,07038.8024,W,1,11,0.8,9.3,M,-32.4,M,,*78
MSG 0 47094.949 $GPGSA,A,3,,06,10,13,16,20,21,23,29,30,31,32,1.1,0.8,0.8*3B
MSG 0 47095.076 $GPGSV,3,1,12,03,43,176,32,06,52,152,49,10,06,320,39,13,35,312,45*7E
MSG 0 47095.222 $PGRME,5.0,M,5.7,M,7.6,M*28
MSG 0 47095.282 $PGRMB,0.0,200,,,,K,,N,N*31
MSG 0 47095.342 $PGRMM,WGS 84*06
MSG 0 47095.658 $GPRMC,170616,A,4305.7739,N,07038.8024,W,000.6,165.7,030712,016.1,W*79
POS 0 47176.000 365988.049 4772817.181
QUA 0 47176.000 7 9.200 0.800 11.000 1.000 0.000 0.000 0.000
RAW 0 47176.000 4 430577.39000 -703880.24000 -23.20000 170616.00000
MSG 0 47095.808 $GPGGA,170616,4305.7739,N,07038.8024,W,1,11,0.8,9.2,M,-32.4,M,,*76
MSG 0 47095.950 $GPGSA,A,3,,06,10,13,16,20,21,23,29,30,31,32,1.1,0.8,0.8*3B
MSG 0 47096.077 $GPGSV,3,2,12,16,82,344,48,20,07,236,43,21,06,075,36,23,60,275,51*7D
MSG 0 47096.222 $PGRME,5.0,M,5.7,M,7.6,M*28
MSG 0 47096.283 $PGRMB,0.0,200,,,,K,,N,N*31
MSG 0 47096.343 $PGRMM,WGS 84*06
MSG 0 47096.657 $GPRMC,170617,A,4305.7739,N,07038.8024,W,000.3,156.6,030712,016.1,W*7C
POS 0 47177.000 365988.049 4772817.181
QUA 0 47177.000 7 9.200 0.800 11.000 1.000 0.000 0.000 0.000
RAW 0 47177.000 4 430577.39000 -703880.24000 -23.20000 170617.00000
MSG 0 47096.807 $GPGGA,170617,4305.7739,N,07038.8024,W,1,11,0.8,9.2,M,-32.4,M,,*77
MSG 0 47096.949 $GPGSA,A,3,,06,10,13,16,20,21,23,29,30,31,32,1.1,0.8,0.8*3B
MSG 0 47097.076 $GPGSV,3,3,12,29,01,030,40,30,56,050,49,31,25,101,44,32,04,212,42*78
MSG 0 47097.222 $PGRME,5.0,M,5.7,M,7.6,M*28
MSG 0 47097.282 $PGRMB,0.0,200,,,,K,,N,N*31
MSG 0 47097.343 $PGRMM,WGS 84*06
MSG 0 47097.657 $GPRMC,170618,A,4305.7740,N,07038.8022,W,000.2,094.7,030712,016.1,W*74
POS 0 47178.000 365988.324 4772817.361
QUA 0 47178.000 7 9.200 0.800 11.000 1.000 0.000 0.000 0.000
RAW 0 47178.000 4 430577.40000 -703880.22000 -23.10000 170618.00000
MSG 0 47097.807 $GPGGA,170618,4305.7740,N,07038.8022,W,1,11,0.8,9.3,M,-32.4,M,,*71
MSG 0 47097.949 $GPGSA,A,3,,06,10,13,16,20,21,23,29,30,31,32,1.1,0.8,0.8*3B
MSG 0 47098.075 $GPGSV,3,1,12,03,43,176,32,06,52,152,49,10,06,320,40,13,35,312,45*70
MSG 0 47098.221 $PGRME,5.0,M,5.7,M,7.6,M*28
MSG 0 47098.281 $PGRMB,0.0,200,,,,K,,N,N*31
MSG 0 47098.342 $PGRMM,WGS 84*06
MSG 0 47098.655 $GPRMC,170619,A,4305.7738,N,07038.8021,W,000.5,157.6,030712,016.1,W*71
POS 0 47179.000 365988.453 4772816.988
QUA 0 47179.000 7 9.200 0.800 11.000 1.000 0.000 0.000 0.000
RAW 0 47179.000 4 430577.38000 -703880.21000 -23.40000 170619.00000
MSG 0 47098.805 $GPGGA,170619,4305.7738,N,07038.8021,W,1,11,0.8,9.0,M,-32.4,M,,*7F
MSG 0 47098.947 $GPGSA,A,3,,06,10,13,16,20,21,23,29,30,31,32,1.1,0.8,0.8*3B
MSG 0 47099.074 $GPGSV,3,2,12,16,82,344,48,20,07,236,42,21,06,075,36,23,60,275,51*7C
MSG 0 47099.220 $PGRME,5.0,M,5.7,M,7.6,M*28
MSG 0 47099.280 $PGRMB,0.0,200,,,,K,,N,N*31
MSG 0 47099.340 $PGRMM,WGS 84*06
MSG 0 47099.657 $GPRMC,170620,A,4305.7737,N,07038.8020,W,000.6,146.3,030712,016.1,W*73
POS 0 47180.000 365988.585 4772816.801
QUA 0 47180.000 7 9.200 0.800 11.000 1.000 0.000 0.000 0.000
RAW 0 47180.000 4 430577.37000 -703880.20000 -23.60000 170620.00000
MSG 0 47099.806 $GPGGA,170620,4305.7737,N,07038.8020,W,1,11,0.8,8.8,M,-32.4,M,,*72
MSG 0 47099.948 $GPGSA,A,3,,06,10,13,16,20,21,23,29,30,31,32,1.1,0.8,0.8*3B
MSG 0 47100.075 $GPGSV,3,3,12,29,01,030,39,30,56,050,48,31,25,101,46,32,04,212,43*74
MSG 0 47100.221 $PGRME,5.0,M,5.7,M,7.6,M*28
MSG 0 47100.281 $PGRMB,0.0,200,,,,K,,N,N*31
MSG 0 47100.342 $PGRMM,WGS 84*06
MSG 0 47100.657 $GPRMC,170621,A,4305.7737,N,07038.8018,W,000.4,117.0,030712,016.1,W*7C
POS 0 47181.000 365988.856 4772816.795
QUA 0 47181.000 7 9.200 0.800 11.000 1.000 0.000 0.000 0.000
RAW 0 47181.000 4 430577.37000 -703880.18000 -23.40000 170621.00000
MSG 0 47100.807 $GPGGA,170621,4305.7737,N,07038.8018,W,1,11,0.8,9.0,M,-32.4,M,,*71
MSG 0 47100.948 $GPGSA,A,3,,06,10,13,16,20,21,23,29,30,31,32,1.1,0.8,0.8*3B
MSG 0 47101.075 $GPGSV,3,1,12,03,43,176,32,06,52,152,49,10,06,320,39,13,35,312,46*7D
MSG 0 47101.221 $PGRME,5.0,M,5.7,M,7.6,M*28
MSG 0 47101.281 $PGRMB,0.0,200,,,,K,,N,N*31
MSG 0 47101.342 $PGRMM,WGS 84*06
MSG 0 47101.658 $GPRMC,170622,A,4305.7736,N,07038.8017,W,000.5,138.1,030712,016.1,W*7C
POS 0 47182.000 365988.988 4772816.608
QUA 0 47182.000 7 9.200 0.800 11.000 1.000 0.000 0.000 0.000
RAW 0 47182.000 4 430577.36000 -703880.17000 -23.00000 170622.00000
MSG 0 47101.808 $GPGGA,170622,4305.7736,N,07038.8017,W,1,11,0.8,9.4,M,-32.4,M,,*78
MSG 0 47101.949 $GPGSA,A,3,,06,10,13,16,20,21,23,29,30,31,32,1.1,0.8,0.8*3B
MSG 0 47102.076 $GPGSV,3,2,12,16,82,344,48,20,07,236,43,21,06,075,38,23,60,275,51*73
MSG 0 47102.222 $PGRME,5.0,M,5.7,M,7.6,M*28
MSG 0 47102.282 $PGRMB,0.0,200,,,,K,,N,N*31
MSG 0 47102.343 $PGRMM,WGS 84*06
MSG 0 47102.658 $GPRMC,170623,A,4305.7733,N,07038.8017,W,000.6,165.0,030712,016.1,W*72
POS 0 47183.000 365988.977 4772816.052
QUA 0 47183.000 7 9.200 0.800 11.000 1.000 0.000 0.000 0.000
RAW 0 47183.000 4 430577.33000 -703880.17000 -23.00000 170623.00000
MSG 0 47102.808 $GPGGA,170623,4305.7733,N,07038.8017,W,1,11,0.8,9.4,M,-32.4,M,,*7C
MSG 0 47102.949 $GPGSA,A,3,,06,10,13,16,20,21,23,29,30,31,32,1.1,0.8,0.8*3B
MSG 0 47103.076 $GPGSV,3,3,12,29,01,030,39,30,56,050,48,31,25,101,46,32,04,212,43*74
MSG 0 47103.222 $PGRME,5.0,M,5.7,M,7.6,M*28
MSG 0 47103.282 $PGRMB,0.0,200,,,,K,,N,N*31
MSG 0 47103.343 $PGRMM,WGS 84*06
MSG 0 47103.656 $GPRMC,170624,A,4305.7733,N,07038.8017,W,000.4,164.5,030712,016.1,W*73
POS 0 47184.000 365988.977 4772816.052
QUA 0 47184.000 7 9.200 0.800 11.000 1.000 0.000 0.000 0.000
RAW 0 47184.000 4 430577.33000 -703880.17000 -23.20000 170624.00000
MSG 0 47103.806 $GPGGA,170624,4305.7733,N,07038.8017,W,1,11,0.8,9.2,M,-32.4,M,,*7D
MSG 0 47103.948 $GPGSA,A,3,,06,10,13,16,20,21,23,29,30,31,32,1.1,0.8,0.8*3B
MSG 0 47104.075 $GPGSV,3,1,12,03,43,176,32,06,52,152,49,10,07,320,40,13,35,312,48*7C
MSG 0 47104.221 $PGRME,5.0,M,5.7,M,7.6,M*28
MSG 0 47104.281 $PGRMB,0.0,200,,,,K,,N,N*31
MSG 0 47104.341 $PGRMM,WGS 84*06
MSG 0 47104.659 $GPRMC,170625,A,4305.7733,N,07038.8016,W,000.3,143.2,030712,016.1,W*76
POS 0 47185.000 365989.113 4772816.050
QUA 0 47185.000 7 9.200 0.800 11.000 1.000 0.000 0.000 0.000
RAW 0 47185.000 4 430577.33000 -703880.16000 -23.30000 170625.00000
MSG 0 47104.809 $GPGGA,170625,4305.7733,N,07038.8016,W,1,11,0.8,9.1,M,-32.4,M,,*7E
MSG 0 47104.950 $GPGSA,A,3,,06,10,13,16,20,21,23,29,30,31,32,1.1,0.8,0.8*3B
MSG 0 47105.077 $GPGSV,3,2,12,16,82,344,48,20,07,236,42,21,06,075,38,23,60,275,50*73
MSG 0 47105.223 $PGRME,5.0,M,5.7,M,7.6,M*28
MSG 0 47105.283 $PGRMB,0.0,200,,,,K,,N,N*31
MSG 0 47105.344 $PGRMM,WGS 84*06
MSG 0 47105.659 $GPRMC,170626,A,4305.7731,N,07038.8014,W,000.5,151.3,030712,016.1,W*71
POS 0 47186.000 365989.377 4772815.674
QUA 0 47186.000 7 9.200 0.800 11.000 1.000 0.000 0.000 0.000
RAW 0 47186.000 4 430577.31000 -703880.14000 -23.30000 170626.00000
MSG 0 47105.808 $GPGGA,170626,4305.7731,N,07038.8014,W,1,11,0.8,9.1,M,-32.4,M,,*7D
MSG 0 47105.950 $GPGSA,A,3,,06,10,13,16,20,21,23,29,30,31,32,1.1,0.8,0.8*3B
MSG 0 47106.077 $GPGSV,3,3,12,29,01,030,38,30,56,050,48,31,25,101,46,32,04,212,44*72
MSG 0 47106.223 $PGRME,5.0,M,5.7,M,7.6,M*28
MSG 0 47106.283 $PGRMB,0.0,200,,,,K,,N,N*31
MSG 0 47106.344 $PGRMM,WGS 84*06
MSG 0 47106.656 $GPRMC,170627,A,4305.7730,N,07038.8013,W,000.6,147.6,030712,016.1,W*77
POS 0 47187.000 365989.509 4772815.486
QUA 0 47187.000 7 9.200 0.800 11.000 1.000 0.000 0.000 0.000
RAW 0 47187.000 4 430577.30000 -703880.13000 -23.40000 170627.00000
MSG 0 47106.806 $GPGGA,170627,4305.7730,N,07038.8013,W,1,11,0.8,9.0,M,-32.4,M,,*7B
MSG 0 47106.948 $GPGSA,A,3,,06,10,13,16,20,21,23,29,30,31,32,1.1,0.8,0.8*3B
MSG 0 47107.075 $GPGSV,3,1,12,03,43,176,32,06,52,152,49,10,07,320,40,13,35,312,48*7C
MSG 0 47107.221 $PGRME,5.0,M,5.7,M,7.6,M*28
MSG 0 47107.281 $PGRMB,0.0,200,,,,K,,N,N*31
MSG 0 47107.342 $PGRMM,WGS 84*06
MSG 0 47107.658 $GPRMC,170628,A,4305.7731,N,07038.8011,W,000.3,104.8,030712,016.1,W*77
POS 0 47188.000 365989.783 4772815.666
QUA 0 47188.000 7 9.200 0.800 11.000 1.000 0.000 0.000 0.000
RAW 0 47188.000 4 430577.31000 -703880.11000 -23.00000 170628.00000
MSG 0 47107.808 $GPGGA,170628,4305.7731,N,07038.8011,W,1,11,0.8,9.4,M,-32.4,M,,*73
MSG 0 47107.949 $GPGSA,A,3,,06,10,13,16,20,21,23,29,30,31,32,1.1,0.8,0.8*3B
MSG 0 47108.076 $GPGSV,3,2,12,16,82,344,48,20,07,236,41,21,06,075,38,23,60,275,50*70
MSG 0 47108.222 $PGRME,5.0,M,5.7,M,7.6,M*28
MSG 0 47108.282 $PGRMB,0.0,200,,,,K,,N,N*31
MSG 0 47108.343 $PGRMM,WGS 84*06
MSG 0 47108.665 $GPRMC,170629,A,4305.7730,N,07038.8011,W,000.3,148.6,030712,016.1,W*71
POS 0 47189.000 365989.780 4772815.481
QUA 0 47189.000 7 9.200 0.800 11.000 1.000 0.000 0.000 0.000
RAW 0 47189.000 4 430577.30000 -703880.11000 -23.10000 170629.00000
MSG 0 47108.815 $GPGGA,170629,4305.7730,N,07038.8011,W,1,11,0.8,9.3,M,-32.4,M,,*74
MSG 0 47108.956 $GPGSA,A,3,,06,10,13,16,20,21,23,29,30,31,32,1.1,0.8,0.8*3B
MSG 0 47109.083 $GPGSV,3,3,12,29,01,030,00,30,56,050,48,31,25,101,46,32,04,212,44*79
MSG 0 47109.229 $PGRME,5.0,M,5.7,M,7.6,M*28
MSG 0 47109.290 $PGRMB,0.0,200,,,,K,,N,N*31
MSG 0 47109.350 $PGRMM,WGS 84*06
MSG 0 47109.679 $GPRMC,170630,A,4305.7727,N,07038.8010,W,000.6,160.7,030712,016.1,W*70
POS 0 47190.000 365989.905 4772814.923
QUA 0 47190.000 7 9.200 0.800 11.000 1.000 0.000 0.000 0.000
RAW 0 47190.000 4 430577.27000 -703880.10000 -23.40000 170630.00000
MSG 0 47109.829 $GPGGA,170630,4305.7727,N,07038.8010,W,1,11,0.8,9.0,M,-32.4,M,,*78
MSG 0 47109.971 $GPGSA,A,3,,06,10,13,16,20,21,23,29,30,31,32,1.1,0.8,0.8*3B
MSG 0 47110.098 $GPGSV,3,1,12,03,43,176,32,06,52,152,50,10,07,320,40,13,35,312,48*74
MSG 0 47110.243 $PGRME,5.0,M,5.7,M,7.6,M*28
MSG 0 47110.304 $PGRMB,0.0,200,,,,K,,N,N*31
MSG 0 47110.364 $PGRMM,WGS 84*06
MSG 0 47110.658 $GPRMC,170631,A,4305.7728,N,07038.8008,W,000.4,110.9,030712,016.1,W*7C
POS 0 47191.000 365990.179 4772815.103
QUA 0 47191.000 7 9.200 0.800 11.000 1.000 0.000 0.000 0.000
RAW 0 47191.000 4 430577.28000 -703880.08000 -23.20000 170631.00000
MSG 0 47110.808 $GPGGA,170631,4305.7728,N,07038.8008,W,1,11,0.8,9.2,M,-32.4,M,,*7D
MSG 0 47110.950 $GPGSA,A,3,,06,10,13,16,20,21,23,29,30,31,32,1.1,0.8,0.8*3B
MSG 0 47111.077 $GPGSV,3,2,12,16,82,344,48,20,07,236,41,21,06,075,37,23,60,275,50*7F
MSG 0 47111.223 $PGRME,5.0,M,5.7,M,7.6,M*28
MSG 0 47111.283 $PGRMB,0.0,200,,,,K,,N,N*31
MSG 0 47111.343 $PGRMM,WGS 84*06
MSG 0 47111.658 $GPRMC,170632,A,4305.7728,N,07038.8007,W,000.4,120.1,030712,016.1,W*7B
POS 0 47192.000 365990.315 4772815.100
QUA 0 47192.000 7 9.200 0.800 11.000 1.000 0.000 0.000 0.000
RAW 0 47192.000 4 430577.28000 -703880.07000 -23.40000 170632.00000
MSG 0 47111.808 $GPGGA,170632,4305.7728,N,07038.8007,W,1,11,0.8,9.0,M,-32.4,M,,*73
MSG 0 47111.949 $GPGSA,A,3,,06,10,13,16,20,21,23,29,30,31,32,1.1,0.8,0.8*3B
MSG 0 47112.076 $GPGSV,3,3,12,29,01,030,35,30,56,050,48,31,25,101,45,32,04,212,45*7D
MSG 0 47112.222 $PGRME,5.0,M,5.7,M,7.6,M*28
MSG 0 47112.282 $PGRMB,0.0,200,,,,K,,N,N*31
MSG 0 47112.343 $PGRMM,WGS 84*06
MSG 0 47112.656 $GPRMC,170633,A,4305.7725,N,07038.8006,W,000.7,156.9,030712,016.1,W*7C
POS 0 47193.000 365990.440 4772814.542
QUA 0 47193.000 7 9.200 0.800 11.000 1.000 0.000 0.000 0.000
RAW 0 47193.000 4 430577.25000 -703880.06000 -23.40000 170633.00000
MSG 0 47112.806 $GPGGA,170633,4305.7725,N,07038.8006,W,1,11,0.8,9.0,M,-32.4,M,,*7E
MSG 0 47112.948 $GPGSA,A,3,,06,10,13,16,20,21,23,29,30,31,32,1.1,0.8,0.8*3B
MSG 0 47113.075 $GPGSV,3,1,12,03,43,176,32,06,52,152,50,10,07,320,40,13,35,312,49*75
MSG 0 47113.220 $PGRME,5.0,M,5.7,M,7.6,M*28
MSG 0 47113.281 $PGRMB,0.0,200,,,,K,,N,N*31
MSG 0 47113.341 $PGRMM,WGS 84*06
MSG 0 47113.670 $GPRMC,170634,A,4305.7724,N,07038.8006,W,000.4,162.8,030712,016.1,W*7F
POS 0 47194.000 365990.436 4772814.357
QUA 0 47194.000 7 9.200 0.800 11.000 1.000 0.000 0.000 0.000
RAW 0 47194.000 4 430577.24000 -703880.06000 -23.40000 170634.00000
MSG 0 47113.820 $GPGGA,170634,4305.7724,N,07038.8006,W,1,11,0.8,9.0,M,-32.4,M,,*78
MSG 0 47113.962 $GPGSA,A,3,,06,10,13,16,20,21,23,29,30,31,32,1.1,0.8,0.8*3B
MSG 0 47114.089 $GPGSV,3,2,12,16,82,344,48,20,07,236,40,21,06,075,39,23,60,275,49*78
MSG 0 47114.234 $PGRME,5.0,M,5.7,M,7.6,M*28
MSG 0 47114.295 $PGRMT,GPS 17-HVS Ver. 2.80,P,P,R,R,P,,40,R*0F
MSG 0 47114.395 $PGRMB,0.0,200,,,,K,,N,N*31
MSG 0 47114.455 $PGRMM,WGS 84*06
MSG 0 47114.657 $GPRMC,170635,A,4305.7726,N,07038.8005,W,000.2,079.8,030712,016.1,W*72
POS 0 47195.000 365990.579 4772814.725
QUA 0 47195.000 7 9.200 0.800 11.000 1.000 0.000 0.000 0.000
RAW 0 47195.000 4 430577.26000 -703880.05000 -23.10000 170635.00000
MSG 0 47114.807 $GPGGA,170635,4305.7726,N,07038.8005,W,1,11,0.8,9.3,M,-32.4,M,,*7B
MSG 0 47114.949 $GPGSA,A,3,,06,10,13,16,20,21,23,29,30,31,32,1.1,0.8,0.8*3B
MSG 0 47115.076 $GPGSV,3,3,12,29,01,030,39,30,56,050,48,31,25,101,44,32,04,212,45*70
MSG 0 47115.222 $PGRME,5.0,M,5.7,M,7.6,M*28
MSG 0 47115.282 $PGRMB,0.0,200,,,,K,,N,N*31
MSG 0 47115.342 $PGRMM,WGS 84*06
MSG 0 47115.657 $GPRMC,170636,A,4305.7723,N,07038.8005,W,000.5,172.8,030712,016.1,W*79
POS 0 47196.000 365990.568 4772814.169
QUA 0 47196.000 7 9.200 0.800 11.000 1.000 0.000 0.000 0.000
RAW 0 47196.000 4 430577.23000 -703880.05000 -23.50000 170636.00000
MSG 0 47115.807 $GPGGA,170636,4305.7723,N,07038.8005,W,1,11,0.8,8.9,M,-32.4,M,,*76
MSG 0 47115.949 $GPGSA,A,3,,06,10,13,16,20,21,23,29,30,31,32,1.1,0.8,0.8*3B
MSG 0 47116.076 $GPGSV,3,1,12,03,43,176,32,06,52,152,50,10,07,320,41,13,35,312,49*74
MSG 0 47116.221 $PGRME,5.0,M,5.7,M,7.6,M*28
MSG 0 47116.282 $PGRMB,0.0,200,,,,K,,N,N*31
MSG 0 47116.342 $PGRMM,WGS 84*06
MSG 0 47116.657 $GPRMC,170637,A,4305.7721,N,07038.8004,W,000.6,167.4,030712,016.1,W*70
POS 0 47197.000 365990.697 4772813.797
QUA 0 47197.000 7 9.200 0.800 11.000 1.000 0.000 0.000 0.000
RAW 0 47197.000 4 430577.21000 -703880.04000 -23.70000 170637.00000
MSG 0 47116.807 $GPGGA,170637,4305.7721,N,07038.8004,W,1,11,0.8,8.7,M,-32.4,M,,*7A
MSG 0 47116.949 $GPGSA,A,3,,06,10,13,16,20,21,23,29,30,31,32,1.1,0.8,0.8*3B
MSG 0 47117.076 $GPGSV,3,2,12,16,82,344,48,20,07,236,37,21,06,075,39,23,60,275,49*78
MSG 0 47117.222 $PGRME,5.0,M,5.7,M,7.6,M*28
MSG 0 47117.282 $PGRMB,0.0,200,,,,K,,N,N*31
MSG 0 47117.342 $PGRMM,WGS 84*06
MSG 0 47117.658 $GPRMC,170638,A,4305.7723,N,07038.8001,W,000.4,099.3,030712,016.1,W*7D
POS 0 47198.000 365991.111 4772814.159
QUA 0 47198.000 7 9.200 0.800 11.000 1.000 0.000 0.000 0.000
RAW 0 47198.000 4 430577.23000 -703880.01000 -23.60000 170638.00000
MSG 0 47117.808 $GPGGA,170638,4305.7723,N,07038.8001,W,1,11,0.8,8.8,M,-32.4,M,,*7D
MSG 0 47117.950 $GPGSA,A,3,,06,10,13,16,20,21,23,29,30,31,32,1.1,0.8,0.8*3B
MSG 0 47118.077 $GPGSV,3,3,12,29,01,030,40,30,56,050,48,31,25,101,43,32,04,212,45*79
MSG 0 47118.222 $PGRME,5.0,M,5.7,M,7.6,M*28
MSG 0 47118.283 $PGRMB,0.0,200,,,,K,,N,N*31
MSG 0 47118.343 $PGRMM,WGS 84*06
MSG 0 47118.656 $GPRMC,170639,A,4305.7721,N,07038.8001,W,000.4,143.0,030712,016.1,W*7B
POS 0 47199.000 365991.103 4772813.789
QUA 0 47199.000 7 9.200 0.800 11.000 1.000 0.000 0.000 0.000
RAW 0 47199.000 4 430577.21000 -703880.01000 -23.30000 170639.00000
MSG 0 47118.806 $GPGGA,170639,4305.7721,N,07038.8001,W,1,11,0.8,9.1,M,-32.4,M,,*76
MSG 0 47118.947 $GPGSA,A,3,,06,10,13,16,20,21,23,29,30,31,32,1.1,0.8,0.8*3B
MSG 0 47119.074 $GPGSV,3,1,12,03,43,176,32,06,52,152,50,10,07,320,39,13,35,312,49*7B
MSG 0 47119.220 $PGRME,5.0,M,5.7,M,7.6,M*28
MSG 0 47119.280 $PGRMB,0.0,200,,,,K,,N,N*31
MSG 0 47119.341 $PGRMM,WGS 84*06
MSG 0 47119.656 $GPRMC,170640,A,4305.7718,N,07038.8000,W,000.7,163.8,030712,016.1,W*77
POS 0 47200.000 365991.228 4772813.231
QUA 0 47200.000 7 9.200 0.800 11.000 1.000 0.000 0.000 0.000
RAW 0 47200.000 4 430577.18000 -703880.00000 -23.30000 170640.00000
MSG 0 47119.806 $GPGGA,170640,4305.7718,N,07038.8000,W,1,11,0.8,9.1,M,-32.4,M,,*73
MSG 0 47119.948 $GPGSA,A,3,,06,10,13,16,20,21,23,29,30,31,32,1.1,0.8,0.8*3B
MSG 0 47120.075 $GPGSV,3,2,12,16,82,344,48,20,07,236,39,21,06,075,38,23,60,275,49*77
MSG 0 47120.220 $PGRME,5.0,M,5.7,M,7.6,M*28
MSG 0 47120.281 $PGRMB,0.0,200,,,,K,,N,N*31
MSG 0 47120.341 $PGRMM,WGS 84*06
MSG 0 47120.657 $GPRMC,170641,A,4305.7719,N,07038.7999,W,000.4,140.4,030712,016.1,W*7F
POS 0 47201.000 365991.367 4772813.413
QUA 0 47201.000 7 9.200 0.800 11.000 1.000 0.000 0.000 0.000
RAW 0 47201.000 4 430577.19000 -703879.99000 -23.20000 170641.00000
MSG 0 47120.807 $GPGGA,170641,4305.7719,N,07038.7999,W,1,11,0.8,9.2,M,-32.4,M,,*76
MSG 0 47120.949 $GPGSA,A,3,,06,10,13,16,20,21,23,29,30,31,32,1.1,0.8,0.8*3B
MSG 0 47121.076 $GPGSV,3,3,12,29,01,030,41,30,56,050,48,31,25,101,43,32,04,212,44*79
MSG 0 47121.222 $PGRME,5.0,M,5.7,M,7.6,M*28
MSG 0 47121.282 $PGRMB,0.0,200,,,,K,,N,N*31
MSG 0 47121.342 $PGRMM,WGS 84*06
MSG 0 47121.658 $GPRMC,170642,A,4305.7719,N,07038.7999,W,000.1,140.4,030712,016.1,W*79
POS 0 47202.000 365991.367 4772813.413
QUA 0 47202.000 7 9.200 0.800 11.000 1.000 0.000 0.000 0.000
RAW 0 47202.000 4 430577.19000 -703879.99000 -23.10000 170642.00000
MSG 0 47121.808 $GPGGA,170642,4305.7719,N,07038.7999,W,1,11,0.8,9.3,M,-32.4,M,,*74
MSG 0 47121.950 $GPGSA,A,3,,06,10,13,16,20,21,23,29,30,31,32,1.1,0.8,0.8*3B
MSG 0 47122.077 $GPGSV,3,1,12,03,43,176,32,06,52,152,50,10,07,320,39,13,35,312,48*7A
MSG 0 47122.223 $PGRME,5.0,M,5.7,M,7.6,M*28
MSG 0 47122.283 $PGRMB,0.0,200,,,,K,,N,N*31
MSG 0 47122.343 $PGRMM,WGS 84*06
MSG 0 47122.658 $GPRMC,170643,A,4305.7715,N,07038.7999,W,000.9,172.2,030712,016.1,W*7B
POS 0 47203.000 365991.353 4772812.673
QUA 0 47203.000 7 9.200 0.800 11.000 1.000 0.000 0.000 0.000
RAW 0 47203.000 4 430577.15000 -703879.99000 -23.50000 170643.00000
MSG 0 47122.808 $GPGGA,170643,4305.7715,N,07038.7999,W,1,11,0.8,8.9,M,-32.4,M,,*72
MSG 0 47122.949 $GPGSA,A,3,,06,10,13,16,20,21,23,29,30,31,32,1.1,0.8,0.8*3B
MSG 0 47123.077 $GPGSV,3,2,12,16,82,344,48,20,07,236,38,21,06,075,38,23,60,275,49*76
MSG 0 47123.222 $PGRME,5.0,M,5.7,M,7.6,M*28
MSG 0 47123.283 $PGRMB,0.0,200,,,,K,,N,N*31
MSG 0 47123.343 $PGRMM,WGS 84*06
MSG 0 47123.657 $GPRMC,170644,A,4305.7714,N,07038.7997,W,000.7,158.9,030712,016.1,W*7E
POS 0 47204.000 365991.621 4772812.482
QUA 0 47204.000 7 9.200 0.800 11.000 1.000 0.000 0.000 0.000
RAW 0 47204.000 4 430577.14000 -703879.97000 -23.60000 170644.00000
MSG 0 47123.807 $GPGGA,170644,4305.7714,N,07038.7997,W,1,11,0.8,8.8,M,-32.4,M,,*7B
MSG 0 47123.949 $GPGSA,A,3,,06,10,13,16,20,21,23,29,30,31,32,1.1,0.8,0.8*3B
MSG 0 47124.076 $GPGSV,3,3,12,29,01,030,43,30,56,050,48,31,25,101,43,32,04,212,44*7B
MSG 0 47124.221 $PGRME,5.0,M,5.7,M,7.6,M*28
MSG 0 47124.282 $PGRMB,0.0,200,,,,K,,N,N*31
MSG 0 47124.342 $PGRMM,WGS 84*06
MSG 0 47124.672 $GPRMC,170645,A,4305.7715,N,07038.7995,W,000.4,113.9,030712,016.1,W*70
POS 0 47205.000 365991.896 4772812.662
QUA 0 47205.000 7 9.200 0.800 11.000 1.000 0.000 0.000 0.000
RAW 0 47205.000 4 430577.15000 -703879.95000 -23.30000 170645.00000
MSG 0 47124.822 $GPGGA,170645,4305.7715,N,07038.7995,W,1,11,0.8,9.1,M,-32.4,M,,*71
MSG 0 47124.963 $GPGSA,A,3,,06,10,13,16,20,21,23,29,30,31,32,1.1,0.8,0.8*3B
MSG 0 47125.090 $GPGSV,3,1,12,03,43,176,32,06,52,152,50,10,07,320,39,13,35,312,48*7A
MSG 0 47125.236 $PGRME,5.0,M,5.7,M,7.6,M*28
MSG 0 47125.296 $PGRMB,0.0,200,,,,K,,N,N*31
MSG 0 47125.357 $PGRMM,WGS 84*06
MSG 0 47125.658 $GPRMC,170646,A,4305.7712,N,07038.7995,W,000.5,154.7,030712,016.1,W*78
POS 0 47206.000 365991.885 4772812.107
QUA 0 47206.000 7 9.200 0.800 11.000 1.000 0.000 0.000 0.000
RAW 0 47206.000 4 430577.12000 -703879.95000 -23.10000 170646.00000
MSG 0 47125.808 $GPGGA,170646,4305.7712,N,07038.7995,W,1,11,0.8,9.3,M,-32.4,M,,*77
MSG 0 47125.950 $GPGSA,A,3,,06,10,13,16,20,21,23,29,30,31,32,1.1,0.8,0.8*3B
MSG 0 47126.077 $GPGSV,3,2,12,16,82,350,48,20,07,236,39,21,06,075,37,23,60,275,50*75
MSG 0 47126.223 $PGRME,5.0,M,5.7,M,7.6,M*28
MSG 0 47126.283 $PGRMB,0.0,200,,,,K,,N,N*31
MSG 0 47126.343 $PGRMM,WGS 84*06
MSG 0 47126.657 $GPRMC,170647,A,4305.7711,N,07038.7995,W,000.5,165.9,030712,016.1,W*76
POS 0 47207.000 365991.881 4772811.922
QUA 0 47207.000 7 9.200 0.800 11.000 1.000 0.000 0.000 0.000
RAW 0 47207.000 4 430577.11000 -703879.95000 -23.10000 170647.00000
MSG 0 47126.807 $GPGGA,170647,4305.7711,N,07038.7995,W,1,11,0.8,9.3,M,-32.4,M,,*75
MSG 0 47126.948 $GPGSA,A,3,,06,10,13,16,20,21,23,29,30,31,32,1.1,0.8,0.8*3B
MSG 0 47127.075 $GPGSV,3,3,12,29,01,030,43,30,56,050,48,31,25,101,43,32,04,212,44*7B
MSG 0 47127.221 $PGRME,5.0,M,5.7,M,7.6,M*28
MSG 0 47127.281 $PGRMB,0.0,200,,,,K,,N,N*31
MSG 0 47127.342 $PGRMM,WGS 84*06
MSG 0 47127.658 $GPRMC,170648,A,4305.7712,N,07038.7995,W,000.1,165.9,030712,016.1,W*7E
POS 0 47208.000 365991.885 4772812.107
QUA 0 47208.000 7 9.200 0.800 11.000 1.000 0.000 0.000 0.000
RAW 0 47208.000 4 430577.12000 -703879.95000 -23.20000 170648.00000
MSG 0 47127.808 $GPGGA,170648,4305.7712,N,07038.7995,W,1,11,0.8,9.2,M,-32.4,M,,*78
MSG 0 47127.949 $GPGSA,A,3,,06,10,13,16,20,21,23,29,30,31,32,1.1,0.8,0.8*3B
MSG 0 47128.076 $GPGSV,3,1,12,03,43,176,32,06,52,152,50,10,07,320,38,13,35,312,48*7B
MSG 0 47128.222 $PGRME,5.0,M,5.7,M,7.6,M*28
MSG 0 47128.283 $PGRMB,0.0,200,,,,K,,N,N*31
MSG 0 47128.343 $PGRMM,WGS 84*06
MSG 0 47128.659 $GPRMC,170649,A,4305.7710,N,07038.7994,W,000.4,163.8,030712,016.1,W*7E
POS 0 47209.000 365992.013 4772811.734
QUA 0 47209.000 7 9.200 0.800 11.000 1.000 0.000 0.000 0.000
RAW 0 47209.000 4 430577.10000 -703879.94000 -23.20000 170649.00000
MSG 0 47128.809 $GPGGA,170649,4305.7710,N,07038.7994,W,1,11,0.8,9.2,M,-32.4,M,,*7A
MSG 0 47128.950 $GPGSA,A,3,,06,10,13,16,20,21,23,29,30,31,32,1.1,0.8,0.8*3B
MSG 0 47129.077 $GPGSV,3,2,12,16,82,350,48,20,07,236,40,21,06,075,36,23,60,275,50*7A
MSG 0 47129.223 $PGRME,5.0,M,5.7,M,7.6,M*28
MSG 0 47129.283 $PGRMB,0.0,200,,,,K,,N,N*31
MSG 0 47129.344 $PGRMM,WGS 84*06
MSG 0 47129.658 $GPRMC,170650,A,4305.7707,N,07038.7993,W,000.9,169.3,030712,016.1,W*7B
POS 0 47210.000 365992.138 4772811.176
QUA 0 47210.000 7 9.200 0.800 11.000 1.000 0.000 0.000 0.000
RAW 0 47210.000 4 430577.07000 -703879.93000 -23.40000 170650.00000
MSG 0 47129.808 $GPGGA,170650,4305.7707,N,07038.7993,W,1,11,0.8,9.0,M,-32.4,M,,*71
MSG 0 47129.950 $GPGSA,A,3,,06,10,13,16,20,21,23,29,30,31,32,1.1,0.8,0.8*3B
MSG 0 47130.077 $GPGSV,3,3,12,29,01,030,43,30,56,050,49,31,25,101,43,32,04,212,44*7A
MSG 0 47130.223 $PGRME,5.0,M,5.7,M,7.6,M*28
MSG 0 47130.283 $PGRMB,0.0,200,,,,K,,N,N*31
MSG 0 47130.343 $PGRMM,WGS 84*06
MSG 0 47130.658 $GPRMC,170651,A,4305.7706,N,07038.7992,W,000.6,151.5,030712,016.1,W*78
POS 0 47211.000 365992.270 4772810.988
QUA 0 47211.000 7 9.200 0.800 11.000 1.000 0.000 0.000 0.000
RAW 0 47211.000 4 430577.06000 -703879.92000 -23.40000 170651.00000
MSG 0 47130.808 $GPGGA,170651,4305.7706,N,07038.7992,W,1,11,0.8,9.0,M,-32.4,M,,*70
MSG 0 47130.950 $GPGSA,A,3,,06,10,13,16,20,21,23,29,30,31,32,1.1,0.8,0.8*3B
MSG 0 47131.077 $GPGSV,3,1,12,03,43,176,32,06,52,152,50,10,07,320,38,13,35,312,47*74
MSG 0 47131.223 $PGRME,5.0,M,5.7,M,7.6,M*28
MSG 0 47131.283 $PGRMB,0.0,200,,,,K,,N,N*31
MSG 0 47131.343 $PGRMM,WGS 84*06
MSG 0 47131.657 $GPRMC,170652,A,4305.7707,N,07038.7990,W,000.4,114.9,030712,016.1,W*77
POS 0 47212.000 365992.545 4772811.168
QUA 0 47212.000 7 9.200 0.800 11.000 1.000 0.000 0.000 0.000
RAW 0 47212.000 4 430577.07000 -703879.90000 -23.10000 170652.00000
MSG 0 47131.807 $GPGGA,170652,4305.7707,N,07038.7990,W,1,11,0.8,9.3,M,-32.4,M,,*73
MSG 0 47131.949 $GPGSA,A,3,,06,10,13,16,20,21,23,29,30,31,32,1.1,0.8,0.8*3B
MSG 0 47132.076 $GPGSV,3,2,12,16,82,350,47,20,07,236,39,21,06,075,36,23,60,275,50*7B
MSG 0 47132.222 $PGRME,5.0,M,5.7,M,7.6,M*28
MSG 0 47132.282 $PGRMB,0.0,200,,,,K,,N,N*31
MSG 0 47132.342 $PGRMM,WGS 84*06
MSG 0 47132.659 $GPRMC,170653,A,4305.7702,N,07038.7991,W,000.9,173.9,030712,016.1,W*7E
POS 0 47213.000 365992.391 4772810.245
QUA 0 47213.000 7 9.200 0.800 11.000 1.000 0.000 0.000 0.000
RAW 0 47213.000 4 430577.02000 -703879.91000 -23.10000 170653.00000
MSG 0 47132.809 $GPGGA,170653,4305.7702,N,07038.7991,W,1,11,0.8,9.3,M,-32.4,M,,*76
MSG 0 47132.950 $GPGSA,A,3,,06,10,13,16,20,21,23,29,30,31,32,1.1,0.8,0.8*3B
MSG 0 47133.077 $GPGSV,3,3,12,29,01,030,43,30,56,050,49,31,25,101,43,32,04,212,44*7A
MSG 0 47133.223 $PGRME,5.0,M,5.7,M,7.6,M*28
MSG 0 47133.283 $PGRMB,0.0,200,,,,K,,N,N*31
MSG 0 47133.344 $PGRMM,WGS 84*06
MSG 0 47133.657 $GPRMC,170654,A,4305.7703,N,07038.7989,W,000.3,136.7,030712,016.1,W*74
POS 0 47214.000 365992.666 4772810.425
QUA 0 47214.000 7 9.200 0.800 11.000 1.000 0.000 0.000 0.000
RAW 0 47214.000 4 430577.03000 -703879.89000 -22.90000 170654.00000
MSG 0 47133.807 $GPGGA,170654,4305.7703,N,07038.7989,W,1,11,0.8,9.5,M,-32.4,M,,*7F
MSG 0 47133.948 $GPGSA,A,3,,06,10,13,16,20,21,23,29,30,31,32,1.1,0.8,0.8*3B
MSG 0 47134.075 $GPGSV,3,1,12,03,43,176,32,06,52,152,50,10,07,320,40,13,35,312,47*7B
MSG 0 47134.221 $PGRME,5.0,M,5.7,M,7.6,M*28
MSG 0 47134.281 $PGRMB,0.0,200,,,,K,,N,N*31
MSG 0 47134.342 $PGRMM,WGS 84*06
MSG 0 47134.649 $GPRMC,170655,A,4305.7704,N,07038.7989,W,000.0,136.7,030712,016.1,W*71
POS 0 47215.000 365992.669 4772810.610
QUA 0 47215.000 7 9.200 0.800 11.000 1.000 0.000 0.000 0.000
RAW 0 47215.000 4 430577.04000 -703879.89000 -22.90000 170655.00000
MSG 0 47134.799 $GPGGA,170655,4305.7704,N,07038.7989,W,1,11,0.8,9.5,M,-32.4,M,,*79
MSG 0 47134.941 $GPGSA,A,3,,06,10,13,16,20,21,23,29,30,31,32,1.1,0.8,0.8*3B
MSG 0 47135.068 $GPGSV,3,2,12,16,82,350,48,20,07,236,40,21,06,075,36,23,60,275,50*7A
MSG 0 47135.214 $PGRME,5.0,M,5.7,M,7.6,M*28
MSG 0 47135.274 $PGRMB,0.0,200,,,,K,,N,N*31
MSG 0 47135.334 $PGRMM,WGS 84*06
MSG 0 47135.656 $GPRMC,170656,A,4305.7702,N,07038.7989,W,000.8,174.7,030712,016.1,W*7A
POS 0 47216.000 365992.662 4772810.240
QUA 0 47216.000 7 9.200 0.800 11.000 1.000 0.000 0.000 0.000
RAW 0 47216.000 4 430577.02000 -703879.89000 -23.20000 170656.00000
MSG 0 47135.806 $GPGGA,170656,4305.7702,N,07038.7989,W,1,11,0.8,9.2,M,-32.4,M,,*7B
MSG 0 47135.948 $GPGSA,A,3,,06,10,13,16,20,21,23,29,30,31,32,1.1,0.8,0.8*3B
MSG 0 47136.075 $GPGSV,3,3,12,29,01,030,43,30,56,050,49,31,25,101,43,32,04,212,45*7B
MSG 0 47136.220 $PGRME,5.0,M,5.7,M,7.6,M*28
MSG 0 47136.281 $PGRMB,0.0,200,,,,K,,N,N*31
MSG 0 47136.341 $PGRMM,WGS 84*06
MSG 0 47136.658 $GPRMC,170657,A,4305.7699,N,07038.7988,W,000.5,168.3,030712,016.1,W*7D
POS 0 47217.000 365992.787 4772809.682
QUA 0 47217.000 7 9.200 0.800 11.000 1.000 0.000 0.000 0.000
RAW 0 47217.000 4 430576.99000 -703879.88000 -23.20000 170657.00000
MSG 0 47136.808 $GPGGA,170657,4305.7699,N,07038.7988,W,1,11,0.8,9.2,M,-32.4,M,,*78
MSG 0 47136.950 $GPGSA,A,3,,06,10,13,16,20,21,23,29,30,31,32,1.1,0.8,0.8*3B
MSG 0 47137.077 $GPGSV,3,1,12,03,43,176,31,06,52,152,50,10,07,320,39,13,35,312,47*76
MSG 0 47137.223 $PGRME,5.0,M,5.7,M,7.6,M*28
MSG 0 47137.283 $PGRMB,0.0,200,,,,K,,N,N*31
MSG 0 47137.343 $PGRMM,WGS 84*06
MSG 0 47137.659 $GPRMC,170658,A,4305.7700,N,07038.7986,W,000.3,110.0,030712,016.1,W*77
POS 0 47218.000 365993.062 4772809.862
QUA 0 47218.000 7 9.200 0.800 11.000 1.000 0.000 0.000 0.000
RAW 0 47218.000 4 430577.00000 -703879.86000 -23.10000 170658.00000
MSG 0 47137.809 $GPGGA,170658,4305.7700,N,07038.7986,W,1,11,0.8,9.3,M,-32.4,M,,*79
MSG 0 47137.950 $GPGSA,A,3,,06,10,13,16,20,21,23,29,30,31,32,1.1,0.8,0.8*3B
MSG 0 47138.077 $GPGSV,3,2,12,16,82,350,48,20,07,236,39,21,06,075,35,23,60,275,50*77
MSG 0 47138.223 $PGRME,5.0,M,5.7,M,7.6,M*28
MSG 0 47138.283 $PGRMB,0.0,200,,,,K,,N,N*31
MSG 0 47138.344 $PGRMM,WGS 84*06
MSG 0 47138.657 $GPRMC,170659,A,4305.7696,N,07038.7985,W,000.8,158.1,030712,016.1,W*7D
POS 0 47219.000 365993.183 4772809.119
QUA 0 47219.000 7 9.200 0.800 11.000 1.000 0.000 0.000 0.000
RAW 0 47219.000 4 430576.96000 -703879.85000 -23.10000 170659.00000
MSG 0 47138.806 $GPGGA,170659,4305.7696,N,07038.7985,W,1,11,0.8,9.3,M,-32.4,M,,*75
MSG 0 47138.948 $GPGSA,A,3,,06,10,13,16,20,21,23,29,30,31,32,1.1,0.8,0.8*3B
MSG 0 47139.075 $GPGSV,3,3,12,29,01,030,45,30,56,050,49,31,25,101,42,32,04,212,44*7D
MSG 0 47139.221 $PGRME,5.0,M,5.7,M,7.6,M*28
MSG 0 47139.281 $PGRMB,0.0,200,,,,K,,N,N*31
MSG 0 47139.342 $PGRMM,WGS 84*06
MSG 0 47139.673 $GPRMC,170700,A,4305.7694,N,07038.7986,W,000.8,179.2,030712,016.1,W*71
POS 0 47220.000 365993.040 4772808.751
QUA 0 47220.000 7 9.200 0.800 11.000 1.000 0.000 0.000 0.000
RAW 0 47220.000 4 430576.94000 -703879.86000 -23.00000 170700.00000
MSG 0 47139.823 $GPGGA,170700,4305.7694,N,07038.7986,W,1,11,0.8,9.4,M,-32.4,M,,*7E
MSG 0 47139.965 $GPGSA,A,3,,06,10,13,16,20,21,23,29,30,31,32,1.1,0.8,0.8*3B
MSG 0 47140.092 $GPGSV,3,1,12,03,43,176,31,06,52,152,50,10,07,320,39,13,35,312,47*76
MSG 0 47140.237 $PGRME,5.0,M,5.7,M,7.6,M*28
MSG 0 47140.298 $PGRMB,0.0,200,,,,K,,N,N*31
MSG 0 47140.358 $PGRMM,WGS 84*06
MSG 0 47140.656 $GPRMC,170701,A,4305.7695,N,07038.7983,W,000.3,118.1,030712,016.1,W*7B
POS 0 47221.000 365993.450 4772808.928
QUA 0 47221.000 7 9.200 0.800 11.000 1.000 0.000 0.000 0.000
RAW 0 47221.000 4 430576.95000 -703879.83000 -22.80000 170701.00000
MSG 0 47140.806 $GPGGA,170701,4305.7695,N,07038.7983,W,1,11,0.8,9.6,M,-32.4,M,,*79
MSG 0 47140.948 $GPGSA,A,3,,06,10,13,16,20,21,23,29,30,31,32,1.1,0.8,0.8*3B
MSG 0 47141.075 $GPGSV,3,2,12,16,82,350,48,20,07,236,39,21,06,075,34,23,60,275,50*76
MSG 0 47141.221 $PGRME,5.0,M,5.7,M,7.6,M*28
MSG 0 47141.281 $PGRMB,0.0,200,,,,K,,N,N*31
MSG 0 47141.341 $PGRMM,WGS 84*06
FIX 99 47141.646 101 365993.450 4772808.928
