FTP NEW 2
VER 11.0.6.21
INF "" "" "" "" 0.000 0.000 0.000
ELL WGS-84 6378137.000 298.257223563
PRO TME -69.000000 0.999600 0.000000 0.000000 0.000000 500000.0000 0.0000
DTM 0.00 0.00 0.00 0.00000 0.00000 0.00000 0.00000
GEO ??? 0.000
HVU 1.0000000000 1.0000000000
TND 13:55:42 07/03/2012 240
DEV 0 32869 "Garmin GPS" 49156 C:\HYPACK 2011\devices\GPS.dll 11.0.10.6
OFF 0 0.000 0.000 0.000 0.000 0.000 0.000 0.000
DDT 0 SYN 
DEV 1 0 "Disabled" 0 Odom CV3 MK3 Disabled Unknown
USR "NOAA Joint Hydrographic Center" "HYPACK Inc." 0x8 15681181
EOH 0001FFFFFFFFFFFFFFFFFFFFFFFFFFFFFFFFFFFFFFFFFFFFFFFFFFFFFFFFFFFFFFFFFFFFFFFFFFFFFFFFFFFFFFFFFFFFFFFFFFFFFFFFFFFFFFFFFFFFFFFFFFFFFFFFFFFFFFFFFFFFFFFFFFFFFFFFFFFFFFFFFFFFFFFFFFFFFFFFFFFF003021300906052B0E03021A050004146C533B9E0EDBE5B87B20D90556B0186AF3428D9C
MSG 0 50140.556 $GPRMC,175701,A,4302.9261,N,07038.9499,W,000.2,114.0,030712,016.1,W*7C
POS 0 50221.000 365684.343 4767550.174
QUA 0 50221.000 7 9.100 0.900 10.000 1.000 0.000 0.000 0.000
RAW 0 50221.000 4 430292.61000 -703894.99000 -22.30000 175701.00000
MSG 0 50140.706 $GPGGA,175701,4302.9261,N,07038.9499,W,1,10,0.9,10.1,M,-32.4,M,,*4D
MSG 0 50140.849 $GPGSA,A,3,,06,07,10,13,16,19,21,23,30,31,,1.5,0.9,1.2*32
MSG 0 50140.972 $GPGSV,3,2,11,13,51,288,47,16,62,042,49,19,35,185,50,21,11,056,00*70
MSG 0 50141.118 $PGRME,4.4,M,6.4,M,7.8,M*23
MSG 0 50141.178 $PGRMB,0.0,200,,,,K,,N,N*31
MSG 0 50141.239 $PGRMM,WGS 84*06
MSG 0 50141.533 $GPRMC,175702,A,4302.9262,N,07038.9497,W,000.3,073.6,030712,016.1,W*75
POS 0 50222.000 365684.618 4767550.354
QUA 0 50222.000 7 9.100 0.900 10.000 1.000 0.000 0.000 0.000
RAW 0 50222.000 4 430292.62000 -703894.97000 -22.00000 175702.00000
MSG 0 50141.683 $GPGGA,175702,4302.9262,N,07038.9497,W,1,10,0.9,10.4,M,-32.4,M,,*46
MSG 0 50141.827 $GPGSA,A,3,,06,07,10,13,16,19,21,23,30,31,,1.5,0.9,1.2*32
MSG 0 50141.950 $GPGSV,3,3,11,23,53,230,51,30,36,064,44,31,08,117,42*44
MSG 0 50142.068 $PGRME,4.5,M,6.5,M,7.9,M*22
MSG 0 50142.129 $PGRMB,0.0,200,,,,K,,N,N*31
MSG 0 50142.189 $PGRMM,WGS 84*06
FIX 99 50142.694 110 365684.618 4767550.354
MSG 0 50142.559 $GPRMC,175703,A,4302.9261,N,07038.9497,W,000.0,073.6,030712,016.1,W*74
POS 0 50223.000 365684.615 4767550.169
QUA 0 50223.000 7 9.100 0.900 10.000 1.000 0.000 0.000 0.000
RAW 0 50223.000 4 430292.61000 -703894.97000 -22.10000 175703.00000
MSG 0 50142.709 $GPGGA,175703,4302.9261,N,07038.9497,W,1,10,0.9,10.3,M,-32.4,M,,*43
MSG 0 50142.853 $GPGSA,A,3,,06,07,10,13,16,19,21,23,30,31,,1.5,0.9,1.2*32
MSG 0 50142.976 $GPGSV,3,1,11,03,67,160,31,06,67,110,47,07,27,305,46,10,05,300,39*73
MSG 0 50143.121 $PGRME,4.5,M,6.5,M,7.9,M*22
MSG 0 50143.182 $PGRMB,0.0,200,,,,K,,N,N*31
MSG 0 50143.242 $PGRMM,WGS 84*06
MSG 0 50143.556 $GPRMC,175704,A,4302.9261,N,07038.9498,W,000.0,073.6,030712,016.1,W*7C
POS 0 50224.000 365684.479 4767550.171
QUA 0 50224.000 7 9.100 0.900 10.000 1.000 0.000 0.000 0.000
RAW 0 50224.000 4 430292.61000 -703894.98000 -21.90000 175704.00000
MSG 0 50143.706 $GPGGA,175704,4302.9261,N,07038.9498,W,1,10,0.9,10.5,M,-32.4,M,,*4D
MSG 0 50143.850 $GPGSA,A,3,,06,07,10,13,16,19,21,23,30,31,,1.5,0.9,1.2*32
MSG 0 50143.972 $GPGSV,3,2,11,13,51,288,47,16,62,042,49,19,35,185,49,21,11,056,00*78
MSG 0 50144.118 $PGRME,4.5,M,6.5,M,7.9,M*22
MSG 0 50144.178 $PGRMB,0.0,200,,,,K,,N,N*31
MSG 0 50144.239 $PGRMM,WGS 84*06
MSG 0 50144.536 $GPRMC,175705,A,4302.9261,N,07038.9498,W,000.0,073.6,030712,016.1,W*7D
POS 0 50225.000 365684.479 4767550.171
QUA 0 50225.000 7 9.100 0.900 10.000 1.000 0.000 0.000 0.000
RAW 0 50225.000 4 430292.61000 -703894.98000 -21.80000 175705.00000
MSG 0 50144.686 $GPGGA,175705,4302.9261,N,07038.9498,W,1,10,0.9,10.6,M,-32.4,M,,*4F
MSG 0 50144.829 $GPGSA,A,3,,06,07,10,13,16,19,21,23,30,31,,1.5,0.9,1.2*32
MSG 0 50144.952 $GPGSV,3,3,11,23,53,230,51,30,36,064,44,31,08,117,41*47
MSG 0 50145.071 $PGRME,4.5,M,6.5,M,7.9,M*22
MSG 0 50145.131 $PGRMB,0.0,200,,,,K,,N,N*31
MSG 0 50145.191 $PGRMM,WGS 84*06
MSG 0 50145.530 $GPRMC,175706,A,4302.9261,N,07038.9498,W,000.0,073.6,030712,016.1,W*7E
POS 0 50226.000 365684.479 4767550.171
QUA 0 50226.000 7 9.000 1.000 10.000 1.000 0.000 0.000 0.000
RAW 0 50226.000 4 430292.61000 -703894.98000 -21.90000 175706.00000
MSG 0 50145.680 $GPGGA,175706,4302.9261,N,07038.9498,W,1,10,1.0,10.5,M,-32.4,M,,*47
MSG 0 50145.823 $GPGSA,A,3,,06,07,10,13,16,19,21,23,30,31,,1.6,1.0,1.2*39
MSG 0 50145.946 $GPGSV,3,1,11,03,67,160,32,06,67,110,47,07,27,305,47,10,05,300,38*70
MSG 0 50146.092 $PGRME,4.4,M,6.4,M,7.8,M*23
MSG 0 50146.152 $PGRMB,0.0,200,,,,K,,N,N*31
MSG 0 50146.213 $PGRMM,WGS 84*06
MSG 0 50146.531 $GPRMC,175707,A,4302.9261,N,07038.9498,W,000.0,073.6,030712,016.1,W*7F
POS 0 50227.000 365684.479 4767550.171
QUA 0 50227.000 7 9.100 0.900 10.000 1.000 0.000 0.000 0.000
RAW 0 50227.000 4 430292.61000 -703894.98000 -22.20000 175707.00000
MSG 0 50146.681 $GPGGA,175707,4302.9261,N,07038.9498,W,1,10,0.9,10.2,M,-32.4,M,,*49
MSG 0 50146.825 $GPGSA,A,3,,06,07,10,13,16,19,21,23,30,31,,1.4,0.9,1.1*30
MSG 0 50146.948 $GPGSV,3,2,11,13,51,288,47,16,62,042,49,19,35,185,49,21,12,055,37*7C
MSG 0 50147.093 $PGRME,4.4,M,6.4,M,7.8,M*23
MSG 0 50147.154 $PGRMB,0.0,200,,,,K,,N,N*31
MSG 0 50147.214 $PGRMM,WGS 84*06
MSG 0 50147.536 $GPRMC,175708,A,4302.9262,N,07038.9498,W,000.2,073.6,030712,016.1,W*71
POS 0 50228.000 365684.483 4767550.356
QUA 0 50228.000 7 9.100 0.900 10.000 1.000 0.000 0.000 0.000
RAW 0 50228.000 4 430292.62000 -703894.98000 -21.90000 175708.00000
MSG 0 50147.686 $GPGGA,175708,4302.9262,N,07038.9498,W,1,10,0.9,10.5,M,-32.4,M,,*42
MSG 0 50147.830 $GPGSA,A,3,,06,07,10,13,16,19,21,23,30,31,,1.4,0.9,1.1*30
MSG 0 50147.953 $GPGSV,3,3,11,23,53,230,51,30,36,064,44,31,08,117,41*47
MSG 0 50148.071 $PGRME,4.4,M,6.4,M,7.8,M*23
MSG 0 50148.132 $PGRMB,0.0,200,,,,K,,N,N*31
MSG 0 50148.192 $PGRMM,WGS 84*06
MSG 0 50148.528 $GPRMC,175709,A,4302.9262,N,07038.9498,W,000.0,073.6,030712,016.1,W*72
POS 0 50229.000 365684.483 4767550.356
QUA 0 50229.000 7 9.100 0.900 10.000 1.000 0.000 0.000 0.000
RAW 0 50229.000 4 430292.62000 -703894.98000 -21.70000 175709.00000
MSG 0 50148.678 $GPGGA,175709,4302.9262,N,07038.9498,W,1,10,0.9,10.7,M,-32.4,M,,*41
MSG 0 50148.822 $GPGSA,A,3,,06,07,10,13,16,19,21,23,30,31,,1.4,0.9,1.1*30
MSG 0 50148.945 $GPGSV,3,1,11,03,67,160,32,06,67,110,47,07,27,305,47,10,05,300,37*7F
MSG 0 50149.091 $PGRME,4.5,M,6.6,M,8.0,M*27
MSG 0 50149.151 $PGRMB,0.0,200,,,,K,,N,N*31
MSG 0 50149.211 $PGRMM,WGS 84*06
MSG 0 50149.541 $GPRMC,175710,A,4302.9262,N,07038.9499,W,000.0,073.6,030712,016.1,W*7B
POS 0 50230.000 365684.347 4767550.359
QUA 0 50230.000 7 9.100 0.900 10.000 1.000 0.000 0.000 0.000
RAW 0 50230.000 4 430292.62000 -703894.99000 -22.00000 175710.00000
MSG 0 50149.691 $GPGGA,175710,4302.9262,N,07038.9499,W,1,10,0.9,10.4,M,-32.4,M,,*4B
MSG 0 50149.835 $GPGSA,A,3,,06,07,10,13,16,19,21,23,30,31,,1.4,0.9,1.1*30
MSG 0 50149.958 $GPGSV,3,2,11,13,51,288,47,16,62,042,49,19,35,185,49,21,12,055,37*7C
MSG 0 50150.103 $PGRME,4.4,M,6.4,M,7.8,M*23
MSG 0 50150.164 $PGRMB,0.0,200,,,,K,,N,N*31
MSG 0 50150.224 $PGRMM,WGS 84*06
MSG 0 50150.545 $GPRMC,175711,A,4302.9262,N,07038.9498,W,000.1,073.6,030712,016.1,W*7A
POS 0 50231.000 365684.483 4767550.356
QUA 0 50231.000 7 9.100 0.900 10.000 1.000 0.000 0.000 0.000
RAW 0 50231.000 4 430292.62000 -703894.98000 -22.00000 175711.00000
MSG 0 50150.695 $GPGGA,175711,4302.9262,N,07038.9498,W,1,10,0.9,10.4,M,-32.4,M,,*4B
MSG 0 50150.839 $GPGSA,A,3,,06,07,10,13,16,19,21,23,30,31,,1.4,0.9,1.1*30
MSG 0 50150.962 $GPGSV,3,3,11,23,53,230,51,30,36,064,44,31,08,117,41*47
MSG 0 50151.080 $PGRME,4.4,M,6.4,M,7.8,M*23
MSG 0 50151.141 $PGRMB,0.0,200,,,,K,,N,N*31
MSG 0 50151.201 $PGRMM,WGS 84*06
MSG 0 50151.543 $GPRMC,175712,A,4302.9263,N,07038.9498,W,000.1,073.6,030712,016.1,W*78
POS 0 50232.000 365684.486 4767550.542
QUA 0 50232.000 7 9.100 0.900 10.000 1.000 0.000 0.000 0.000
RAW 0 50232.000 4 430292.63000 -703894.98000 -22.10000 175712.00000
MSG 0 50151.693 $GPGGA,175712,4302.9263,N,07038.9498,W,1,10,0.9,10.3,M,-32.4,M,,*4E
MSG 0 50151.837 $GPGSA,A,3,,06,07,10,13,16,19,21,23,30,31,,1.4,0.9,1.1*30
MSG 0 50151.960 $GPGSV,3,1,11,03,67,160,00,06,67,110,47,07,27,305,47,10,05,300,36*7F
MSG 0 50152.106 $PGRME,4.4,M,6.4,M,7.8,M*23
MSG 0 50152.166 $PGRMB,0.0,200,,,,K,,N,N*31
MSG 0 50152.226 $PGRMM,WGS 84*06
MSG 0 50152.552 $GPRMC,175713,A,4302.9262,N,07038.9497,W,000.2,073.6,030712,016.1,W*74
POS 0 50233.000 365684.618 4767550.354
QUA 0 50233.000 7 9.100 0.900 10.000 1.000 0.000 0.000 0.000
RAW 0 50233.000 4 430292.62000 -703894.97000 -22.20000 175713.00000
MSG 0 50152.702 $GPGGA,175713,4302.9262,N,07038.9497,W,1,10,0.9,10.2,M,-32.4,M,,*40
MSG 0 50152.845 $GPGSA,A,3,,06,07,10,13,16,19,21,23,30,31,,1.4,0.9,1.1*30
MSG 0 50152.968 $GPGSV,3,2,11,13,51,288,47,16,62,042,49,19,35,185,50,21,12,055,37*74
MSG 0 50153.114 $PGRME,4.4,M,6.4,M,7.8,M*23
MSG 0 50153.174 $PGRMB,0.0,200,,,,K,,N,N*31
MSG 0 50153.235 $PGRMM,WGS 84*06
MSG 0 50153.547 $GPRMC,175714,A,4302.9262,N,07038.9496,W,000.2,130.1,030712,016.1,W*73
POS 0 50234.000 365684.754 4767550.351
QUA 0 50234.000 7 9.100 0.900 10.000 1.000 0.000 0.000 0.000
RAW 0 50234.000 4 430292.62000 -703894.96000 -22.40000 175714.00000
MSG 0 50153.697 $GPGGA,175714,4302.9262,N,07038.9496,W,1,10,0.9,10.0,M,-32.4,M,,*44
MSG 0 50153.840 $GPGSA,A,3,,06,07,10,13,16,19,21,23,30,31,,1.5,0.9,1.1*31
MSG 0 50153.963 $GPGSV,3,3,11,23,53,230,52,30,36,064,45,31,08,117,44*40
MSG 0 50154.082 $PGRME,4.5,M,6.5,M,7.9,M*22
MSG 0 50154.142 $PGRMB,0.0,200,,,,K,,N,N*31
MSG 0 50154.203 $PGRMM,WGS 84*06
MSG 0 50154.538 $GPRMC,175715,A,4302.9261,N,07038.9497,W,000.2,206.3,030712,016.1,W*74
POS 0 50235.000 365684.615 4767550.169
QUA 0 50235.000 7 9.100 0.900 10.000 1.000 0.000 0.000 0.000
RAW 0 50235.000 4 430292.61000 -703894.97000 -22.10000 175715.00000
MSG 0 50154.688 $GPGGA,175715,4302.9261,N,07038.9497,W,1,10,0.9,10.3,M,-32.4,M,,*44
MSG 0 50154.832 $GPGSA,A,3,,06,07,10,13,16,19,21,23,30,31,,1.5,0.9,1.1*31
MSG 0 50154.955 $GPGSV,3,1,11,03,67,160,33,06,67,110,47,07,27,305,47,10,05,300,35*7C
MSG 0 50155.100 $PGRME,4.5,M,6.5,M,7.9,M*22
MSG 0 50155.161 $PGRMB,0.0,200,,,,K,,N,N*31
MSG 0 50155.221 $PGRMM,WGS 84*06
MSG 0 50155.534 $GPRMC,175716,A,4302.9263,N,07038.9496,W,000.2,206.3,030712,016.1,W*74
POS 0 50236.000 365684.758 4767550.536
QUA 0 50236.000 7 9.100 0.900 10.000 1.000 0.000 0.000 0.000
RAW 0 50236.000 4 430292.63000 -703894.96000 -21.60000 175716.00000
MSG 0 50155.684 $GPGGA,175716,4302.9263,N,07038.9496,W,1,10,0.9,10.8,M,-32.4,M,,*4F
MSG 0 50155.828 $GPGSA,A,3,,06,07,10,13,16,19,21,23,30,31,,1.5,0.9,1.1*31
MSG 0 50155.950 $GPGSV,3,2,11,13,51,288,47,16,62,042,49,19,35,185,50,21,12,055,38*7B
MSG 0 50156.096 $PGRME,4.5,M,6.5,M,7.9,M*22
MSG 0 50156.157 $PGRMB,0.0,200,,,,K,,N,N*31
MSG 0 50156.217 $PGRMM,WGS 84*06
MSG 0 50156.539 $GPRMC,175717,A,4302.9263,N,07038.9496,W,000.0,206.3,030712,016.1,W*77
POS 0 50237.000 365684.758 4767550.536
QUA 0 50237.000 7 9.100 0.900 10.000 1.000 0.000 0.000 0.000
RAW 0 50237.000 4 430292.63000 -703894.96000 -21.70000 175717.00000
MSG 0 50156.689 $GPGGA,175717,4302.9263,N,07038.9496,W,1,10,0.9,10.7,M,-32.4,M,,*41
MSG 0 50156.832 $GPGSA,A,3,,06,07,10,13,16,19,21,23,30,31,,1.5,0.9,1.1*31
MSG 0 50156.955 $GPGSV,3,3,11,23,53,229,52,30,36,064,45,31,08,117,43*4F
MSG 0 50157.074 $PGRME,4.4,M,6.4,M,7.8,M*23
MSG 0 50157.134 $PGRMB,0.0,200,,,,K,,N,N*31
MSG 0 50157.194 $PGRMM,WGS 84*06
MSG 0 50157.533 $GPRMC,175718,A,4302.9263,N,07038.9497,W,000.2,316.2,030712,016.1,W*7A
POS 0 50238.000 365684.622 4767550.539
QUA 0 50238.000 7 9.100 0.900 10.000 1.000 0.000 0.000 0.000
RAW 0 50238.000 4 430292.63000 -703894.97000 -22.30000 175718.00000
MSG 0 50157.683 $GPGGA,175718,4302.9263,N,07038.9497,W,1,10,0.9,10.1,M,-32.4,M,,*49
MSG 0 50157.827 $GPGSA,A,3,,06,07,10,13,16,19,21,23,30,31,,1.4,0.9,1.1*30
MSG 0 50157.950 $GPGSV,3,1,11,03,67,160,33,06,67,110,48,07,27,305,47,10,05,300,37*71
MSG 0 50158.096 $PGRME,4.4,M,6.4,M,7.8,M*23
MSG 0 50158.156 $PGRMB,0.0,200,,,,K,,N,N*31
MSG 0 50158.216 $PGRMM,WGS 84*06
MSG 0 50158.528 $GPRMC,175719,A,4302.9264,N,07038.9496,W,000.0,316.2,030712,016.1,W*7F
POS 0 50239.000 365684.761 4767550.721
QUA 0 50239.000 7 9.100 0.900 10.000 1.000 0.000 0.000 0.000
RAW 0 50239.000 4 430292.64000 -703894.96000 -22.30000 175719.00000
MSG 0 50158.678 $GPGGA,175719,4302.9264,N,07038.9496,W,1,10,0.9,10.1,M,-32.4,M,,*4E
MSG 0 50158.822 $GPGSA,A,3,,06,07,10,13,16,19,21,23,30,31,,1.4,0.9,1.1*30
MSG 0 50158.945 $GPGSV,3,2,11,13,51,288,47,16,62,042,49,19,35,185,50,21,12,055,38*7B
MSG 0 50159.090 $PGRME,4.4,M,6.4,M,7.8,M*23
MSG 0 50159.151 $PGRMB,0.0,200,,,,K,,N,N*31
MSG 0 50159.211 $PGRMM,WGS 84*06
MSG 0 50159.525 $GPRMC,175720,A,4302.9264,N,07038.9496,W,000.0,316.2,030712,016.1,W*75
POS 0 50240.000 365684.761 4767550.721
QUA 0 50240.000 7 9.100 0.900 10.000 1.000 0.000 0.000 0.000
RAW 0 50240.000 4 430292.64000 -703894.96000 -22.40000 175720.00000
MSG 0 50159.675 $GPGGA,175720,4302.9264,N,07038.9496,W,1,10,0.9,10.0,M,-32.4,M,,*45
MSG 0 50159.819 $GPGSA,A,3,,06,07,10,13,16,19,21,23,30,31,,1.4,0.9,1.1*30
MSG 0 50159.942 $GPGSV,3,3,11,23,53,229,52,30,36,064,46,31,08,117,44*4B
MSG 0 50160.060 $PGRME,4.4,M,6.4,M,7.8,M*23
MSG 0 50160.121 $PGRMB,0.0,200,,,,K,,N,N*31
MSG 0 50160.181 $PGRMM,WGS 84*06
MSG 0 50160.526 $GPRMC,175721,A,4302.9264,N,07038.9496,W,000.0,316.2,030712,016.1,W*74
POS 0 50241.000 365684.761 4767550.721
QUA 0 50241.000 7 9.100 0.900 10.000 1.000 0.000 0.000 0.000
RAW 0 50241.000 4 430292.64000 -703894.96000 -22.20000 175721.00000
MSG 0 50160.676 $GPGGA,175721,4302.9264,N,07038.9496,W,1,10,0.9,10.2,M,-32.4,M,,*46
MSG 0 50160.820 $GPGSA,A,3,,06,07,10,13,16,19,21,23,30,31,,1.4,0.9,1.1*30
MSG 0 50160.943 $GPGSV,3,1,11,03,67,160,33,06,67,110,48,07,27,305,47,10,05,300,37*71
MSG 0 50161.088 $PGRME,4.4,M,6.4,M,7.8,M*23
MSG 0 50161.149 $PGRMB,0.0,200,,,,K,,N,N*31
MSG 0 50161.209 $PGRMM,WGS 84*06
MSG 0 50161.531 $GPRMC,175722,A,4302.9263,N,07038.9496,W,000.2,167.3,030712,016.1,W*77
POS 0 50242.000 365684.758 4767550.536
QUA 0 50242.000 7 9.100 0.900 10.000 1.000 0.000 0.000 0.000
RAW 0 50242.000 4 430292.63000 -703894.96000 -22.10000 175722.00000
MSG 0 50161.681 $GPGGA,175722,4302.9263,N,07038.9496,W,1,10,0.9,10.3,M,-32.4,M,,*43
MSG 0 50161.825 $GPGSA,A,3,,06,07,10,13,16,19,21,23,30,31,,1.4,0.9,1.1*30
MSG 0 50161.948 $GPGSV,3,2,11,13,51,288,47,16,62,042,49,19,35,185,50,21,12,055,38*7B
MSG 0 50162.094 $PGRME,4.4,M,6.4,M,7.8,M*23
MSG 0 50162.154 $PGRMB,0.0,200,,,,K,,N,N*31
MSG 0 50162.214 $PGRMM,WGS 84*06
MSG 0 50162.526 $GPRMC,175723,A,4302.9263,N,07038.9496,W,000.0,167.3,030712,016.1,W*74
POS 0 50243.000 365684.758 4767550.536
QUA 0 50243.000 7 9.100 0.900 10.000 1.000 0.000 0.000 0.000
RAW 0 50243.000 4 430292.63000 -703894.96000 -22.00000 175723.00000
MSG 0 50162.676 $GPGGA,175723,4302.9263,N,07038.9496,W,1,10,0.9,10.4,M,-32.4,M,,*45
MSG 0 50162.820 $GPGSA,A,3,,06,07,10,13,16,19,21,23,30,31,,1.4,0.9,1.1*30
MSG 0 50162.943 $GPGSV,3,3,11,23,53,229,52,30,36,064,46,31,08,117,44*4B
MSG 0 50163.061 $PGRME,4.4,M,6.4,M,7.8,M*23
MSG 0 50163.122 $PGRMB,0.0,200,,,,K,,N,N*31
MSG 0 50163.182 $PGRMM,WGS 84*06
MSG 0 50163.544 $GPRMC,175724,A,4302.9264,N,07038.9496,W,000.4,356.7,030712,016.1,W*74
POS 0 50244.000 365684.761 4767550.721
QUA 0 50244.000 7 9.100 0.900 10.000 1.000 0.000 0.000 0.000
RAW 0 50244.000 4 430292.64000 -703894.96000 -22.00000 175724.00000
MSG 0 50163.694 $GPGGA,175724,4302.9264,N,07038.9496,W,1,10,0.9,10.4,M,-32.4,M,,*45
MSG 0 50163.837 $GPGSA,A,3,,06,07,10,13,16,19,21,23,30,31,,1.4,0.9,1.1*30
MSG 0 50163.960 $GPGSV,3,1,11,03,67,160,33,06,67,110,48,07,27,305,48,10,05,300,38*71
MSG 0 50164.106 $PGRME,4.4,M,6.4,M,7.8,M*23
MSG 0 50164.166 $PGRMB,0.0,200,,,,K,,N,N*31
MSG 0 50164.227 $PGRMM,WGS 84*06
MSG 0 50164.546 $GPRMC,175725,A,4302.9263,N,07038.9496,W,000.2,356.7,030712,016.1,W*74
POS 0 50245.000 365684.758 4767550.536
QUA 0 50245.000 7 9.100 0.900 10.000 1.000 0.000 0.000 0.000
RAW 0 50245.000 4 430292.63000 -703894.96000 -22.50000 175725.00000
MSG 0 50164.696 $GPGGA,175725,4302.9263,N,07038.9496,W,1,10,0.9,9.9,M,-32.4,M,,*76
MSG 0 50164.837 $GPGSA,A,3,,06,07,10,13,16,19,21,23,30,31,,1.4,0.9,1.1*30
MSG 0 50164.960 $GPGSV,3,2,11,13,51,288,47,16,62,042,49,19,35,185,50,21,12,055,39*7A
MSG 0 50165.106 $PGRME,4.5,M,6.6,M,8.0,M*27
MSG 0 50165.166 $PGRMB,0.0,200,,,,K,,N,N*31
MSG 0 50165.227 $PGRMM,WGS 84*06
MSG 0 50165.545 $GPRMC,175726,A,4302.9263,N,07038.9496,W,000.1,356.7,030712,016.1,W*74
POS 0 50246.000 365684.758 4767550.536
QUA 0 50246.000 7 9.100 0.900 10.000 1.000 0.000 0.000 0.000
RAW 0 50246.000 4 430292.63000 -703894.96000 -22.30000 175726.00000
MSG 0 50165.695 $GPGGA,175726,4302.9263,N,07038.9496,W,1,10,0.9,10.1,M,-32.4,M,,*45
MSG 0 50165.839 $GPGSA,A,3,,06,07,10,13,16,19,21,23,30,31,,1.4,0.9,1.1*30
MSG 0 50165.962 $GPGSV,3,3,11,23,53,229,52,30,36,064,47,31,08,117,44*4A
MSG 0 50166.080 $PGRME,4.4,M,6.5,M,7.8,M*22
MSG 0 50166.141 $PGRMB,0.0,200,,,,K,,N,N*31
MSG 0 50166.201 $PGRMM,WGS 84*06
MSG 0 50166.532 $GPRMC,175727,A,4302.9266,N,07038.9496,W,000.3,359.9,030712,016.1,W*73
POS 0 50247.000 365684.769 4767551.092
QUA 0 50247.000 7 9.100 0.900 10.000 1.000 0.000 0.000 0.000
RAW 0 50247.000 4 430292.66000 -703894.96000 -22.00000 175727.00000
MSG 0 50166.682 $GPGGA,175727,4302.9266,N,07038.9496,W,1,10,0.9,10.4,M,-32.4,M,,*44
MSG 0 50166.825 $GPGSA,A,3,,06,07,10,13,16,19,21,23,30,31,,1.4,0.9,1.1*30
MSG 0 50166.948 $GPGSV,3,1,11,03,67,160,32,06,67,110,48,07,27,305,48,10,05,300,37*7F
MSG 0 50167.094 $PGRME,4.4,M,6.5,M,7.8,M*22
MSG 0 50167.154 $PGRMB,0.0,200,,,,K,,N,N*31
MSG 0 50167.215 $PGRMM,WGS 84*06
MSG 0 50167.531 $GPRMC,175728,A,4302.9264,N,07038.9495,W,000.1,359.9,030712,016.1,W*7F
POS 0 50248.000 365684.897 4767550.719
QUA 0 50248.000 7 9.100 0.900 10.000 1.000 0.000 0.000 0.000
RAW 0 50248.000 4 430292.64000 -703894.95000 -22.20000 175728.00000
MSG 0 50167.681 $GPGGA,175728,4302.9264,N,07038.9495,W,1,10,0.9,10.2,M,-32.4,M,,*4C
MSG 0 50167.824 $GPGSA,A,3,,06,07,10,13,16,19,21,23,30,31,,1.4,0.9,1.1*30
MSG 0 50167.947 $GPGSV,3,2,11,13,51,288,48,16,62,042,48,19,35,185,50,21,12,055,39*74
MSG 0 50168.093 $PGRME,4.4,M,6.5,M,7.8,M*22
MSG 0 50168.153 $PGRMB,0.0,200,,,,K,,N,N*31
MSG 0 50168.214 $PGRMM,WGS 84*06
MSG 0 50168.543 $GPRMC,175729,A,4302.9263,N,07038.9496,W,000.2,170.6,030712,016.1,W*7F
POS 0 50249.000 365684.758 4767550.536
QUA 0 50249.000 7 9.100 0.900 10.000 1.000 0.000 0.000 0.000
RAW 0 50249.000 4 430292.63000 -703894.96000 -22.30000 175729.00000
MSG 0 50168.693 $GPGGA,175729,4302.9263,N,07038.9496,W,1,10,0.9,10.1,M,-32.4,M,,*4A
MSG 0 50168.837 $GPGSA,A,3,,06,07,10,13,16,19,21,23,30,31,,1.4,0.9,1.1*30
MSG 0 50168.960 $GPGSV,3,3,11,23,53,229,52,30,36,064,47,31,08,117,42*4C
MSG 0 50169.078 $PGRME,4.4,M,6.5,M,7.8,M*22
MSG 0 50169.139 $PGRMB,0.0,200,,,,K,,N,N*31
MSG 0 50169.199 $PGRMM,WGS 84*06
MSG 0 50169.534 $GPRMC,175730,A,4302.9266,N,07038.9495,W,000.4,013.5,030712,016.1,W*70
POS 0 50250.000 365684.904 4767551.089
QUA 0 50250.000 7 9.100 0.900 10.000 1.000 0.000 0.000 0.000
RAW 0 50250.000 4 430292.66000 -703894.95000 -22.10000 175730.00000
MSG 0 50169.683 $GPGGA,175730,4302.9266,N,07038.9495,W,1,10,0.9,10.3,M,-32.4,M,,*46
MSG 0 50169.827 $GPGSA,A,3,,06,07,10,13,16,19,21,23,30,31,,1.4,0.9,1.1*30
MSG 0 50169.950 $GPGSV,3,1,11,03,67,160,32,06,67,110,48,07,27,305,48,10,05,300,35*7D
MSG 0 50170.096 $PGRME,4.4,M,6.5,M,7.8,M*22
MSG 0 50170.156 $PGRMB,0.0,200,,,,K,,N,N*31
MSG 0 50170.216 $PGRMM,WGS 84*06
MSG 0 50170.525 $GPRMC,175731,A,4302.9265,N,07038.9495,W,000.0,013.5,030712,016.1,W*76
POS 0 50251.000 365684.901 4767550.904
QUA 0 50251.000 7 9.100 0.900 10.000 1.000 0.000 0.000 0.000
RAW 0 50251.000 4 430292.65000 -703894.95000 -22.40000 175731.00000
MSG 0 50170.675 $GPGGA,175731,4302.9265,N,07038.9495,W,1,10,0.9,10.0,M,-32.4,M,,*47
MSG 0 50170.819 $GPGSA,A,3,,06,07,10,13,16,19,21,23,30,31,,1.4,0.9,1.1*30
MSG 0 50170.942 $GPGSV,3,2,11,13,51,288,48,16,62,042,48,19,35,185,50,21,12,055,37*7A
MSG 0 50171.088 $PGRME,4.4,M,6.5,M,7.8,M*22
MSG 0 50171.148 $PGRMB,0.0,200,,,,K,,N,N*31
MSG 0 50171.208 $PGRMM,WGS 84*06
MSG 0 50171.540 $GPRMC,175732,A,4302.9264,N,07038.9495,W,000.4,179.1,030712,016.1,W*79
POS 0 50252.000 365684.897 4767550.719
QUA 0 50252.000 7 9.100 0.900 10.000 1.000 0.000 0.000 0.000
RAW 0 50252.000 4 430292.64000 -703894.95000 -22.30000 175732.00000
MSG 0 50171.690 $GPGGA,175732,4302.9264,N,07038.9495,W,1,10,0.9,10.1,M,-32.4,M,,*44
MSG 0 50171.834 $GPGSA,A,3,,06,07,10,13,16,19,21,23,30,31,,1.4,0.9,1.1*30
MSG 0 50171.956 $GPGSV,3,3,11,23,53,229,51,30,36,064,47,31,08,117,44*49
MSG 0 50172.075 $PGRME,4.4,M,6.5,M,7.8,M*22
MSG 0 50172.136 $PGRMB,0.0,200,,,,K,,N,N*31
MSG 0 50172.196 $PGRMM,WGS 84*06
MSG 0 50172.540 $GPRMC,175733,A,4302.9265,N,07038.9496,W,000.0,179.1,030712,016.1,W*7E
POS 0 50253.000 365684.765 4767550.906
QUA 0 50253.000 7 9.100 0.900 10.000 1.000 0.000 0.000 0.000
RAW 0 50253.000 4 430292.65000 -703894.96000 -22.10000 175733.00000
MSG 0 50172.690 $GPGGA,175733,4302.9265,N,07038.9496,W,1,10,0.9,10.3,M,-32.4,M,,*45
MSG 0 50172.833 $GPGSA,A,3,,06,07,10,13,16,19,21,23,30,31,,1.4,0.9,1.1*30
MSG 0 50172.956 $GPGSV,3,1,11,03,67,160,32,06,67,110,49,07,27,305,49,10,05,300,36*7E
MSG 0 50173.102 $PGRME,4.4,M,6.5,M,7.8,M*22
MSG 0 50173.162 $PGRMB,0.0,200,,,,K,,N,N*31
MSG 0 50173.223 $PGRMM,WGS 84*06
MSG 0 50173.534 $GPRMC,175734,A,4302.9265,N,07038.9496,W,000.2,344.3,030712,016.1,W*75
POS 0 50254.000 365684.765 4767550.906
QUA 0 50254.000 7 9.100 0.900 10.000 1.000 0.000 0.000 0.000
RAW 0 50254.000 4 430292.65000 -703894.96000 -22.10000 175734.00000
MSG 0 50173.684 $GPGGA,175734,4302.9265,N,07038.9496,W,1,10,0.9,10.3,M,-32.4,M,,*42
MSG 0 50173.827 $GPGSA,A,3,,06,07,10,13,16,19,21,23,30,31,,1.4,0.9,1.1*30
MSG 0 50173.950 $GPGSV,3,2,11,13,51,288,48,16,62,042,48,19,35,185,50,21,12,055,39*74
MSG 0 50174.096 $PGRME,4.4,M,6.5,M,7.8,M*22
MSG 0 50174.156 $PGRMT,GPS 17-HVS Ver. 2.80,P,P,R,R,P,,38,R*00
MSG 0 50174.256 $PGRMB,0.0,200,,,,K,,N,N*31
MSG 0 50174.317 $PGRMM,WGS 84*06
MSG 0 50174.525 $GPRMC,175735,A,4302.9265,N,07038.9496,W,000.0,344.3,030712,016.1,W*76
POS 0 50255.000 365684.765 4767550.906
QUA 0 50255.000 7 9.100 0.900 10.000 1.000 0.000 0.000 0.000
RAW 0 50255.000 4 430292.65000 -703894.96000 -22.10000 175735.00000
MSG 0 50174.675 $GPGGA,175735,4302.9265,N,07038.9496,W,1,10,0.9,10.3,M,-32.4,M,,*43
MSG 0 50174.819 $GPGSA,A,3,,06,07,10,13,16,19,21,23,30,31,,1.4,0.9,1.1*30
MSG 0 50174.942 $GPGSV,3,3,11,23,53,229,51,30,36,064,47,31,08,117,41*4C
MSG 0 50175.061 $PGRME,4.4,M,6.5,M,7.8,M*22
MSG 0 50175.121 $PGRMB,0.0,200,,,,K,,N,N*31
MSG 0 50175.181 $PGRMM,WGS 84*06
MSG 0 50175.539 $GPRMC,175736,A,4302.9265,N,07038.9496,W,000.2,344.3,030712,016.1,W*77
POS 0 50256.000 365684.765 4767550.906
QUA 0 50256.000 7 9.100 0.900 10.000 1.000 0.000 0.000 0.000
RAW 0 50256.000 4 430292.65000 -703894.96000 -22.50000 175736.00000
MSG 0 50175.689 $GPGGA,175736,4302.9265,N,07038.9496,W,1,10,0.9,9.9,M,-32.4,M,,*72
MSG 0 50175.830 $GPGSA,A,3,,06,07,10,13,16,19,21,23,30,31,,1.4,0.9,1.1*30
MSG 0 50175.953 $GPGSV,3,1,11,03,67,160,32,06,67,110,49,07,27,305,49,10,05,300,36*7E
MSG 0 50176.099 $PGRME,4.5,M,6.6,M,8.0,M*27
MSG 0 50176.159 $PGRMB,0.0,200,,,,K,,N,N*31
MSG 0 50176.220 $PGRMM,WGS 84*06
MSG 0 50176.540 $GPRMC,175737,A,4302.9266,N,07038.9495,W,000.3,020.6,030712,016.1,W*73
POS 0 50257.000 365684.904 4767551.089
QUA 0 50257.000 7 9.100 0.900 10.000 1.000 0.000 0.000 0.000
RAW 0 50257.000 4 430292.66000 -703894.95000 -22.40000 175737.00000
MSG 0 50176.690 $GPGGA,175737,4302.9266,N,07038.9495,W,1,10,0.9,10.0,M,-32.4,M,,*42
MSG 0 50176.834 $GPGSA,A,3,,06,07,10,13,16,19,21,23,30,31,,1.4,0.9,1.1*30
MSG 0 50176.957 $GPGSV,3,2,11,13,51,288,48,16,62,042,48,19,35,185,50,21,12,055,39*74
MSG 0 50177.102 $PGRME,4.4,M,6.5,M,7.8,M*22
MSG 0 50177.163 $PGRMB,0.0,200,,,,K,,N,N*31
MSG 0 50177.223 $PGRMM,WGS 84*06
MSG 0 50177.530 $GPRMC,175738,A,4302.9267,N,07038.9495,W,000.3,016.8,030712,016.1,W*76
POS 0 50258.000 365684.908 4767551.274
QUA 0 50258.000 7 9.100 0.900 10.000 1.000 0.000 0.000 0.000
RAW 0 50258.000 4 430292.67000 -703894.95000 -22.30000 175738.00000
MSG 0 50177.680 $GPGGA,175738,4302.9267,N,07038.9495,W,1,10,0.9,10.1,M,-32.4,M,,*4D
MSG 0 50177.824 $GPGSA,A,3,,06,07,10,13,16,19,21,23,30,31,,1.4,0.9,1.1*30
MSG 0 50177.947 $GPGSV,3,3,11,23,53,229,51,30,36,064,47,31,08,117,43*4E
MSG 0 50178.066 $PGRME,4.4,M,6.5,M,7.8,M*22
MSG 0 50178.126 $PGRMB,0.0,200,,,,K,,N,N*31
MSG 0 50178.186 $PGRMM,WGS 84*06
MSG 0 50178.532 $GPRMC,175739,A,4302.9265,N,07038.9494,W,000.3,158.9,030712,016.1,W*7E
POS 0 50259.000 365685.036 4767550.901
QUA 0 50259.000 7 9.100 0.900 10.000 1.000 0.000 0.000 0.000
RAW 0 50259.000 4 430292.65000 -703894.94000 -22.40000 175739.00000
MSG 0 50178.682 $GPGGA,175739,4302.9265,N,07038.9494,W,1,10,0.9,10.0,M,-32.4,M,,*4E
MSG 0 50178.826 $GPGSA,A,3,,06,07,10,13,16,19,21,23,30,31,,1.4,0.9,1.1*30
MSG 0 50178.948 $GPGSV,3,1,11,03,67,160,32,06,67,110,49,07,27,305,48,10,05,300,36*7F
MSG 0 50179.094 $PGRME,4.4,M,6.5,M,7.8,M*22
MSG 0 50179.154 $PGRMB,0.0,200,,,,K,,N,N*31
MSG 0 50179.215 $PGRMM,WGS 84*06
MSG 0 50179.533 $GPRMC,175740,A,4302.9265,N,07038.9496,W,000.0,158.9,030712,016.1,W*71
POS 0 50260.000 365684.765 4767550.906
QUA 0 50260.000 7 9.100 0.900 10.000 1.000 0.000 0.000 0.000
RAW 0 50260.000 4 430292.65000 -703894.96000 -22.30000 175740.00000
MSG 0 50179.683 $GPGGA,175740,4302.9265,N,07038.9496,W,1,10,0.9,10.1,M,-32.4,M,,*43
MSG 0 50179.827 $GPGSA,A,3,,06,07,10,13,16,19,21,23,30,31,,1.4,0.9,1.1*30
MSG 0 50179.950 $GPGSV,3,2,11,13,51,288,48,16,62,042,48,19,35,185,50,21,12,055,40*7A
MSG 0 50180.095 $PGRME,4.4,M,6.5,M,7.8,M*22
MSG 0 50180.156 $PGRMB,0.0,200,,,,K,,N,N*31
MSG 0 50180.216 $PGRMM,WGS 84*06
MSG 0 50180.531 $GPRMC,175741,A,4302.9266,N,07038.9496,W,000.3,344.7,030712,016.1,W*71
POS 0 50261.000 365684.769 4767551.092
QUA 0 50261.000 7 9.100 0.900 10.000 1.000 0.000 0.000 0.000
RAW 0 50261.000 4 430292.66000 -703894.96000 -22.10000 175741.00000
MSG 0 50180.681 $GPGGA,175741,4302.9266,N,07038.9496,W,1,10,0.9,10.3,M,-32.4,M,,*43
MSG 0 50180.824 $GPGSA,A,3,,06,07,10,13,16,19,21,23,30,31,,1.4,0.9,1.1*30
MSG 0 50180.947 $GPGSV,3,3,11,23,53,229,51,30,35,065,47,31,08,117,41*4E
MSG 0 50181.066 $PGRME,4.4,M,6.5,M,7.8,M*22
MSG 0 50181.126 $PGRMB,0.0,200,,,,K,,N,N*31
MSG 0 50181.187 $PGRMM,WGS 84*06
MSG 0 50181.532 $GPRMC,175742,A,4302.9265,N,07038.9497,W,000.3,219.1,030712,016.1,W*7F
POS 0 50262.000 365684.629 4767550.909
QUA 0 50262.000 7 9.100 0.900 10.000 1.000 0.000 0.000 0.000
RAW 0 50262.000 4 430292.65000 -703894.97000 -22.20000 175742.00000
MSG 0 50181.682 $GPGGA,175742,4302.9265,N,07038.9497,W,1,10,0.9,10.2,M,-32.4,M,,*43
MSG 0 50181.826 $GPGSA,A,3,,06,07,10,13,16,19,21,23,30,31,,1.4,0.9,1.1*30
MSG 0 50181.949 $GPGSV,3,1,11,03,67,160,32,06,67,110,49,07,27,305,48,10,05,300,38*71
MSG 0 50182.094 $PGRME,4.5,M,6.6,M,8.0,M*27
MSG 0 50182.155 $PGRMB,0.0,200,,,,K,,N,N*31
MSG 0 50182.215 $PGRMM,WGS 84*06
MSG 0 50182.538 $GPRMC,175743,A,4302.9265,N,07038.9496,W,000.0,219.1,030712,016.1,W*7C
POS 0 50263.000 365684.765 4767550.906
QUA 0 50263.000 7 9.100 0.900 10.000 1.000 0.000 0.000 0.000
RAW 0 50263.000 4 430292.65000 -703894.96000 -22.20000 175743.00000
MSG 0 50182.688 $GPGGA,175743,4302.9265,N,07038.9496,W,1,10,0.9,10.2,M,-32.4,M,,*43
MSG 0 50182.831 $GPGSA,A,3,,06,07,10,13,16,19,21,23,30,31,,1.4,0.9,1.1*30
MSG 0 50182.954 $GPGSV,3,2,11,13,51,288,48,16,62,042,49,19,35,185,50,21,12,055,40*7B
MSG 0 50183.100 $PGRME,4.4,M,6.5,M,7.9,M*23
MSG 0 50183.160 $PGRMB,0.0,200,,,,K,,N,N*31
MSG 0 50183.221 $PGRMM,WGS 84*06
MSG 0 50183.544 $GPRMC,175744,A,4302.9266,N,07038.9496,W,000.3,025.4,030712,016.1,W*73
POS 0 50264.000 365684.769 4767551.092
QUA 0 50264.000 7 9.100 0.900 10.000 1.000 0.000 0.000 0.000
RAW 0 50264.000 4 430292.66000 -703894.96000 -22.40000 175744.00000
MSG 0 50183.694 $GPGGA,175744,4302.9266,N,07038.9496,W,1,10,0.9,10.0,M,-32.4,M,,*45
MSG 0 50183.838 $GPGSA,A,3,,06,07,10,13,16,19,21,23,30,31,,1.4,0.9,1.1*30
MSG 0 50183.960 $GPGSV,3,3,11,23,53,229,51,30,35,065,48,31,08,117,44*44
MSG 0 50184.079 $PGRME,4.4,M,6.5,M,7.9,M*23
MSG 0 50184.139 $PGRMB,0.0,200,,,,K,,N,N*31
MSG 0 50184.200 $PGRMM,WGS 84*06
MSG 0 50184.531 $GPRMC,175745,A,4302.9266,N,07038.9495,W,000.2,025.4,030712,016.1,W*70
POS 0 50265.000 365684.904 4767551.089
QUA 0 50265.000 7 9.100 0.900 10.000 1.000 0.000 0.000 0.000
RAW 0 50265.000 4 430292.66000 -703894.95000 -22.50000 175745.00000
MSG 0 50184.681 $GPGGA,175745,4302.9266,N,07038.9495,W,1,10,0.9,9.9,M,-32.4,M,,*76
MSG 0 50184.822 $GPGSA,A,3,,06,07,10,13,16,19,21,23,30,31,,1.4,0.9,1.1*30
MSG 0 50184.945 $GPGSV,3,1,11,03,67,160,32,06,67,110,48,07,27,305,47,10,05,300,37*70
MSG 0 50185.091 $PGRME,4.4,M,6.5,M,7.9,M*23
MSG 0 50185.151 $PGRMB,0.0,200,,,,K,,N,N*31
MSG 0 50185.211 $PGRMM,WGS 84*06
MSG 0 50185.540 $GPRMC,175746,A,4302.9267,N,07038.9494,W,000.2,025.4,030712,016.1,W*73
POS 0 50266.000 365685.044 4767551.271
QUA 0 50266.000 7 9.100 0.900 10.000 1.000 0.000 0.000 0.000
RAW 0 50266.000 4 430292.67000 -703894.94000 -22.10000 175746.00000
MSG 0 50185.690 $GPGGA,175746,4302.9267,N,07038.9494,W,1,10,0.9,10.3,M,-32.4,M,,*47
MSG 0 50185.833 $GPGSA,A,3,,06,07,10,13,16,19,21,23,30,31,,1.4,0.9,1.1*30
MSG 0 50185.956 $GPGSV,3,2,11,13,51,288,48,16,62,043,49,19,35,185,50,21,12,055,40*7A
MSG 0 50186.102 $PGRME,4.4,M,6.5,M,7.9,M*23
MSG 0 50186.162 $PGRMB,0.0,200,,,,K,,N,N*31
MSG 0 50186.223 $PGRMM,WGS 84*06
MSG 0 50186.528 $GPRMC,175747,A,4302.9267,N,07038.9495,W,000.0,025.4,030712,016.1,W*71
POS 0 50267.000 365684.908 4767551.274
QUA 0 50267.000 7 9.100 0.900 10.000 1.000 0.000 0.000 0.000
RAW 0 50267.000 4 430292.67000 -703894.95000 -22.00000 175747.00000
MSG 0 50186.678 $GPGGA,175747,4302.9267,N,07038.9495,W,1,10,0.9,10.4,M,-32.4,M,,*40
MSG 0 50186.822 $GPGSA,A,3,,06,07,10,13,16,19,21,23,30,31,,1.4,0.9,1.1*30
MSG 0 50186.944 $GPGSV,3,3,11,23,53,229,51,30,35,065,48,31,08,117,45*45
MSG 0 50187.063 $PGRME,4.4,M,6.5,M,7.9,M*23
MSG 0 50187.123 $PGRMB,0.0,200,,,,K,,N,N*31
MSG 0 50187.184 $PGRMM,WGS 84*06
MSG 0 50187.543 $GPRMC,175748,A,4302.9266,N,07038.9495,W,000.2,025.4,030712,016.1,W*7D
POS 0 50268.000 365684.904 4767551.089
QUA 0 50268.000 7 9.100 0.900 10.000 1.000 0.000 0.000 0.000
RAW 0 50268.000 4 430292.66000 -703894.95000 -22.10000 175748.00000
MSG 0 50187.693 $GPGGA,175748,4302.9266,N,07038.9495,W,1,10,0.9,10.3,M,-32.4,M,,*49
MSG 0 50187.837 $GPGSA,A,3,,06,07,10,13,16,19,21,23,30,31,,1.4,0.9,1.1*30
MSG 0 50187.959 $GPGSV,3,1,11,03,67,160,00,06,67,110,48,07,27,305,46,10,05,300,39*7E
MSG 0 50188.105 $PGRME,4.4,M,6.5,M,7.9,M*23
MSG 0 50188.166 $PGRMB,0.0,200,,,,K,,N,N*31
MSG 0 50188.226 $PGRMM,WGS 84*06
MSG 0 50188.540 $GPRMC,175749,A,4302.9268,N,07038.9496,W,000.3,350.3,030712,016.1,W*76
POS 0 50269.000 365684.776 4767551.462
QUA 0 50269.000 7 9.100 0.900 10.000 1.000 0.000 0.000 0.000
RAW 0 50269.000 4 430292.68000 -703894.96000 -22.00000 175749.00000
MSG 0 50188.690 $GPGGA,175749,4302.9268,N,07038.9496,W,1,10,0.9,10.4,M,-32.4,M,,*42
MSG 0 50188.833 $GPGSA,A,3,,06,07,10,13,16,19,21,23,30,31,,1.4,0.9,1.1*30
MSG 0 50188.956 $GPGSV,3,2,11,13,51,288,47,16,62,043,49,19,35,185,49,21,12,055,40*7D
MSG 0 50189.102 $PGRME,4.4,M,6.5,M,7.9,M*23
MSG 0 50189.162 $PGRMB,0.0,200,,,,K,,N,N*31
MSG 0 50189.223 $PGRMM,WGS 84*06
MSG 0 50189.527 $GPRMC,175750,A,4302.9268,N,07038.9495,W,000.0,350.3,030712,016.1,W*7E
POS 0 50270.000 365684.912 4767551.459
QUA 0 50270.000 7 9.100 0.900 10.000 1.000 0.000 0.000 0.000
RAW 0 50270.000 4 430292.68000 -703894.95000 -22.20000 175750.00000
MSG 0 50189.677 $GPGGA,175750,4302.9268,N,07038.9495,W,1,10,0.9,10.2,M,-32.4,M,,*4F
MSG 0 50189.821 $GPGSA,A,3,,06,07,10,13,16,19,21,23,30,31,,1.4,0.9,1.1*30
MSG 0 50189.943 $GPGSV,3,3,11,23,53,229,51,30,35,065,47,31,08,117,00*4B
MSG 0 50190.062 $PGRME,4.5,M,6.6,M,8.0,M*27
MSG 0 50190.123 $PGRMB,0.0,200,,,,K,,N,N*31
MSG 0 50190.183 $PGRMM,WGS 84*06
MSG 0 50190.532 $GPRMC,175751,A,4302.9267,N,07038.9495,W,000.2,350.3,030712,016.1,W*72
POS 0 50271.000 365684.908 4767551.274
QUA 0 50271.000 7 9.100 0.900 10.000 1.000 0.000 0.000 0.000
RAW 0 50271.000 4 430292.67000 -703894.95000 -22.20000 175751.00000
MSG 0 50190.682 $GPGGA,175751,4302.9267,N,07038.9495,W,1,10,0.9,10.2,M,-32.4,M,,*41
MSG 0 50190.825 $GPGSA,A,3,,06,07,10,13,16,19,21,23,30,31,,1.4,0.9,1.1*30
MSG 0 50190.948 $GPGSV,3,1,11,03,67,160,32,06,67,110,49,07,27,305,45,10,05,300,38*7C
MSG 0 50191.094 $PGRME,4.5,M,6.6,M,8.0,M*27
MSG 0 50191.154 $PGRMB,0.0,200,,,,K,,N,N*31
MSG 0 50191.215 $PGRMM,WGS 84*06
MSG 0 50191.525 $GPRMC,175752,A,4302.9267,N,07038.9495,W,000.0,350.3,030712,016.1,W*73
POS 0 50272.000 365684.908 4767551.274
QUA 0 50272.000 7 9.100 0.900 10.000 1.000 0.000 0.000 0.000
RAW 0 50272.000 4 430292.67000 -703894.95000 -22.20000 175752.00000
MSG 0 50191.675 $GPGGA,175752,4302.9267,N,07038.9495,W,1,10,0.9,10.2,M,-32.4,M,,*42
MSG 0 50191.818 $GPGSA,A,3,,06,07,10,13,16,19,21,23,30,31,,1.4,0.9,1.1*30
MSG 0 50191.941 $GPGSV,3,2,11,13,51,288,47,16,62,043,49,19,35,185,49,21,12,055,37*7D
MSG 0 50192.087 $PGRME,4.4,M,6.5,M,7.9,M*23
MSG 0 50192.147 $PGRMB,0.0,200,,,,K,,N,N*31
MSG 0 50192.208 $PGRMM,WGS 84*06
MSG 0 50192.525 $GPRMC,175753,A,4302.9267,N,07038.9495,W,000.0,350.3,030712,016.1,W*72
POS 0 50273.000 365684.908 4767551.274
QUA 0 50273.000 7 9.100 0.900 10.000 1.000 0.000 0.000 0.000
RAW 0 50273.000 4 430292.67000 -703894.95000 -21.90000 175753.00000
MSG 0 50192.675 $GPGGA,175753,4302.9267,N,07038.9495,W,1,10,0.9,10.5,M,-32.4,M,,*44
MSG 0 50192.819 $GPGSA,A,3,,06,07,10,13,16,19,21,23,30,31,,1.5,0.9,1.2*32
MSG 0 50192.942 $GPGSV,3,3,11,23,53,229,51,30,35,065,46,31,08,117,43*4D
MSG 0 50193.060 $PGRME,4.4,M,6.5,M,7.9,M*23
MSG 0 50193.121 $PGRMB,0.0,200,,,,K,,N,N*31
MSG 0 50193.181 $PGRMM,WGS 84*06
MSG 0 50193.525 $GPRMC,175754,A,4302.9267,N,07038.9495,W,000.0,350.3,030712,016.1,W*75
POS 0 50274.000 365684.908 4767551.274
QUA 0 50274.000 7 9.100 0.900 10.000 1.000 0.000 0.000 0.000
RAW 0 50274.000 4 430292.67000 -703894.95000 -21.70000 175754.00000
MSG 0 50193.675 $GPGGA,175754,4302.9267,N,07038.9495,W,1,10,0.9,10.7,M,-32.4,M,,*41
MSG 0 50193.819 $GPGSA,A,3,,06,07,10,13,16,19,21,23,30,31,,1.4,0.9,1.1*30
MSG 0 50193.942 $GPGSV,3,1,11,03,67,160,33,06,67,110,49,07,27,305,45,10,05,300,40*72
MSG 0 50194.087 $PGRME,4.4,M,6.5,M,7.9,M*23
MSG 0 50194.148 $PGRMB,0.0,200,,,,K,,N,N*31
MSG 0 50194.208 $PGRMM,WGS 84*06
MSG 0 50194.533 $GPRMC,175755,A,4302.9268,N,07038.9495,W,000.2,327.3,030712,016.1,W*79
POS 0 50275.000 365684.912 4767551.459
QUA 0 50275.000 7 9.100 0.900 10.000 1.000 0.000 0.000 0.000
RAW 0 50275.000 4 430292.68000 -703894.95000 -21.90000 175755.00000
MSG 0 50194.683 $GPGGA,175755,4302.9268,N,07038.9495,W,1,10,0.9,10.5,M,-32.4,M,,*4D
MSG 0 50194.826 $GPGSA,A,3,,06,07,10,13,16,19,21,23,30,31,,1.4,0.9,1.1*30
MSG 0 50194.949 $GPGSV,3,2,11,13,51,288,48,16,62,043,50,19,35,185,49,21,12,055,39*74
MSG 0 50195.095 $PGRME,4.4,M,6.5,M,7.9,M*23
MSG 0 50195.155 $PGRMB,0.0,200,,,,K,,N,N*31
MSG 0 50195.216 $PGRMM,WGS 84*06
MSG 0 50195.531 $GPRMC,175756,A,4302.9270,N,07038.9496,W,000.4,348.0,030712,016.1,W*7C
POS 0 50276.000 365684.783 4767551.832
QUA 0 50276.000 7 9.100 0.900 10.000 1.000 0.000 0.000 0.000
RAW 0 50276.000 4 430292.70000 -703894.96000 -22.00000 175756.00000
MSG 0 50195.681 $GPGGA,175756,4302.9270,N,07038.9496,W,1,10,0.9,10.4,M,-32.4,M,,*45
MSG 0 50195.825 $GPGSA,A,3,,06,07,10,13,16,19,21,23,30,31,,1.4,0.9,1.1*30
MSG 0 50195.948 $GPGSV,3,3,11,23,53,229,52,30,35,065,46,31,08,117,43*4E
MSG 0 50196.066 $PGRME,4.4,M,6.5,M,7.9,M*23
MSG 0 50196.127 $PGRMB,0.0,200,,,,K,,N,N*31
MSG 0 50196.187 $PGRMM,WGS 84*06
MSG 0 50196.533 $GPRMC,175757,A,4302.9270,N,07038.9495,W,000.1,348.0,030712,016.1,W*7B
POS 0 50277.000 365684.919 4767551.829
QUA 0 50277.000 7 9.100 0.900 10.000 1.000 0.000 0.000 0.000
RAW 0 50277.000 4 430292.70000 -703894.95000 -22.50000 175757.00000
MSG 0 50196.683 $GPGGA,175757,4302.9270,N,07038.9495,W,1,10,0.9,9.9,M,-32.4,M,,*72
MSG 0 50196.824 $GPGSA,A,3,,06,07,10,13,16,19,21,23,30,31,,1.4,0.9,1.1*30
MSG 0 50196.947 $GPGSV,3,1,11,03,67,160,33,06,67,110,49,07,27,305,44,10,05,300,39*7D
MSG 0 50197.093 $PGRME,4.4,M,6.5,M,7.9,M*23
MSG 0 50197.153 $PGRMB,0.0,200,,,,K,,N,N*31
MSG 0 50197.213 $PGRMM,WGS 84*06
MSG 0 50197.533 $GPRMC,175758,A,4302.9267,N,07038.9494,W,000.4,158.9,030712,016.1,W*7C
POS 0 50278.000 365685.044 4767551.271
QUA 0 50278.000 7 9.100 0.900 10.000 1.000 0.000 0.000 0.000
RAW 0 50278.000 4 430292.67000 -703894.94000 -22.70000 175758.00000
MSG 0 50197.683 $GPGGA,175758,4302.9267,N,07038.9494,W,1,10,0.9,9.7,M,-32.4,M,,*74
MSG 0 50197.824 $GPGSA,A,3,,06,07,10,13,16,19,21,23,30,31,,1.4,0.9,1.1*30
MSG 0 50197.947 $GPGSV,3,2,11,13,51,288,49,16,62,043,50,19,35,185,48,21,12,055,39*74
MSG 0 50198.093 $PGRME,4.4,M,6.5,M,7.9,M*23
MSG 0 50198.153 $PGRMB,0.0,200,,,,K,,N,N*31
MSG 0 50198.214 $PGRMM,WGS 84*06
MSG 0 50198.530 $GPRMC,175759,A,4302.9269,N,07038.9494,W,000.3,029.6,030712,016.1,W*7C
POS 0 50279.000 365685.051 4767551.641
QUA 0 50279.000 7 9.100 0.900 10.000 1.000 0.000 0.000 0.000
RAW 0 50279.000 4 430292.69000 -703894.94000 -22.20000 175759.00000
MSG 0 50198.680 $GPGGA,175759,4302.9269,N,07038.9494,W,1,10,0.9,10.2,M,-32.4,M,,*46
MSG 0 50198.824 $GPGSA,A,3,,06,07,10,13,16,19,21,23,30,31,,1.4,0.9,1.1*30
MSG 0 50198.947 $GPGSV,3,3,11,23,53,229,52,30,35,065,47,31,08,117,45*49
MSG 0 50199.065 $PGRME,4.4,M,6.5,M,7.9,M*23
MSG 0 50199.126 $PGRMB,0.0,200,,,,K,,N,N*31
MSG 0 50199.186 $PGRMM,WGS 84*06
MSG 0 50199.524 $GPRMC,175800,A,4302.9269,N,07038.9494,W,000.0,029.6,030712,016.1,W*7C
POS 0 50280.000 365685.051 4767551.641
QUA 0 50280.000 7 9.100 0.900 10.000 1.000 0.000 0.000 0.000
RAW 0 50280.000 4 430292.69000 -703894.94000 -22.00000 175800.00000
MSG 0 50199.674 $GPGGA,175800,4302.9269,N,07038.9494,W,1,10,0.9,10.4,M,-32.4,M,,*43
MSG 0 50199.817 $GPGSA,A,3,,06,07,10,13,16,19,21,23,30,31,,1.4,0.9,1.1*30
MSG 0 50199.940 $GPGSV,3,1,11,03,68,158,33,06,67,110,49,07,27,305,45,10,05,300,38*79
MSG 0 50200.086 $PGRME,4.4,M,6.5,M,7.9,M*23
MSG 0 50200.146 $PGRMB,0.0,200,,,,K,,N,N*31
MSG 0 50200.207 $PGRMM,WGS 84*06
MSG 0 50200.531 $GPRMC,175801,A,4302.9268,N,07038.9493,W,000.6,152.7,030712,016.1,W*71
POS 0 50281.000 365685.183 4767551.454
QUA 0 50281.000 7 9.100 0.900 10.000 1.000 0.000 0.000 0.000
RAW 0 50281.000 4 430292.68000 -703894.93000 -22.20000 175801.00000
MSG 0 50200.681 $GPGGA,175801,4302.9268,N,07038.9493,W,1,10,0.9,10.2,M,-32.4,M,,*42
MSG 0 50200.824 $GPGSA,A,3,,06,07,10,13,16,19,21,23,30,31,,1.4,0.9,1.1*30
MSG 0 50200.947 $GPGSV,3,2,11,13,51,288,49,16,62,043,50,19,35,185,48,21,12,055,38*75
MSG 0 50201.093 $PGRME,4.4,M,6.5,M,7.9,M*23
MSG 0 50201.153 $PGRMB,0.0,200,,,,K,,N,N*31
MSG 0 50201.214 $PGRMM,WGS 84*06
MSG 0 50201.530 $GPRMC,175802,A,4302.9269,N,07038.9494,W,000.2,348.5,030712,016.1,W*7B
POS 0 50282.000 365685.051 4767551.641
QUA 0 50282.000 7 9.100 0.900 10.000 1.000 0.000 0.000 0.000
RAW 0 50282.000 4 430292.69000 -703894.94000 -22.00000 175802.00000
MSG 0 50201.680 $GPGGA,175802,4302.9269,N,07038.9494,W,1,10,0.9,10.4,M,-32.4,M,,*41
MSG 0 50201.824 $GPGSA,A,3,,06,07,10,13,16,19,21,23,30,31,,1.4,0.9,1.1*30
MSG 0 50201.947 $GPGSV,3,3,11,23,53,229,51,30,35,065,47,31,08,117,45*4A
MSG 0 50202.066 $PGRME,4.4,M,6.5,M,7.9,M*23
MSG 0 50202.126 $PGRMB,0.0,200,,,,K,,N,N*31
MSG 0 50202.186 $PGRMM,WGS 84*06
MSG 0 50202.532 $GPRMC,175803,A,4302.9271,N,07038.9496,W,000.6,324.4,030712,016.1,W*7E
POS 0 50283.000 365684.787 4767552.017
QUA 0 50283.000 7 9.100 0.900 10.000 1.000 0.000 0.000 0.000
RAW 0 50283.000 4 430292.71000 -703894.96000 -22.10000 175803.00000
MSG 0 50202.682 $GPGGA,175803,4302.9271,N,07038.9496,W,1,10,0.9,10.3,M,-32.4,M,,*4C
MSG 0 50202.825 $GPGSA,A,3,,06,07,10,13,16,19,21,23,30,31,,1.4,0.9,1.1*30
MSG 0 50202.948 $GPGSV,3,1,11,03,68,158,34,06,67,110,49,07,27,305,45,10,05,300,39*7F
MSG 0 50203.094 $PGRME,4.4,M,6.5,M,7.9,M*23
MSG 0 50203.154 $PGRMB,0.0,200,,,,K,,N,N*31
MSG 0 50203.215 $PGRMM,WGS 84*06
MSG 0 50203.532 $GPRMC,175804,A,4302.9268,N,07038.9493,W,000.3,146.0,030712,016.1,W*73
POS 0 50284.000 365685.183 4767551.454
QUA 0 50284.000 7 9.100 0.900 10.000 1.000 0.000 0.000 0.000
RAW 0 50284.000 4 430292.68000 -703894.93000 -22.40000 175804.00000
MSG 0 50203.682 $GPGGA,175804,4302.9268,N,07038.9493,W,1,10,0.9,10.0,M,-32.4,M,,*45
MSG 0 50203.826 $GPGSA,A,3,,06,07,10,13,16,19,21,23,30,31,,1.4,0.9,1.1*30
MSG 0 50203.948 $GPGSV,3,2,11,13,51,288,48,16,62,043,50,19,35,185,49,21,12,055,38*75
MSG 0 50204.094 $PGRME,4.4,M,6.5,M,7.9,M*23
MSG 0 50204.155 $PGRMB,0.0,200,,,,K,,N,N*31
MSG 0 50204.215 $PGRMM,WGS 84*06
MSG 0 50204.524 $GPRMC,175805,A,4302.9269,N,07038.9494,W,000.0,146.0,030712,016.1,W*77
POS 0 50285.000 365685.051 4767551.641
QUA 0 50285.000 7 9.100 0.900 10.000 1.000 0.000 0.000 0.000
RAW 0 50285.000 4 430292.69000 -703894.94000 -22.40000 175805.00000
MSG 0 50204.674 $GPGGA,175805,4302.9269,N,07038.9494,W,1,10,0.9,10.0,M,-32.4,M,,*42
MSG 0 50204.817 $GPGSA,A,3,,06,07,10,13,16,19,21,23,30,31,,1.4,0.9,1.1*30
MSG 0 50204.940 $GPGSV,3,3,11,23,53,229,50,30,35,065,48,31,08,117,44*45
MSG 0 50205.059 $PGRME,4.4,M,6.5,M,7.9,M*23
MSG 0 50205.119 $PGRMB,0.0,200,,,,K,,N,N*31
MSG 0 50205.180 $PGRMM,WGS 84*06
MSG 0 50205.531 $GPRMC,175806,A,4302.9270,N,07038.9495,W,000.4,322.8,030712,016.1,W*71
POS 0 50286.000 365684.919 4767551.829
QUA 0 50286.000 7 9.100 0.900 10.000 1.000 0.000 0.000 0.000
RAW 0 50286.000 4 430292.70000 -703894.95000 -22.20000 175806.00000
MSG 0 50205.681 $GPGGA,175806,4302.9270,N,07038.9495,W,1,10,0.9,10.2,M,-32.4,M,,*4A
MSG 0 50205.825 $GPGSA,A,3,,06,07,10,13,16,19,21,23,30,31,,1.4,0.9,1.1*30
MSG 0 50205.948 $GPGSV,3,1,11,03,68,158,33,06,67,110,48,07,27,305,46,10,05,300,40*74
MSG 0 50206.094 $PGRME,4.4,M,6.5,M,7.9,M*23
MSG 0 50206.154 $PGRMB,0.0,200,,,,K,,N,N*31
MSG 0 50206.214 $PGRMM,WGS 84*06
MSG 0 50206.526 $GPRMC,175807,A,4302.9269,N,07038.9494,W,000.0,322.8,030712,016.1,W*7D
POS 0 50287.000 365685.051 4767551.641
QUA 0 50287.000 7 9.100 0.900 10.000 1.000 0.000 0.000 0.000
RAW 0 50287.000 4 430292.69000 -703894.94000 -22.40000 175807.00000
MSG 0 50206.676 $GPGGA,175807,4302.9269,N,07038.9494,W,1,10,0.9,10.0,M,-32.4,M,,*40
MSG 0 50206.820 $GPGSA,A,3,,06,07,10,13,16,19,21,23,30,31,,1.4,0.9,1.1*30
MSG 0 50206.943 $GPGSV,3,2,11,13,51,288,48,16,62,043,50,19,35,185,49,21,12,055,41*7B
MSG 0 50207.088 $PGRME,4.4,M,6.5,M,7.9,M*23
MSG 0 50207.149 $PGRMB,0.0,200,,,,K,,N,N*31
MSG 0 50207.209 $PGRMM,WGS 84*06
MSG 0 50207.529 $GPRMC,175808,A,4302.9269,N,07038.9494,W,000.3,151.0,030712,016.1,W*7F
POS 0 50288.000 365685.051 4767551.641
QUA 0 50288.000 7 9.100 0.900 10.000 1.000 0.000 0.000 0.000
RAW 0 50288.000 4 430292.69000 -703894.94000 -22.50000 175808.00000
MSG 0 50207.679 $GPGGA,175808,4302.9269,N,07038.9494,W,1,10,0.9,9.9,M,-32.4,M,,*7E
MSG 0 50207.821 $GPGSA,A,3,,06,07,10,13,16,19,21,23,30,31,,1.4,0.9,1.1*30
MSG 0 50207.944 $GPGSV,3,3,11,23,53,229,50,30,35,065,48,31,08,117,46*47
MSG 0 50208.062 $PGRME,4.4,M,6.5,M,7.9,M*23
MSG 0 50208.123 $PGRMB,0.0,200,,,,K,,N,N*31
MSG 0 50208.183 $PGRMM,WGS 84*06
MSG 0 50208.530 $GPRMC,175809,A,4302.9270,N,07038.9494,W,000.3,357.2,030712,016.1,W*70
POS 0 50289.000 365685.055 4767551.827
QUA 0 50289.000 7 9.100 0.900 10.000 1.000 0.000 0.000 0.000
RAW 0 50289.000 4 430292.70000 -703894.94000 -22.10000 175809.00000
MSG 0 50208.680 $GPGGA,175809,4302.9270,N,07038.9494,W,1,10,0.9,10.3,M,-32.4,M,,*45
MSG 0 50208.824 $GPGSA,A,3,,06,07,10,13,16,19,21,23,30,31,,1.4,0.9,1.1*30
MSG 0 50208.947 $GPGSV,3,1,11,03,68,158,33,06,67,110,48,07,27,305,47,10,05,300,41*74
MSG 0 50209.092 $PGRME,4.4,M,6.5,M,7.9,M*23
MSG 0 50209.153 $PGRMB,0.0,200,,,,K,,N,N*31
MSG 0 50209.214 $PGRMM,WGS 84*06
MSG 0 50209.532 $GPRMC,175810,A,4302.9272,N,07038.9494,W,000.5,352.7,030712,016.1,W*7C
POS 0 50290.000 365685.062 4767552.197
QUA 0 50290.000 7 9.100 0.900 10.000 1.000 0.000 0.000 0.000
RAW 0 50290.000 4 430292.72000 -703894.94000 -21.90000 175810.00000
MSG 0 50209.682 $GPGGA,175810,4302.9272,N,07038.9494,W,1,10,0.9,10.5,M,-32.4,M,,*49
MSG 0 50209.826 $GPGSA,A,3,,06,07,10,13,16,19,21,23,30,31,,1.4,0.9,1.1*30
MSG 0 50209.949 $GPGSV,3,2,11,13,51,288,48,16,62,043,50,19,35,185,49,21,12,055,40*7A
MSG 0 50210.094 $PGRME,4.4,M,6.5,M,7.9,M*23
MSG 0 50210.155 $PGRMB,0.0,200,,,,K,,N,N*31
MSG 0 50210.215 $PGRMM,WGS 84*06
MSG 0 50210.530 $GPRMC,175811,A,4302.9268,N,07038.9492,W,000.5,151.6,030712,016.1,W*70
POS 0 50291.000 365685.319 4767551.451
QUA 0 50291.000 7 9.100 0.900 10.000 1.000 0.000 0.000 0.000
RAW 0 50291.000 4 430292.68000 -703894.92000 -22.50000 175811.00000
MSG 0 50210.680 $GPGGA,175811,4302.9268,N,07038.9492,W,1,10,0.9,9.9,M,-32.4,M,,*71
MSG 0 50210.822 $GPGSA,A,3,,06,07,10,13,16,19,21,23,30,31,,1.4,0.9,1.1*30
MSG 0 50210.944 $GPGSV,3,3,11,23,53,229,50,30,35,065,48,31,08,117,46*47
MSG 0 50211.063 $PGRME,4.4,M,6.5,M,7.9,M*23
MSG 0 50211.124 $PGRMB,0.0,200,,,,K,,N,N*31
MSG 0 50211.184 $PGRMM,WGS 84*06
MSG 0 50211.532 $GPRMC,175812,A,4302.9269,N,07038.9493,W,000.2,151.6,030712,016.1,W*74
POS 0 50292.000 365685.187 4767551.639
QUA 0 50292.000 7 9.100 0.900 10.000 1.000 0.000 0.000 0.000
RAW 0 50292.000 4 430292.69000 -703894.93000 -22.50000 175812.00000
MSG 0 50211.682 $GPGGA,175812,4302.9269,N,07038.9493,W,1,10,0.9,9.9,M,-32.4,M,,*72
MSG 0 50211.823 $GPGSA,A,3,,06,07,10,13,16,19,21,23,30,31,,1.4,0.9,1.1*30
MSG 0 50211.946 $GPGSV,3,1,11,03,68,158,33,06,67,108,49,07,27,305,47,10,05,300,41*7C
MSG 0 50212.092 $PGRME,4.4,M,6.5,M,7.9,M*23
MSG 0 50212.152 $PGRMB,0.0,200,,,,K,,N,N*31
MSG 0 50212.212 $PGRMM,WGS 84*06
MSG 0 50212.544 $GPRMC,175813,A,4302.9271,N,07038.9496,W,000.5,320.0,030712,016.1,W*7C
POS 0 50293.000 365684.787 4767552.017
QUA 0 50293.000 7 9.100 0.900 10.000 1.000 0.000 0.000 0.000
RAW 0 50293.000 4 430292.71000 -703894.96000 -22.00000 175813.00000
MSG 0 50212.694 $GPGGA,175813,4302.9271,N,07038.9496,W,1,10,0.9,10.4,M,-32.4,M,,*4A
MSG 0 50212.837 $GPGSA,A,3,,06,07,10,13,16,19,21,23,30,31,,1.4,0.9,1.1*30
MSG 0 50212.960 $GPGSV,3,2,11,13,51,288,49,16,62,043,50,19,35,185,49,21,12,055,39*75
MSG 0 50213.106 $PGRME,4.4,M,6.5,M,7.9,M*23
MSG 0 50213.166 $PGRMB,0.0,200,,,,K,,N,N*31
MSG 0 50213.227 $PGRMM,WGS 84*06
MSG 0 50213.546 $GPRMC,175814,A,4302.9270,N,07038.9494,W,000.1,320.0,030712,016.1,W*7C
POS 0 50294.000 365685.055 4767551.827
QUA 0 50294.000 7 9.100 0.900 10.000 1.000 0.000 0.000 0.000
RAW 0 50294.000 4 430292.70000 -703894.94000 -21.90000 175814.00000
MSG 0 50213.696 $GPGGA,175814,4302.9270,N,07038.9494,W,1,10,0.9,10.5,M,-32.4,M,,*4F
MSG 0 50213.839 $GPGSA,A,3,,06,07,10,13,16,19,21,23,30,31,,1.4,0.9,1.1*30
MSG 0 50213.962 $GPGSV,3,3,11,23,53,229,50,30,35,065,46,31,08,117,46*49
MSG 0 50214.081 $PGRME,4.4,M,6.5,M,7.9,M*23
MSG 0 50214.141 $PGRMB,0.0,200,,,,K,,N,N*31
MSG 0 50214.201 $PGRMM,WGS 84*06
MSG 0 50214.532 $GPRMC,175815,A,4302.9269,N,07038.9492,W,000.3,116.0,030712,016.1,W*76
POS 0 50295.000 365685.322 4767551.636
QUA 0 50295.000 7 9.100 0.900 10.000 1.000 0.000 0.000 0.000
RAW 0 50295.000 4 430292.69000 -703894.92000 -22.10000 175815.00000
MSG 0 50214.682 $GPGGA,175815,4302.9269,N,07038.9492,W,1,10,0.9,10.3,M,-32.4,M,,*46
MSG 0 50214.825 $GPGSA,A,3,,06,07,10,13,16,19,21,23,30,31,,1.4,0.9,1.1*30
MSG 0 50214.948 $GPGSV,3,1,11,03,68,158,33,06,67,108,49,07,27,306,46,10,05,300,40*7F
MSG 0 50215.094 $PGRME,4.4,M,6.5,M,7.9,M*23
MSG 0 50215.154 $PGRMB,0.0,200,,,,K,,N,N*31
MSG 0 50215.215 $PGRMM,WGS 84*06
MSG 0 50215.537 $GPRMC,175816,A,4302.9272,N,07038.9495,W,000.5,331.0,030712,016.1,W*79
POS 0 50296.000 365684.926 4767552.199
QUA 0 50296.000 7 9.100 0.900 10.000 1.000 0.000 0.000 0.000
RAW 0 50296.000 4 430292.72000 -703894.95000 -22.30000 175816.00000
MSG 0 50215.687 $GPGGA,175816,4302.9272,N,07038.9495,W,1,10,0.9,10.1,M,-32.4,M,,*4A
MSG 0 50215.831 $GPGSA,A,3,,06,07,10,13,16,19,21,23,30,31,,1.4,0.9,1.1*30
MSG 0 50215.954 $GPGSV,3,2,11,13,51,288,47,16,62,043,49,19,35,185,50,21,12,055,39*7B
MSG 0 50216.099 $PGRME,4.4,M,6.5,M,7.9,M*23
MSG 0 50216.160 $PGRMB,0.0,200,,,,K,,N,N*31
MSG 0 50216.220 $PGRMM,WGS 84*06
MSG 0 50216.540 $GPRMC,175817,A,4302.9271,N,07038.9495,W,000.1,331.0,030712,016.1,W*7F
POS 0 50297.000 365684.922 4767552.014
QUA 0 50297.000 7 9.100 0.900 10.000 1.000 0.000 0.000 0.000
RAW 0 50297.000 4 430292.71000 -703894.95000 -22.30000 175817.00000
MSG 0 50216.690 $GPGGA,175817,4302.9271,N,07038.9495,W,1,10,0.9,10.1,M,-32.4,M,,*48
MSG 0 50216.833 $GPGSA,A,3,,06,07,10,13,16,19,21,23,30,31,,1.4,0.9,1.1*30
MSG 0 50216.956 $GPGSV,3,3,11,23,53,229,50,30,35,065,47,31,08,117,47*49
MSG 0 50217.075 $PGRME,4.4,M,6.5,M,7.9,M*23
MSG 0 50217.135 $PGRMB,0.0,200,,,,K,,N,N*31
MSG 0 50217.196 $PGRMM,WGS 84*06
MSG 0 50217.531 $GPRMC,175818,A,4302.9270,N,07038.9493,W,000.3,134.2,030712,016.1,W*70
POS 0 50298.000 365685.190 4767551.824
QUA 0 50298.000 7 9.100 0.900 10.000 1.000 0.000 0.000 0.000
RAW 0 50298.000 4 430292.70000 -703894.93000 -22.20000 175818.00000
MSG 0 50217.681 $GPGGA,175818,4302.9270,N,07038.9493,W,1,10,0.9,10.2,M,-32.4,M,,*43
MSG 0 50217.825 $GPGSA,A,3,,06,07,10,13,16,19,21,23,30,31,,1.4,0.9,1.1*30
MSG 0 50217.948 $GPGSV,3,1,11,03,68,158,00,06,67,108,47,07,27,306,47,10,05,300,37*70
MSG 0 50218.093 $PGRME,4.4,M,6.5,M,7.9,M*23
MSG 0 50218.154 $PGRMB,0.0,200,,,,K,,N,N*31
MSG 0 50218.214 $PGRMM,WGS 84*06
MSG 0 50218.531 $GPRMC,175819,A,4302.9270,N,07038.9494,W,000.1,134.2,030712,016.1,W*74
POS 0 50299.000 365685.055 4767551.827
QUA 0 50299.000 7 9.100 0.900 10.000 1.000 0.000 0.000 0.000
RAW 0 50299.000 4 430292.70000 -703894.94000 -22.00000 175819.00000
MSG 0 50218.681 $GPGGA,175819,4302.9270,N,07038.9494,W,1,10,0.9,10.4,M,-32.4,M,,*43
MSG 0 50218.825 $GPGSA,A,3,,06,07,10,13,16,19,21,23,30,31,,1.4,0.9,1.1*30
MSG 0 50218.948 $GPGSV,3,2,11,13,51,288,47,16,62,043,49,19,35,185,50,21,12,055,40*75
MSG 0 50219.094 $PGRME,4.4,M,6.5,M,7.9,M*23
MSG 0 50219.154 $PGRMB,0.0,200,,,,K,,N,N*31
MSG 0 50219.214 $PGRMM,WGS 84*06
MSG 0 50219.530 $GPRMC,175820,A,4302.9273,N,07038.9494,W,000.4,357.5,030712,016.1,W*78
POS 0 50300.000 365685.066 4767552.382
QUA 0 50300.000 7 9.100 0.900 10.000 1.000 0.000 0.000 0.000
RAW 0 50300.000 4 430292.73000 -703894.94000 -21.90000 175820.00000
MSG 0 50219.680 $GPGGA,175820,4302.9273,N,07038.9494,W,1,10,0.9,10.5,M,-32.4,M,,*4B
MSG 0 50219.824 $GPGSA,A,3,,06,07,10,13,16,19,21,23,30,31,,1.4,0.9,1.1*30
MSG 0 50219.946 $GPGSV,3,3,11,23,53,229,50,30,35,065,47,31,08,117,47*49
MSG 0 50220.065 $PGRME,4.4,M,6.5,M,7.9,M*23
MSG 0 50220.125 $PGRMB,0.0,200,,,,K,,N,N*31
MSG 0 50220.186 $PGRMM,WGS 84*06
MSG 0 50220.532 $GPRMC,175821,A,4302.9271,N,07038.9493,W,000.0,357.5,030712,016.1,W*78
POS 0 50301.000 365685.194 4767552.009
QUA 0 50301.000 7 9.100 0.900 10.000 1.000 0.000 0.000 0.000
RAW 0 50301.000 4 430292.71000 -703894.93000 -22.20000 175821.00000
MSG 0 50220.682 $GPGGA,175821,4302.9271,N,07038.9493,W,1,10,0.9,10.2,M,-32.4,M,,*48
MSG 0 50220.825 $GPGSA,A,3,,06,07,10,13,16,19,21,23,30,31,,1.4,0.9,1.1*30
MSG 0 50220.948 $GPGSV,3,1,11,03,68,158,00,06,67,108,47,07,27,306,47,10,05,300,36*71
MSG 0 50221.094 $PGRME,4.4,M,6.5,M,7.9,M*23
MSG 0 50221.154 $PGRMB,0.0,200,,,,K,,N,N*31
MSG 0 50221.215 $PGRMM,WGS 84*06
MSG 0 50221.544 $GPRMC,175822,A,4302.9271,N,07038.9493,W,000.3,106.1,030712,016.1,W*7A
POS 0 50302.000 365685.194 4767552.009
QUA 0 50302.000 7 9.100 0.900 10.000 1.000 0.000 0.000 0.000
RAW 0 50302.000 4 430292.71000 -703894.93000 -22.40000 175822.00000
MSG 0 50221.694 $GPGGA,175822,4302.9271,N,07038.9493,W,1,10,0.9,10.0,M,-32.4,M,,*49
MSG 0 50221.837 $GPGSA,A,3,,06,07,10,13,16,19,21,23,30,31,,1.4,0.9,1.1*30
MSG 0 50221.960 $GPGSV,3,2,11,13,51,288,47,16,62,043,49,19,35,185,50,21,12,055,40*75
MSG 0 50222.106 $PGRME,4.4,M,6.5,M,7.9,M*23
MSG 0 50222.166 $PGRMB,0.0,200,,,,K,,N,N*31
MSG 0 50222.227 $PGRMM,WGS 84*06
MSG 0 50222.526 $GPRMC,175823,A,4302.9271,N,07038.9493,W,000.0,106.1,030712,016.1,W*78
POS 0 50303.000 365685.194 4767552.009
QUA 0 50303.000 7 9.100 0.900 10.000 1.000 0.000 0.000 0.000
RAW 0 50303.000 4 430292.71000 -703894.93000 -22.00000 175823.00000
MSG 0 50222.676 $GPGGA,175823,4302.9271,N,07038.9493,W,1,10,0.9,10.4,M,-32.4,M,,*4C
MSG 0 50222.819 $GPGSA,A,3,,06,07,10,13,16,19,21,23,30,31,,1.4,0.9,1.1*30
MSG 0 50222.942 $GPGSV,3,3,11,23,53,229,50,30,35,065,47,31,08,117,47*49
MSG 0 50223.061 $PGRME,4.4,M,6.5,M,7.9,M*23
MSG 0 50223.121 $PGRMB,0.0,200,,,,K,,N,N*31
MSG 0 50223.182 $PGRMM,WGS 84*06
MSG 0 50223.543 $GPRMC,175824,A,4302.9271,N,07038.9493,W,000.2,288.8,030712,016.1,W*71
POS 0 50304.000 365685.194 4767552.009
QUA 0 50304.000 7 9.100 0.900 10.000 1.000 0.000 0.000 0.000
RAW 0 50304.000 4 430292.71000 -703894.93000 -21.70000 175824.00000
MSG 0 50223.692 $GPGGA,175824,4302.9271,N,07038.9493,W,1,10,0.9,10.7,M,-32.4,M,,*48
MSG 0 50223.836 $GPGSA,A,3,,06,07,10,13,16,19,21,23,30,31,,1.4,0.9,1.1*30
MSG 0 50223.959 $GPGSV,3,1,11,03,68,158,00,06,67,108,47,07,27,306,47,10,05,300,35*72
MSG 0 50224.105 $PGRME,4.4,M,6.5,M,7.9,M*23
MSG 0 50224.165 $PGRMB,0.0,200,,,,K,,N,N*31
MSG 0 50224.225 $PGRMM,WGS 84*06
MSG 0 50224.549 $GPRMC,175825,A,4302.9271,N,07038.9494,W,000.0,288.8,030712,016.1,W*75
POS 0 50305.000 365685.058 4767552.012
QUA 0 50305.000 7 9.100 0.900 10.000 1.000 0.000 0.000 0.000
RAW 0 50305.000 4 430292.71000 -703894.94000 -21.70000 175825.00000
MSG 0 50224.699 $GPGGA,175825,4302.9271,N,07038.9494,W,1,10,0.9,10.7,M,-32.4,M,,*4E
MSG 0 50224.843 $GPGSA,A,3,,06,07,10,13,16,19,21,23,30,31,,1.4,0.9,1.1*30
MSG 0 50224.966 $GPGSV,3,2,11,13,51,288,48,16,62,043,49,19,35,185,50,21,12,055,40*7A
MSG 0 50225.111 $PGRME,4.4,M,6.5,M,7.9,M*23
MSG 0 50225.172 $PGRMB,0.0,200,,,,K,,N,N*31
MSG 0 50225.232 $PGRMM,WGS 84*06
MSG 0 50225.549 $GPRMC,175826,A,4302.9271,N,07038.9493,W,000.0,288.8,030712,016.1,W*71
POS 0 50306.000 365685.194 4767552.009
QUA 0 50306.000 7 9.100 0.900 10.000 1.000 0.000 0.000 0.000
RAW 0 50306.000 4 430292.71000 -703894.93000 -21.90000 175826.00000
MSG 0 50225.699 $GPGGA,175826,4302.9271,N,07038.9493,W,1,10,0.9,10.5,M,-32.4,M,,*48
MSG 0 50225.842 $GPGSA,A,3,,06,07,10,13,16,19,21,23,30,31,,1.4,0.9,1.1*30
MSG 0 50225.965 $GPGSV,3,3,11,23,53,229,49,30,35,065,47,31,08,117,46*40
MSG 0 50226.084 $PGRME,4.5,M,6.5,M,7.9,M*22
MSG 0 50226.144 $PGRMB,0.0,200,,,,K,,N,N*31
MSG 0 50226.205 $PGRMM,WGS 84*06
MSG 0 50226.552 $GPRMC,175827,A,4302.9272,N,07038.9494,W,000.2,310.8,030712,016.1,W*76
POS 0 50307.000 365685.062 4767552.197
QUA 0 50307.000 7 9.100 0.900 10.000 1.000 0.000 0.000 0.000
RAW 0 50307.000 4 430292.72000 -703894.94000 -22.10000 175827.00000
MSG 0 50226.702 $GPGGA,175827,4302.9272,N,07038.9494,W,1,10,0.9,10.3,M,-32.4,M,,*4B
MSG 0 50226.845 $GPGSA,A,3,,06,07,10,13,16,19,21,23,30,31,,1.4,0.9,1.1*30
MSG 0 50226.968 $GPGSV,3,1,11,03,68,158,00,06,67,108,47,07,27,306,46,10,05,299,00*74
FIX 99 50227.150 111 365685.062 4767552.197
