FTP NEW 2
VER 11.0.6.21
INF "" "" "" "" 0.000 0.000 0.000
ELL WGS-84 6378137.000 298.257223563
PRO TME -69.000000 0.999600 0.000000 0.000000 0.000000 500000.0000 0.0000
DTM 0.00 0.00 0.00 0.00000 0.00000 0.00000 0.00000
GEO ??? 0.000
HVU 1.0000000000 1.0000000000
TND 10:56:25 07/03/2012 240
DEV 0 32869 "Garmin GPS" 49156 C:\HYPACK 2011\devices\GPS.dll 11.0.10.6
OFF 0 0.000 0.000 0.000 0.000 0.000 0.000 0.000
DDT 0 SYN 
DEV 1 0 "Disabled" 0 Odom CV3 MK3 Disabled Unknown
USR "NOAA Joint Hydrographic Center" "HYPACK Inc." 0x8 15681181
EOH 719E5587BD3CC75ED8F5F24C02BC15293AFD24EC23429E0154658CD431B94D328C50E28B8CA658AF7BC08E0FB60E9C73C9FE464DF35307766B134B9DEF567DC6478E67EB3E663E98EF34D1C541E86F17D198CE4E7E5E0591BAA8971C8484E7ECBFE4240D195A42812780253577DFC72ADB18BDEFE5D1F3A0E553549FEE3D491A
MSG 0 39383.784 $GPRMC,145744,A,4303.1736,N,07037.4339,W,000.7,126.2,030712,016.1,W*79
POS 0 39464.000 367751.082 4767968.131
QUA 0 39464.000 7 9.000 1.000 8.000 1.000 0.000 0.000 0.000
RAW 0 39464.000 4 430317.36000 -703743.39000 -21.40000 145744.00000
MSG 0 39383.934 $GPGGA,145744,4303.1736,N,07037.4339,W,1,08,1.0,11.0,M,-32.4,M,,*4F
MSG 0 39384.078 $GPGSA,A,3,,14,16,20,,25,29,30,31,32,,,2.2,1.0,2.0*3D
MSG 0 39384.192 $GPGSV,3,3,10,31,67,036,49,32,45,258,46*7E
MSG 0 39384.284 $PGRME,4.7,M,8.4,M,9.7,M*2F
MSG 0 39384.344 $PGRMB,0.0,200,,,,K,,N,N*31
MSG 0 39384.405 $PGRMM,WGS 84*06
MSG 0 39384.794 $GPRMC,145745,A,4303.1735,N,07037.4339,W,000.4,127.5,030712,016.1,W*7E
POS 0 39465.000 367751.078 4767967.946
QUA 0 39465.000 7 9.000 1.000 8.000 1.000 0.000 0.000 0.000
RAW 0 39465.000 4 430317.35000 -703743.39000 -21.30000 145745.00000
MSG 0 39384.944 $GPGGA,145745,4303.1735,N,07037.4339,W,1,08,1.0,11.1,M,-32.4,M,,*4C
MSG 0 39385.088 $GPGSA,A,3,,14,16,20,,25,29,30,31,32,,,2.2,1.0,2.0*3D
MSG 0 39385.202 $GPGSV,3,1,10,11,00,242,33,14,32,127,48,16,31,209,47,20,31,291,47*76
MSG 0 39385.348 $PGRME,4.7,M,8.4,M,9.7,M*2F
MSG 0 39385.409 $PGRMB,0.0,200,,,,K,,N,N*31
MSG 0 39385.469 $PGRMM,WGS 84*06
FIX 99 39385.691 68 367751.078 4767967.946
MSG 0 39385.796 $GPRMC,145746,A,4303.1734,N,07037.4338,W,000.4,141.7,030712,016.1,W*7F
POS 0 39466.000 367751.211 4767967.758
QUA 0 39466.000 7 9.000 1.000 8.000 1.000 0.000 0.000 0.000
RAW 0 39466.000 4 430317.34000 -703743.38000 -21.20000 145746.00000
MSG 0 39385.946 $GPGGA,145746,4303.1734,N,07037.4338,W,1,08,1.0,11.2,M,-32.4,M,,*4C
MSG 0 39386.089 $GPGSA,A,3,,14,16,20,,25,29,30,31,32,,,2.2,1.0,2.0*3D
MSG 0 39386.204 $GPGSV,3,2,10,23,15,310,37,25,23,046,44,29,25,073,46,30,61,209,50*7E
MSG 0 39386.350 $PGRME,4.7,M,8.4,M,9.7,M*2F
MSG 0 39386.410 $PGRMB,0.0,200,,,,K,,N,N*31
MSG 0 39386.470 $PGRMM,WGS 84*06
MSG 0 39386.790 $GPRMC,145747,A,4303.1734,N,07037.4337,W,000.4,133.7,030712,016.1,W*74
POS 0 39467.000 367751.346 4767967.755
QUA 0 39467.000 7 9.000 1.000 8.000 1.000 0.000 0.000 0.000
RAW 0 39467.000 4 430317.34000 -703743.37000 -21.30000 145747.00000
MSG 0 39386.940 $GPGGA,145747,4303.1734,N,07037.4337,W,1,08,1.0,11.1,M,-32.4,M,,*41
MSG 0 39387.084 $GPGSA,A,3,,14,16,20,,25,29,30,31,32,,,2.2,1.0,2.0*3D
MSG 0 39387.198 $GPGSV,3,3,10,31,67,036,49,32,45,258,46*7E
MSG 0 39387.290 $PGRME,4.7,M,8.4,M,9.7,M*2F
MSG 0 39387.350 $PGRMB,0.0,200,,,,K,,N,N*31
MSG 0 39387.411 $PGRMM,WGS 84*06
MSG 0 39387.787 $GPRMC,145748,A,4303.1732,N,07037.4338,W,000.4,167.3,030712,016.1,W*77
POS 0 39468.000 367751.203 4767967.388
QUA 0 39468.000 7 9.000 1.000 8.000 1.000 0.000 0.000 0.000
RAW 0 39468.000 4 430317.32000 -703743.38000 -21.40000 145748.00000
MSG 0 39387.937 $GPGGA,145748,4303.1732,N,07037.4338,W,1,08,1.0,11.0,M,-32.4,M,,*46
MSG 0 39388.080 $GPGSA,A,3,,14,16,20,,25,29,30,31,32,,,2.2,1.0,2.0*3D
MSG 0 39388.195 $GPGSV,3,1,10,11,00,242,34,14,32,127,48,16,31,209,47,20,31,291,47*71
MSG 0 39388.340 $PGRME,4.7,M,8.4,M,9.7,M*2F
MSG 0 39388.401 $PGRMB,0.0,200,,,,K,,N,N*31
MSG 0 39388.461 $PGRMM,WGS 84*06
MSG 0 39388.796 $GPRMC,145749,A,4303.1731,N,07037.4334,W,000.6,134.5,030712,016.1,W*7B
POS 0 39469.000 367751.743 4767967.192
QUA 0 39469.000 7 9.000 1.000 8.000 1.000 0.000 0.000 0.000
RAW 0 39469.000 4 430317.31000 -703743.34000 -21.70000 145749.00000
MSG 0 39388.946 $GPGGA,145749,4303.1731,N,07037.4334,W,1,08,1.0,10.7,M,-32.4,M,,*4E
MSG 0 39389.090 $GPGSA,A,3,,14,16,20,,25,29,30,31,32,,,2.2,1.0,2.0*3D
MSG 0 39389.204 $GPGSV,3,2,10,23,15,310,37,25,23,046,43,29,25,073,45,30,61,209,50*7A
MSG 0 39389.350 $PGRME,4.7,M,8.4,M,9.7,M*2F
MSG 0 39389.411 $PGRMB,0.0,200,,,,K,,N,N*31
MSG 0 39389.471 $PGRMM,WGS 84*06
MSG 0 39389.796 $GPRMC,145750,A,4303.1730,N,07037.4332,W,000.7,130.3,030712,016.1,W*77
POS 0 39470.000 367752.011 4767967.002
QUA 0 39470.000 7 9.000 1.000 8.000 1.000 0.000 0.000 0.000
RAW 0 39470.000 4 430317.30000 -703743.32000 -21.80000 145750.00000
MSG 0 39389.946 $GPGGA,145750,4303.1730,N,07037.4332,W,1,08,1.0,10.6,M,-32.4,M,,*40
MSG 0 39390.090 $GPGSA,A,3,,14,16,20,,25,29,30,31,32,,,2.2,1.0,2.0*3D
MSG 0 39390.204 $GPGSV,3,3,10,31,67,036,49,32,45,258,47*7F
MSG 0 39390.296 $PGRME,4.7,M,8.4,M,9.7,M*2F
MSG 0 39390.356 $PGRMB,0.0,200,,,,K,,N,N*31
MSG 0 39390.416 $PGRMM,WGS 84*06
MSG 0 39390.783 $GPRMC,145751,A,4303.1729,N,07037.4331,W,000.5,133.1,030712,016.1,W*7E
POS 0 39471.000 367752.143 4767966.814
QUA 0 39471.000 7 9.000 1.000 8.000 1.000 0.000 0.000 0.000
RAW 0 39471.000 4 430317.29000 -703743.31000 -21.50000 145751.00000
MSG 0 39390.933 $GPGGA,145751,4303.1729,N,07037.4331,W,1,08,1.0,10.9,M,-32.4,M,,*45
MSG 0 39391.077 $GPGSA,A,3,,14,16,20,,25,29,30,31,32,,,2.2,1.0,2.0*3D
MSG 0 39391.191 $GPGSV,3,1,10,11,00,242,34,14,32,127,48,16,31,209,47,20,31,291,47*71
MSG 0 39391.337 $PGRME,4.7,M,8.4,M,9.7,M*2F
MSG 0 39391.397 $PGRMB,0.0,200,,,,K,,N,N*31
MSG 0 39391.458 $PGRMM,WGS 84*06
MSG 0 39391.785 $GPRMC,145752,A,4303.1729,N,07037.4330,W,000.4,119.5,030712,016.1,W*71
POS 0 39472.000 367752.279 4767966.811
QUA 0 39472.000 7 9.000 1.000 8.000 1.000 0.000 0.000 0.000
RAW 0 39472.000 4 430317.29000 -703743.30000 -21.20000 145752.00000
MSG 0 39391.935 $GPGGA,145752,4303.1729,N,07037.4330,W,1,08,1.0,11.2,M,-32.4,M,,*4D
MSG 0 39392.078 $GPGSA,A,3,,14,16,20,,25,29,30,31,32,,,2.2,1.0,2.0*3D
MSG 0 39392.193 $GPGSV,3,2,10,23,15,310,37,25,23,046,43,29,25,073,45,30,61,209,50*7A
MSG 0 39392.338 $PGRME,4.7,M,8.4,M,9.7,M*2F
MSG 0 39392.399 $PGRMB,0.0,200,,,,K,,N,N*31
MSG 0 39392.459 $PGRMM,WGS 84*06
MSG 0 39392.784 $GPRMC,145753,A,4303.1728,N,07037.4330,W,000.4,144.7,030712,016.1,W*7B
POS 0 39473.000 367752.275 4767966.626
QUA 0 39473.000 7 9.000 1.000 8.000 1.000 0.000 0.000 0.000
RAW 0 39473.000 4 430317.28000 -703743.30000 -21.40000 145753.00000
MSG 0 39392.934 $GPGGA,145753,4303.1728,N,07037.4330,W,1,08,1.0,11.0,M,-32.4,M,,*4F
MSG 0 39393.078 $GPGSA,A,3,,14,16,20,,25,29,30,31,32,,,2.2,1.0,2.0*3D
MSG 0 39393.192 $GPGSV,3,3,10,31,67,036,49,32,45,258,46*7E
MSG 0 39393.284 $PGRME,4.7,M,8.4,M,9.7,M*2F
MSG 0 39393.344 $PGRMB,0.0,200,,,,K,,N,N*31
MSG 0 39393.404 $PGRMM,WGS 84*06
MSG 0 39393.784 $GPRMC,145754,A,4303.1727,N,07037.4329,W,000.4,147.0,030712,016.1,W*7F
POS 0 39474.000 367752.407 4767966.439
QUA 0 39474.000 7 9.000 1.000 8.000 1.000 0.000 0.000 0.000
RAW 0 39474.000 4 430317.27000 -703743.29000 -21.70000 145754.00000
MSG 0 39393.934 $GPGGA,145754,4303.1727,N,07037.4329,W,1,08,1.0,10.7,M,-32.4,M,,*49
MSG 0 39394.078 $GPGSA,A,3,,14,16,20,,25,29,30,31,32,,,2.3,1.0,2.0*3C
MSG 0 39394.193 $GPGSV,3,1,10,11,00,242,34,14,32,127,48,16,31,209,48,20,31,291,47*7E
MSG 0 39394.338 $PGRME,4.7,M,8.4,M,9.7,M*2F
MSG 0 39394.399 $PGRMB,0.0,200,,,,K,,N,N*31
MSG 0 39394.459 $PGRMM,WGS 84*06
MSG 0 39394.796 $GPRMC,145755,A,4303.1725,N,07037.4327,W,000.6,140.6,030712,016.1,W*71
POS 0 39475.000 367752.671 4767966.063
QUA 0 39475.000 7 9.000 1.000 8.000 1.000 0.000 0.000 0.000
RAW 0 39475.000 4 430317.25000 -703743.27000 -21.70000 145755.00000
MSG 0 39394.946 $GPGGA,145755,4303.1725,N,07037.4327,W,1,08,1.0,10.7,M,-32.4,M,,*44
MSG 0 39395.090 $GPGSA,A,3,,14,16,20,,25,29,30,31,32,,,2.2,1.0,2.0*3D
MSG 0 39395.204 $GPGSV,3,2,10,23,15,310,37,25,23,046,42,29,25,073,45,30,61,209,50*7B
MSG 0 39395.350 $PGRME,4.7,M,8.4,M,9.7,M*2F
MSG 0 39395.410 $PGRMB,0.0,200,,,,K,,N,N*31
MSG 0 39395.471 $PGRMM,WGS 84*06
MSG 0 39395.784 $GPRMC,145756,A,4303.1724,N,07037.4325,W,000.7,137.0,030712,016.1,W*76
POS 0 39476.000 367752.939 4767965.873
QUA 0 39476.000 7 9.000 1.000 8.000 1.000 0.000 0.000 0.000
RAW 0 39476.000 4 430317.24000 -703743.25000 -21.60000 145756.00000
MSG 0 39395.934 $GPGGA,145756,4303.1724,N,07037.4325,W,1,08,1.0,10.8,M,-32.4,M,,*4B
MSG 0 39396.078 $GPGSA,A,3,,14,16,20,,25,29,30,31,32,,,2.3,1.0,2.0*3C
MSG 0 39396.192 $GPGSV,3,3,10,31,67,036,49,32,45,258,47*7F
MSG 0 39396.284 $PGRME,4.7,M,8.4,M,9.7,M*2F
MSG 0 39396.344 $PGRMB,0.0,200,,,,K,,N,N*31
MSG 0 39396.405 $PGRMM,WGS 84*06
MSG 0 39396.794 $GPRMC,145757,A,4303.1723,N,07037.4324,W,000.5,147.2,030712,016.1,W*76
POS 0 39477.000 367753.071 4767965.685
QUA 0 39477.000 7 9.000 1.000 8.000 1.000 0.000 0.000 0.000
RAW 0 39477.000 4 430317.23000 -703743.24000 -21.40000 145757.00000
MSG 0 39396.944 $GPGGA,145757,4303.1723,N,07037.4324,W,1,08,1.0,11.0,M,-32.4,M,,*45
MSG 0 39397.087 $GPGSA,A,3,,14,16,20,,25,29,30,31,32,,,2.2,1.0,2.0*3D
MSG 0 39397.202 $GPGSV,3,1,10,11,00,242,32,14,32,127,49,16,31,209,47,20,31,291,47*76
MSG 0 39397.348 $PGRME,4.7,M,8.4,M,9.7,M*2F
MSG 0 39397.408 $PGRMB,0.0,200,,,,K,,N,N*31
MSG 0 39397.469 $PGRMM,WGS 84*06
MSG 0 39397.800 $GPRMC,145758,A,4303.1723,N,07037.4323,W,000.3,119.0,030712,016.1,W*71
POS 0 39478.000 367753.207 4767965.682
QUA 0 39478.000 7 9.000 1.000 8.000 1.000 0.000 0.000 0.000
RAW 0 39478.000 4 430317.23000 -703743.23000 -21.20000 145758.00000
MSG 0 39397.950 $GPGGA,145758,4303.1723,N,07037.4323,W,1,08,1.0,11.2,M,-32.4,M,,*4F
MSG 0 39398.094 $GPGSA,A,3,,14,16,20,,25,29,30,31,32,,,2.2,1.0,2.0*3D
MSG 0 39398.208 $GPGSV,3,2,10,23,15,310,37,25,23,046,42,29,25,073,46,30,61,209,50*78
MSG 0 39398.354 $PGRME,4.7,M,8.4,M,9.7,M*2F
MSG 0 39398.414 $PGRMB,0.0,200,,,,K,,N,N*31
MSG 0 39398.475 $PGRMM,WGS 84*06
MSG 0 39398.794 $GPRMC,145759,A,4303.1722,N,07037.4322,W,000.5,144.1,030712,016.1,W*7F
POS 0 39479.000 367753.339 4767965.495
QUA 0 39479.000 7 9.000 1.000 8.000 1.000 0.000 0.000 0.000
RAW 0 39479.000 4 430317.22000 -703743.22000 -21.50000 145759.00000
MSG 0 39398.944 $GPGGA,145759,4303.1722,N,07037.4322,W,1,08,1.0,10.9,M,-32.4,M,,*44
MSG 0 39399.088 $GPGSA,A,3,,14,16,20,,25,29,30,31,32,,,2.3,1.0,2.0*3C
MSG 0 39399.202 $GPGSV,3,3,10,31,67,036,49,32,45,258,48*70
MSG 0 39399.294 $PGRME,4.7,M,8.4,M,9.7,M*2F
MSG 0 39399.354 $PGRMB,0.0,200,,,,K,,N,N*31
MSG 0 39399.415 $PGRMM,WGS 84*06
MSG 0 39399.780 $GPRMC,145800,A,4303.1722,N,07037.4323,W,000.0,144.1,030712,016.1,W*78
POS 0 39480.000 367753.204 4767965.497
QUA 0 39480.000 7 9.000 1.000 8.000 1.000 0.000 0.000 0.000
RAW 0 39480.000 4 430317.22000 -703743.23000 -21.60000 145800.00000
MSG 0 39399.930 $GPGGA,145800,4303.1722,N,07037.4323,W,1,08,1.0,10.8,M,-32.4,M,,*47
MSG 0 39400.073 $GPGSA,A,3,,14,16,20,,25,29,30,31,32,,,2.3,1.0,2.0*3C
MSG 0 39400.188 $GPGSV,3,1,10,11,00,242,32,14,32,127,49,16,31,209,47,20,31,291,47*76
MSG 0 39400.333 $PGRME,4.7,M,8.4,M,9.7,M*2F
MSG 0 39400.394 $PGRMB,0.0,200,,,,K,,N,N*31
MSG 0 39400.454 $PGRMM,WGS 84*06
MSG 0 39400.783 $GPRMC,145801,A,4303.1721,N,07037.4321,W,000.7,134.4,030712,016.1,W*7D
POS 0 39481.000 367753.472 4767965.307
QUA 0 39481.000 7 9.000 1.000 8.000 1.000 0.000 0.000 0.000
RAW 0 39481.000 4 430317.21000 -703743.21000 -21.40000 145801.00000
MSG 0 39400.933 $GPGGA,145801,4303.1721,N,07037.4321,W,1,08,1.0,11.0,M,-32.4,M,,*4E
MSG 0 39401.077 $GPGSA,A,3,,14,16,20,,25,29,30,31,32,,,2.3,1.0,2.0*3C
MSG 0 39401.191 $GPGSV,3,2,10,23,15,310,37,25,23,046,42,29,25,073,46,30,61,209,50*78
MSG 0 39401.337 $PGRME,4.7,M,8.4,M,9.7,M*2F
MSG 0 39401.398 $PGRMB,0.0,200,,,,K,,N,N*31
MSG 0 39401.458 $PGRMM,WGS 84*06
MSG 0 39401.784 $GPRMC,145802,A,4303.1718,N,07037.4318,W,000.7,140.2,030712,016.1,W*7B
POS 0 39482.000 367753.868 4767964.744
QUA 0 39482.000 7 9.000 1.000 8.000 1.000 0.000 0.000 0.000
RAW 0 39482.000 4 430317.18000 -703743.18000 -21.80000 145802.00000
MSG 0 39401.934 $GPGGA,145802,4303.1718,N,07037.4318,W,1,08,1.0,10.6,M,-32.4,M,,*4A
MSG 0 39402.077 $GPGSA,A,3,,14,16,20,,25,29,30,31,32,,,2.3,1.0,2.0*3C
MSG 0 39402.192 $GPGSV,3,3,10,31,67,036,49,32,45,258,49*71
MSG 0 39402.284 $PGRME,4.8,M,8.4,M,9.7,M*20
MSG 0 39402.344 $PGRMB,0.0,200,,,,K,,N,N*31
MSG 0 39402.404 $PGRMM,WGS 84*06
MSG 0 39402.796 $GPRMC,145803,A,4303.1717,N,07037.4316,W,000.6,141.4,030712,016.1,W*7D
POS 0 39483.000 367754.136 4767964.554
QUA 0 39483.000 7 9.000 1.000 8.000 1.000 0.000 0.000 0.000
RAW 0 39483.000 4 430317.17000 -703743.16000 -21.60000 145803.00000
MSG 0 39402.946 $GPGGA,145803,4303.1717,N,07037.4316,W,1,08,1.0,10.8,M,-32.4,M,,*44
MSG 0 39403.089 $GPGSA,A,3,,14,16,20,,25,29,30,31,32,,,2.3,1.0,2.0*3C
MSG 0 39403.204 $GPGSV,3,1,10,11,00,242,33,14,32,127,48,16,31,209,46,20,31,291,47*77
MSG 0 39403.350 $PGRME,4.8,M,8.4,M,9.7,M*20
MSG 0 39403.410 $PGRMB,0.0,200,,,,K,,N,N*31
MSG 0 39403.470 $PGRMM,WGS 84*06
MSG 0 39403.795 $GPRMC,145804,A,4303.1717,N,07037.4315,W,000.4,137.2,030712,016.1,W*7C
POS 0 39484.000 367754.272 4767964.551
QUA 0 39484.000 7 9.000 1.000 8.000 1.000 0.000 0.000 0.000
RAW 0 39484.000 4 430317.17000 -703743.15000 -21.50000 145804.00000
MSG 0 39403.945 $GPGGA,145804,4303.1717,N,07037.4315,W,1,08,1.0,10.9,M,-32.4,M,,*41
MSG 0 39404.089 $GPGSA,A,3,,14,16,20,,25,29,30,31,32,,,2.3,1.0,2.0*3C
MSG 0 39404.203 $GPGSV,3,2,10,23,15,310,38,25,23,046,41,29,25,073,46,30,61,209,49*7C
MSG 0 39404.349 $PGRME,4.8,M,8.4,M,9.7,M*20
MSG 0 39404.409 $PGRMB,0.0,200,,,,K,,N,N*31
MSG 0 39404.470 $PGRMM,WGS 84*06
MSG 0 39404.783 $GPRMC,145805,A,4303.1716,N,07037.4313,W,000.5,140.0,030712,016.1,W*79
POS 0 39485.000 367754.539 4767964.361
QUA 0 39485.000 7 9.000 1.000 8.000 1.000 0.000 0.000 0.000
RAW 0 39485.000 4 430317.16000 -703743.13000 -21.70000 145805.00000
MSG 0 39404.933 $GPGGA,145805,4303.1716,N,07037.4313,W,1,08,1.0,10.7,M,-32.4,M,,*49
MSG 0 39405.077 $GPGSA,A,3,,14,16,20,,25,29,30,31,32,,,2.3,1.0,2.0*3C
MSG 0 39405.191 $GPGSV,3,3,10,31,67,036,49,32,45,258,49*71
MSG 0 39405.283 $PGRME,4.8,M,8.4,M,9.7,M*20
MSG 0 39405.343 $PGRMB,0.0,200,,,,K,,N,N*31
MSG 0 39405.404 $PGRMM,WGS 84*06
MSG 0 39405.786 $GPRMC,145806,A,4303.1716,N,07037.4312,W,000.4,120.4,030712,016.1,W*78
POS 0 39486.000 367754.675 4767964.358
QUA 0 39486.000 7 9.000 1.000 8.000 1.000 0.000 0.000 0.000
RAW 0 39486.000 4 430317.16000 -703743.12000 -21.90000 145806.00000
MSG 0 39405.936 $GPGGA,145806,4303.1716,N,07037.4312,W,1,08,1.0,10.5,M,-32.4,M,,*49
MSG 0 39406.079 $GPGSA,A,3,,14,16,20,,25,29,30,31,32,,,2.3,1.0,2.0*3C
MSG 0 39406.194 $GPGSV,3,1,10,11,00,242,33,14,32,127,48,16,31,209,47,20,31,291,46*77
MSG 0 39406.340 $PGRME,4.8,M,8.4,M,9.7,M*20
MSG 0 39406.400 $PGRMB,0.0,200,,,,K,,N,N*31
MSG 0 39406.460 $PGRMM,WGS 84*06
MSG 0 39406.795 $GPRMC,145807,A,4303.1715,N,07037.4310,W,000.5,119.0,030712,016.1,W*77
POS 0 39487.000 367754.943 4767964.168
QUA 0 39487.000 7 9.000 1.000 8.000 1.000 0.000 0.000 0.000
RAW 0 39487.000 4 430317.15000 -703743.10000 -22.00000 145807.00000
MSG 0 39406.945 $GPGGA,145807,4303.1715,N,07037.4310,W,1,08,1.0,10.4,M,-32.4,M,,*48
MSG 0 39407.089 $GPGSA,A,3,,14,16,20,,25,29,30,31,32,,,2.3,1.0,2.0*3C
MSG 0 39407.203 $GPGSV,3,2,10,23,15,310,38,25,23,046,41,29,25,073,46,30,61,209,49*7C
MSG 0 39407.349 $PGRME,4.8,M,8.4,M,9.7,M*20
MSG 0 39407.409 $PGRMB,0.0,200,,,,K,,N,N*31
MSG 0 39407.470 $PGRMM,WGS 84*06
MSG 0 39407.784 $GPRMC,145808,A,4303.1713,N,07037.4310,W,000.4,142.3,030712,016.1,W*72
POS 0 39488.000 367754.936 4767963.797
QUA 0 39488.000 7 9.000 1.000 8.000 1.000 0.000 0.000 0.000
RAW 0 39488.000 4 430317.13000 -703743.10000 -21.70000 145808.00000
MSG 0 39407.934 $GPGGA,145808,4303.1713,N,07037.4310,W,1,08,1.0,10.7,M,-32.4,M,,*42
MSG 0 39408.077 $GPGSA,A,3,,14,16,20,,25,29,30,31,32,,,2.3,1.0,2.0*3C
MSG 0 39408.192 $GPGSV,3,3,10,31,67,036,49,32,45,258,49*71
MSG 0 39408.284 $PGRME,4.8,M,8.4,M,9.7,M*20
MSG 0 39408.344 $PGRMB,0.0,200,,,,K,,N,N*31
MSG 0 39408.404 $PGRMM,WGS 84*06
MSG 0 39408.790 $GPRMC,145809,A,4303.1712,N,07037.4308,W,000.5,126.0,030712,016.1,W*7B
POS 0 39489.000 367755.204 4767963.607
QUA 0 39489.000 7 9.000 1.000 8.000 1.000 0.000 0.000 0.000
RAW 0 39489.000 4 430317.12000 -703743.08000 -21.50000 145809.00000
MSG 0 39408.940 $GPGGA,145809,4303.1712,N,07037.4308,W,1,08,1.0,10.9,M,-32.4,M,,*45
MSG 0 39409.084 $GPGSA,A,3,,14,16,20,,25,29,30,31,32,,,2.3,1.0,2.0*3C
MSG 0 39409.199 $GPGSV,3,1,10,11,00,242,34,14,32,127,49,16,31,209,46,20,31,291,46*70
MSG 0 39409.344 $PGRME,4.8,M,8.4,M,9.7,M*20
MSG 0 39409.405 $PGRMB,0.0,200,,,,K,,N,N*31
MSG 0 39409.465 $PGRMM,WGS 84*06
MSG 0 39409.783 $GPRMC,145810,A,4303.1711,N,07037.4309,W,000.4,163.2,030712,016.1,W*73
POS 0 39490.000 367755.064 4767963.425
QUA 0 39490.000 7 9.000 1.000 8.000 1.000 0.000 0.000 0.000
RAW 0 39490.000 4 430317.11000 -703743.09000 -21.60000 145810.00000
MSG 0 39409.933 $GPGGA,145810,4303.1711,N,07037.4309,W,1,08,1.0,10.8,M,-32.4,M,,*4E
MSG 0 39410.077 $GPGSA,A,3,,14,16,20,,25,29,30,31,32,,,2.3,1.0,2.0*3C
MSG 0 39410.191 $GPGSV,3,2,10,23,15,310,37,25,23,046,41,29,25,073,47,30,61,209,49*72
MSG 0 39410.337 $PGRME,4.8,M,8.4,M,9.7,M*20
MSG 0 39410.397 $PGRMB,0.0,200,,,,K,,N,N*31
MSG 0 39410.458 $PGRMM,WGS 84*06
MSG 0 39410.794 $GPRMC,145811,A,4303.1710,N,07037.4307,W,000.4,135.3,030712,016.1,W*7F
POS 0 39491.000 367755.332 4767963.234
QUA 0 39491.000 7 9.000 1.000 8.000 1.000 0.000 0.000 0.000
RAW 0 39491.000 4 430317.10000 -703743.07000 -21.90000 145811.00000
MSG 0 39410.944 $GPGGA,145811,4303.1710,N,07037.4307,W,1,08,1.0,10.5,M,-32.4,M,,*4D
MSG 0 39411.087 $GPGSA,A,3,,14,16,20,,25,29,30,31,32,,,2.3,1.0,2.0*3C
MSG 0 39411.202 $GPGSV,3,3,10,31,67,036,49,32,45,258,49*71
MSG 0 39411.293 $PGRME,4.8,M,8.4,M,9.7,M*20
MSG 0 39411.354 $PGRMB,0.0,200,,,,K,,N,N*31
MSG 0 39411.414 $PGRMM,WGS 84*06
MSG 0 39411.796 $GPRMC,145812,A,4303.1708,N,07037.4305,W,000.6,142.3,030712,016.1,W*75
POS 0 39492.000 367755.597 4767962.859
QUA 0 39492.000 7 9.000 1.000 8.000 1.000 0.000 0.000 0.000
RAW 0 39492.000 4 430317.08000 -703743.05000 -22.10000 145812.00000
MSG 0 39411.946 $GPGGA,145812,4303.1708,N,07037.4305,W,1,08,1.0,10.3,M,-32.4,M,,*43
MSG 0 39412.089 $GPGSA,A,3,,14,16,20,,25,29,30,31,32,,,2.3,1.0,2.0*3C
MSG 0 39412.204 $GPGSV,3,1,10,11,00,242,33,14,32,127,49,16,31,209,46,20,31,291,46*77
MSG 0 39412.350 $PGRME,4.8,M,8.4,M,9.7,M*20
MSG 0 39412.410 $PGRMB,0.0,200,,,,K,,N,N*31
MSG 0 39412.470 $PGRMM,WGS 84*06
MSG 0 39412.796 $GPRMC,145813,A,4303.1708,N,07037.4303,W,000.5,117.0,030712,016.1,W*72
POS 0 39493.000 367755.868 4767962.854
QUA 0 39493.000 7 9.000 1.000 8.000 1.000 0.000 0.000 0.000
RAW 0 39493.000 4 430317.08000 -703743.03000 -22.00000 145813.00000
MSG 0 39412.946 $GPGGA,145813,4303.1708,N,07037.4303,W,1,08,1.0,10.4,M,-32.4,M,,*43
MSG 0 39413.089 $GPGSA,A,3,,14,16,20,,25,29,30,31,32,,,2.3,1.0,2.0*3C
MSG 0 39413.204 $GPGSV,3,2,10,23,15,310,37,25,23,046,41,29,25,073,47,30,61,209,49*72
MSG 0 39413.349 $PGRME,4.8,M,8.4,M,9.7,M*20
MSG 0 39413.410 $PGRMB,0.0,200,,,,K,,N,N*31
MSG 0 39413.470 $PGRMM,WGS 84*06
MSG 0 39413.783 $GPRMC,145814,A,4303.1707,N,07037.4302,W,000.4,127.2,030712,016.1,W*7B
POS 0 39494.000 367756.000 4767962.666
QUA 0 39494.000 7 9.000 1.000 8.000 1.000 0.000 0.000 0.000
RAW 0 39494.000 4 430317.07000 -703743.02000 -21.70000 145814.00000
MSG 0 39413.933 $GPGGA,145814,4303.1707,N,07037.4302,W,1,08,1.0,10.7,M,-32.4,M,,*49
MSG 0 39414.077 $GPGSA,A,3,,14,16,20,,25,29,30,31,32,,,2.2,1.0,2.0*3D
MSG 0 39414.191 $GPGSV,3,3,10,31,67,036,49,32,45,258,49*71
MSG 0 39414.283 $PGRME,4.8,M,8.4,M,9.7,M*20
MSG 0 39414.343 $PGRMB,0.0,200,,,,K,,N,N*31
MSG 0 39414.404 $PGRMM,WGS 84*06
MSG 0 39414.783 $GPRMC,145815,A,4303.1707,N,07037.4299,W,000.6,110.8,030712,016.1,W*75
POS 0 39495.000 367756.408 4767962.658
QUA 0 39495.000 7 9.000 1.000 8.000 1.000 0.000 0.000 0.000
RAW 0 39495.000 4 430317.07000 -703742.99000 -21.80000 145815.00000
MSG 0 39414.933 $GPGGA,145815,4303.1707,N,07037.4299,W,1,08,1.0,10.6,M,-32.4,M,,*4A
MSG 0 39415.077 $GPGSA,A,3,,14,16,20,,25,29,30,31,32,,,2.2,1.0,2.0*3D
MSG 0 39415.191 $GPGSV,3,1,10,11,00,242,31,14,32,127,49,16,31,209,46,20,31,291,46*75
MSG 0 39415.337 $PGRME,4.8,M,8.4,M,9.7,M*20
MSG 0 39415.397 $PGRMB,0.0,200,,,,K,,N,N*31
MSG 0 39415.458 $PGRMM,WGS 84*06
MSG 0 39415.785 $GPRMC,145816,A,4303.1705,N,07037.4299,W,000.5,144.2,030712,016.1,W*7C
POS 0 39496.000 367756.400 4767962.288
QUA 0 39496.000 7 9.000 1.000 8.000 1.000 0.000 0.000 0.000
RAW 0 39496.000 4 430317.05000 -703742.99000 -21.70000 145816.00000
MSG 0 39415.935 $GPGGA,145816,4303.1705,N,07037.4299,W,1,08,1.0,10.7,M,-32.4,M,,*4A
MSG 0 39416.079 $GPGSA,A,3,,14,16,20,,25,29,30,31,32,,,2.2,1.0,2.0*3D
MSG 0 39416.193 $GPGSV,3,2,10,23,15,310,37,25,23,046,41,29,25,073,47,30,61,209,49*72
MSG 0 39416.339 $PGRME,4.8,M,8.4,M,9.7,M*20
MSG 0 39416.399 $PGRMB,0.0,200,,,,K,,N,N*31
MSG 0 39416.460 $PGRMM,WGS 84*06
MSG 0 39416.779 $GPRMC,145817,A,4303.1706,N,07037.4300,W,000.0,144.2,030712,016.1,W*7A
POS 0 39497.000 367756.268 4767962.476
QUA 0 39497.000 7 9.000 1.000 8.000 1.000 0.000 0.000 0.000
RAW 0 39497.000 4 430317.06000 -703743.00000 -21.30000 145817.00000
MSG 0 39416.929 $GPGGA,145817,4303.1706,N,07037.4300,W,1,08,1.0,11.1,M,-32.4,M,,*4E
MSG 0 39417.072 $GPGSA,A,3,,14,16,20,,25,29,30,31,32,,,2.2,1.0,2.0*3D
MSG 0 39417.187 $GPGSV,3,3,10,31,67,036,49,32,45,258,50*79
MSG 0 39417.278 $PGRME,4.8,M,8.4,M,9.7,M*20
MSG 0 39417.339 $PGRMB,0.0,200,,,,K,,N,N*31
MSG 0 39417.399 $PGRMM,WGS 84*06
MSG 0 39417.782 $GPRMC,145818,A,4303.1705,N,07037.4300,W,000.5,176.0,030712,016.1,W*70
POS 0 39498.000 367756.265 4767962.290
QUA 0 39498.000 7 9.000 1.000 8.000 1.000 0.000 0.000 0.000
RAW 0 39498.000 4 430317.05000 -703743.00000 -21.50000 145818.00000
MSG 0 39417.932 $GPGGA,145818,4303.1705,N,07037.4300,W,1,08,1.0,10.9,M,-32.4,M,,*4B
MSG 0 39418.076 $GPGSA,A,3,,14,16,20,,25,29,30,31,32,,,2.2,1.0,2.0*3D
MSG 0 39418.191 $GPGSV,3,1,10,11,00,242,30,14,32,127,49,16,31,209,46,20,31,291,46*74
MSG 0 39418.336 $PGRME,4.8,M,8.4,M,9.7,M*20
MSG 0 39418.397 $PGRMB,0.0,200,,,,K,,N,N*31
MSG 0 39418.457 $PGRMM,WGS 84*06
MSG 0 39418.783 $GPRMC,145819,A,4303.1704,N,07037.4298,W,000.4,127.8,030712,016.1,W*7D
POS 0 39499.000 367756.533 4767962.100
QUA 0 39499.000 7 9.000 1.000 8.000 1.000 0.000 0.000 0.000
RAW 0 39499.000 4 430317.04000 -703742.98000 -21.90000 145819.00000
MSG 0 39418.933 $GPGGA,145819,4303.1704,N,07037.4298,W,1,08,1.0,10.5,M,-32.4,M,,*47
MSG 0 39419.077 $GPGSA,A,3,,14,16,20,,25,29,30,31,32,,,2.2,1.0,2.0*3D
MSG 0 39419.191 $GPGSV,3,2,10,23,15,310,37,25,23,046,41,29,25,073,47,30,61,209,49*72
MSG 0 39419.337 $PGRME,4.8,M,8.4,M,9.7,M*20
MSG 0 39419.397 $PGRMB,0.0,200,,,,K,,N,N*31
MSG 0 39419.458 $PGRMM,WGS 84*06
MSG 0 39419.783 $GPRMC,145820,A,4303.1702,N,07037.4297,W,000.4,152.9,030712,016.1,W*7D
POS 0 39500.000 367756.661 4767961.727
QUA 0 39500.000 7 9.000 1.000 8.000 1.000 0.000 0.000 0.000
RAW 0 39500.000 4 430317.02000 -703742.97000 -22.10000 145820.00000
MSG 0 39419.933 $GPGGA,145820,4303.1702,N,07037.4297,W,1,08,1.0,10.3,M,-32.4,M,,*42
MSG 0 39420.077 $GPGSA,A,3,,14,16,20,,25,29,30,31,32,,,2.2,1.0,2.0*3D
MSG 0 39420.191 $GPGSV,3,3,10,31,67,036,49,32,45,258,49*71
MSG 0 39420.283 $PGRME,4.8,M,8.4,M,9.7,M*20
MSG 0 39420.343 $PGRMB,0.0,200,,,,K,,N,N*31
MSG 0 39420.404 $PGRMM,WGS 84*06
MSG 0 39420.783 $GPRMC,145821,A,4303.1703,N,07037.4294,W,000.6,099.8,030712,016.1,W*7B
POS 0 39501.000 367757.072 4767961.905
QUA 0 39501.000 7 9.000 1.000 8.000 1.000 0.000 0.000 0.000
RAW 0 39501.000 4 430317.03000 -703742.94000 -22.30000 145821.00000
MSG 0 39420.933 $GPGGA,145821,4303.1703,N,07037.4294,W,1,08,1.0,10.1,M,-32.4,M,,*43
MSG 0 39421.076 $GPGSA,A,3,,14,16,20,,25,29,30,31,32,,,2.3,1.0,2.0*3C
MSG 0 39421.191 $GPGSV,3,1,10,11,00,242,31,14,32,127,49,16,31,209,46,20,31,291,46*75
MSG 0 39421.337 $PGRME,4.8,M,8.4,M,9.7,M*20
MSG 0 39421.397 $PGRMB,0.0,200,,,,K,,N,N*31
MSG 0 39421.457 $PGRMM,WGS 84*06
MSG 0 39421.785 $GPRMC,145822,A,4303.1701,N,07037.4292,W,000.7,128.3,030712,016.1,W*7D
POS 0 39502.000 367757.336 4767961.529
QUA 0 39502.000 7 9.000 1.000 8.000 1.000 0.000 0.000 0.000
RAW 0 39502.000 4 430317.01000 -703742.92000 -22.30000 145822.00000
MSG 0 39421.935 $GPGGA,145822,4303.1701,N,07037.4292,W,1,08,1.0,10.1,M,-32.4,M,,*44
MSG 0 39422.079 $GPGSA,A,3,,14,16,20,,25,29,30,31,32,,,2.3,1.0,2.0*3C
MSG 0 39422.193 $GPGSV,3,2,10,23,15,310,37,25,23,046,40,29,25,073,47,30,61,209,49*73
MSG 0 39422.339 $PGRME,4.8,M,8.4,M,9.7,M*20
MSG 0 39422.399 $PGRMB,0.0,200,,,,K,,N,N*31
MSG 0 39422.460 $PGRMM,WGS 84*06
MSG 0 39422.794 $GPRMC,145823,A,4303.1701,N,07037.4289,W,000.6,099.8,030712,016.1,W*77
POS 0 39503.000 367757.743 4767961.521
QUA 0 39503.000 7 9.000 1.000 8.000 1.000 0.000 0.000 0.000
RAW 0 39503.000 4 430317.01000 -703742.89000 -21.90000 145823.00000
MSG 0 39422.944 $GPGGA,145823,4303.1701,N,07037.4289,W,1,08,1.0,10.5,M,-32.4,M,,*4B
MSG 0 39423.088 $GPGSA,A,3,,14,16,20,,25,29,30,31,32,,,2.3,1.0,2.0*3C
MSG 0 39423.203 $GPGSV,3,3,10,31,67,036,49,32,45,258,50*79
MSG 0 39423.294 $PGRME,4.8,M,8.4,M,9.7,M*20
MSG 0 39423.355 $PGRMB,0.0,200,,,,K,,N,N*31
MSG 0 39423.415 $PGRMM,WGS 84*06
MSG 0 39423.795 $GPRMC,145824,A,4303.1700,N,07037.4291,W,000.3,162.5,030712,016.1,W*75
POS 0 39504.000 367757.468 4767961.341
QUA 0 39504.000 7 9.000 1.000 8.000 1.000 0.000 0.000 0.000
RAW 0 39504.000 4 430317.00000 -703742.91000 -21.50000 145824.00000
MSG 0 39423.945 $GPGGA,145824,4303.1700,N,07037.4291,W,1,08,1.0,10.9,M,-32.4,M,,*48
MSG 0 39424.088 $GPGSA,A,3,,14,16,20,,25,29,30,31,32,,,2.3,1.0,2.0*3C
MSG 0 39424.203 $GPGSV,3,1,10,11,00,242,32,14,32,127,49,16,31,209,45,20,31,291,46*75
MSG 0 39424.349 $PGRME,4.8,M,8.4,M,9.7,M*20
MSG 0 39424.409 $PGRMB,0.0,200,,,,K,,N,N*31
MSG 0 39424.469 $PGRMM,WGS 84*06
MSG 0 39424.779 $GPRMC,145825,A,4303.1700,N,07037.4291,W,000.0,162.5,030712,016.1,W*77
POS 0 39505.000 367757.468 4767961.341
QUA 0 39505.000 7 9.000 1.000 8.000 1.000 0.000 0.000 0.000
RAW 0 39505.000 4 430317.00000 -703742.91000 -21.30000 145825.00000
MSG 0 39424.929 $GPGGA,145825,4303.1700,N,07037.4291,W,1,08,1.0,11.1,M,-32.4,M,,*40
MSG 0 39425.073 $GPGSA,A,3,,14,16,20,,25,29,30,31,32,,,2.3,1.0,2.0*3C
MSG 0 39425.187 $GPGSV,3,2,10,23,15,310,37,25,23,046,40,29,25,073,47,30,61,209,49*73
MSG 0 39425.333 $PGRME,4.8,M,8.4,M,9.7,M*20
MSG 0 39425.393 $PGRMB,0.0,200,,,,K,,N,N*31
MSG 0 39425.454 $PGRMM,WGS 84*06
MSG 0 39425.787 $GPRMC,145826,A,4303.1700,N,07037.4291,W,000.3,164.5,030712,016.1,W*71
POS 0 39506.000 367757.468 4767961.341
QUA 0 39506.000 7 9.000 1.000 8.000 1.000 0.000 0.000 0.000
RAW 0 39506.000 4 430317.00000 -703742.91000 -21.70000 145826.00000
MSG 0 39425.937 $GPGGA,145826,4303.1700,N,07037.4291,W,1,08,1.0,10.7,M,-32.4,M,,*44
MSG 0 39426.081 $GPGSA,A,3,,14,16,20,,25,29,30,31,32,,,2.2,1.0,2.0*3D
MSG 0 39426.195 $GPGSV,3,3,10,31,67,036,49,32,45,258,49*71
MSG 0 39426.287 $PGRME,4.8,M,8.4,M,9.7,M*20
MSG 0 39426.347 $PGRMB,0.0,200,,,,K,,N,N*31
MSG 0 39426.408 $PGRMM,WGS 84*06
MSG 0 39426.784 $GPRMC,145827,A,4303.1698,N,07037.4289,W,000.4,141.3,030712,016.1,W*7F
POS 0 39507.000 367757.733 4767960.966
QUA 0 39507.000 7 9.000 1.000 8.000 1.000 0.000 0.000 0.000
RAW 0 39507.000 4 430316.98000 -703742.89000 -22.10000 145827.00000
MSG 0 39426.934 $GPGGA,145827,4303.1698,N,07037.4289,W,1,08,1.0,10.3,M,-32.4,M,,*48
MSG 0 39427.078 $GPGSA,A,3,,14,16,20,,25,29,30,31,32,,,2.2,1.0,2.0*3D
MSG 0 39427.192 $GPGSV,3,1,10,11,00,242,33,14,32,127,49,16,31,209,46,20,31,291,46*77
MSG 0 39427.338 $PGRME,4.8,M,8.4,M,9.7,M*20
MSG 0 39427.398 $PGRMB,0.0,200,,,,K,,N,N*31
MSG 0 39427.459 $PGRMM,WGS 84*06
MSG 0 39427.785 $GPRMC,145828,A,4303.1699,N,07037.4290,W,000.0,141.3,030712,016.1,W*7D
POS 0 39508.000 367757.600 4767961.154
QUA 0 39508.000 7 9.000 1.000 8.000 1.000 0.000 0.000 0.000
RAW 0 39508.000 4 430316.99000 -703742.90000 -22.20000 145828.00000
MSG 0 39427.935 $GPGGA,145828,4303.1699,N,07037.4290,W,1,08,1.0,10.2,M,-32.4,M,,*4F
MSG 0 39428.079 $GPGSA,A,3,,14,16,20,,25,29,30,31,32,,,2.2,1.0,2.0*3D
MSG 0 39428.193 $GPGSV,3,2,10,23,15,310,37,25,23,046,41,29,25,073,46,30,61,209,49*73
MSG 0 39428.339 $PGRME,4.8,M,8.4,M,9.7,M*20
MSG 0 39428.399 $PGRMB,0.0,200,,,,K,,N,N*31
MSG 0 39428.460 $PGRMM,WGS 84*06
MSG 0 39428.792 $GPRMC,145829,A,4303.1698,N,07037.4287,W,000.9,116.2,030712,016.1,W*71
POS 0 39509.000 367758.004 4767960.961
QUA 0 39509.000 7 9.000 1.000 8.000 1.000 0.000 0.000 0.000
RAW 0 39509.000 4 430316.98000 -703742.87000 -22.30000 145829.00000
MSG 0 39428.942 $GPGGA,145829,4303.1698,N,07037.4287,W,1,08,1.0,10.1,M,-32.4,M,,*4A
MSG 0 39429.086 $GPGSA,A,3,,14,16,20,,25,29,30,31,32,,,2.2,1.0,2.0*3D
MSG 0 39429.201 $GPGSV,3,3,10,31,67,036,49,32,45,258,49*71
MSG 0 39429.292 $PGRME,4.8,M,8.4,M,9.7,M*20
MSG 0 39429.353 $PGRMB,0.0,200,,,,K,,N,N*31
MSG 0 39429.413 $PGRMM,WGS 84*06
MSG 0 39429.783 $GPRMC,145830,A,4303.1696,N,07037.4283,W,000.6,111.2,030712,016.1,W*7B
POS 0 39510.000 367758.540 4767960.580
QUA 0 39510.000 7 9.000 1.000 8.000 1.000 0.000 0.000 0.000
RAW 0 39510.000 4 430316.96000 -703742.83000 -22.30000 145830.00000
MSG 0 39429.933 $GPGGA,145830,4303.1696,N,07037.4283,W,1,08,1.0,10.1,M,-32.4,M,,*48
MSG 0 39430.076 $GPGSA,A,3,,14,16,20,,25,29,30,31,32,,,2.2,1.0,2.0*3D
MSG 0 39430.191 $GPGSV,3,1,10,11,00,242,33,14,31,128,48,16,31,209,47,20,31,291,46*7B
MSG 0 39430.337 $PGRME,4.8,M,8.4,M,9.7,M*20
MSG 0 39430.397 $PGRMB,0.0,200,,,,K,,N,N*31
MSG 0 39430.457 $PGRMM,WGS 84*06
MSG 0 39430.782 $GPRMC,145831,A,4303.1697,N,07037.4282,W,000.3,080.1,030712,016.1,W*75
POS 0 39511.000 367758.679 4767960.762
QUA 0 39511.000 7 9.000 1.000 8.000 1.000 0.000 0.000 0.000
RAW 0 39511.000 4 430316.97000 -703742.82000 -21.60000 145831.00000
MSG 0 39430.932 $GPGGA,145831,4303.1697,N,07037.4282,W,1,08,1.0,10.8,M,-32.4,M,,*40
MSG 0 39431.076 $GPGSA,A,3,,14,16,20,,25,29,30,31,32,,,2.2,1.0,2.0*3D
MSG 0 39431.190 $GPGSV,3,2,10,23,15,310,37,25,23,046,42,29,25,073,46,30,61,209,49*70
MSG 0 39431.336 $PGRME,4.8,M,8.4,M,9.7,M*20
MSG 0 39431.397 $PGRMB,0.0,200,,,,K,,N,N*31
MSG 0 39431.457 $PGRMM,WGS 84*06
MSG 0 39431.783 $GPRMC,145832,A,4303.1696,N,07037.4283,W,000.2,153.3,030712,016.1,W*7A
POS 0 39512.000 367758.540 4767960.580
QUA 0 39512.000 7 9.000 1.000 8.000 1.000 0.000 0.000 0.000
RAW 0 39512.000 4 430316.96000 -703742.83000 -21.50000 145832.00000
MSG 0 39431.933 $GPGGA,145832,4303.1696,N,07037.4283,W,1,08,1.0,10.9,M,-32.4,M,,*42
MSG 0 39432.076 $GPGSA,A,3,,14,16,20,,25,29,30,31,32,,,2.2,1.0,2.0*3D
MSG 0 39432.191 $GPGSV,3,3,10,31,67,036,48,32,45,258,48*71
MSG 0 39432.283 $PGRME,4.8,M,8.4,M,9.7,M*20
MSG 0 39432.343 $PGRMB,0.0,200,,,,K,,N,N*31
MSG 0 39432.403 $PGRMM,WGS 84*06
MSG 0 39432.782 $GPRMC,145833,A,4303.1696,N,07037.4282,W,000.2,153.3,030712,016.1,W*7A
POS 0 39513.000 367758.676 4767960.577
QUA 0 39513.000 7 9.000 1.000 8.000 1.000 0.000 0.000 0.000
RAW 0 39513.000 4 430316.96000 -703742.82000 -21.60000 145833.00000
MSG 0 39432.932 $GPGGA,145833,4303.1696,N,07037.4282,W,1,08,1.0,10.8,M,-32.4,M,,*43
MSG 0 39433.076 $GPGSA,A,3,,14,16,20,,25,29,30,31,32,,,2.2,1.0,2.0*3D
MSG 0 39433.191 $GPGSV,3,1,10,11,00,242,33,14,31,128,48,16,31,209,47,20,31,291,47*7A
MSG 0 39433.336 $PGRME,4.8,M,8.4,M,9.6,M*21
MSG 0 39433.397 $PGRMB,0.0,200,,,,K,,N,N*31
MSG 0 39433.457 $PGRMM,WGS 84*06
MSG 0 39433.782 $GPRMC,145834,A,4303.1695,N,07037.4282,W,000.2,153.3,030712,016.1,W*7E
POS 0 39514.000 367758.672 4767960.392
QUA 0 39514.000 7 9.000 1.000 8.000 1.000 0.000 0.000 0.000
RAW 0 39514.000 4 430316.95000 -703742.82000 -21.80000 145834.00000
MSG 0 39433.932 $GPGGA,145834,4303.1695,N,07037.4282,W,1,08,1.0,10.6,M,-32.4,M,,*49
MSG 0 39434.076 $GPGSA,A,3,,14,16,20,,25,29,30,31,32,,,2.2,1.0,2.0*3D
MSG 0 39434.191 $GPGSV,3,2,10,23,15,310,37,25,23,046,43,29,25,073,46,30,61,209,50*79
MSG 0 39434.336 $PGRME,4.8,M,8.4,M,9.6,M*21
MSG 0 39434.397 $PGRMT,GPS 17-HVS Ver. 2.80,P,P,R,R,P,,39,R*01
MSG 0 39434.497 $PGRMB,0.0,200,,,,K,,N,N*31
MSG 0 39434.557 $PGRMM,WGS 84*06
MSG 0 39434.784 $GPRMC,145835,A,4303.1696,N,07037.4281,W,000.1,153.3,030712,016.1,W*7C
POS 0 39515.000 367758.811 4767960.575
QUA 0 39515.000 7 9.000 1.000 8.000 1.000 0.000 0.000 0.000
RAW 0 39515.000 4 430316.96000 -703742.81000 -22.00000 145835.00000
MSG 0 39434.934 $GPGGA,145835,4303.1696,N,07037.4281,W,1,08,1.0,10.4,M,-32.4,M,,*4A
MSG 0 39435.077 $GPGSA,A,3,,14,16,20,,25,29,30,31,32,,,2.2,1.0,2.0*3D
MSG 0 39435.192 $GPGSV,3,3,10,31,67,036,48,32,45,258,47*7E
MSG 0 39435.283 $PGRME,4.8,M,8.4,M,9.6,M*21
MSG 0 39435.344 $PGRMB,0.0,200,,,,K,,N,N*31
MSG 0 39435.404 $PGRMM,WGS 84*06
MSG 0 39435.785 $GPRMC,145836,A,4303.1695,N,07037.4279,W,000.4,119.9,030712,016.1,W*7A
POS 0 39516.000 367759.079 4767960.384
QUA 0 39516.000 7 9.000 1.000 8.000 1.000 0.000 0.000 0.000
RAW 0 39516.000 4 430316.95000 -703742.79000 -22.00000 145836.00000
MSG 0 39435.935 $GPGGA,145836,4303.1695,N,07037.4279,W,1,08,1.0,10.4,M,-32.4,M,,*4D
MSG 0 39436.078 $GPGSA,A,3,,14,16,20,,25,29,30,31,32,,,2.2,1.0,2.0*3D
MSG 0 39436.193 $GPGSV,3,1,10,11,00,242,34,14,31,128,48,16,31,209,47,20,31,291,47*7D
MSG 0 39436.339 $PGRME,4.8,M,8.4,M,9.6,M*21
MSG 0 39436.399 $PGRMB,0.0,200,,,,K,,N,N*31
MSG 0 39436.459 $PGRMM,WGS 84*06
MSG 0 39436.783 $GPRMC,145837,A,4303.1694,N,07037.4276,W,000.7,103.7,030712,016.1,W*73
POS 0 39517.000 367759.483 4767960.191
QUA 0 39517.000 7 9.000 1.000 8.000 1.000 0.000 0.000 0.000
RAW 0 39517.000 4 430316.94000 -703742.76000 -22.20000 145837.00000
MSG 0 39436.932 $GPGGA,145837,4303.1694,N,07037.4276,W,1,08,1.0,10.2,M,-32.4,M,,*44
MSG 0 39437.076 $GPGSA,A,3,,14,16,20,,25,29,30,31,32,,,2.2,1.0,2.0*3D
MSG 0 39437.191 $GPGSV,3,2,10,23,15,310,37,25,23,046,44,29,25,073,46,30,61,209,50*7E
MSG 0 39437.336 $PGRME,4.8,M,8.4,M,9.6,M*21
MSG 0 39437.397 $PGRMB,0.0,200,,,,K,,N,N*31
MSG 0 39437.457 $PGRMM,WGS 84*06
MSG 0 39437.784 $GPRMC,145838,A,4303.1693,N,07037.4275,W,000.4,118.5,030712,016.1,W*73
POS 0 39518.000 367759.615 4767960.004
QUA 0 39518.000 7 9.000 1.000 8.000 1.000 0.000 0.000 0.000
RAW 0 39518.000 4 430316.93000 -703742.75000 -21.80000 145838.00000
MSG 0 39437.934 $GPGGA,145838,4303.1693,N,07037.4275,W,1,08,1.0,10.6,M,-32.4,M,,*4B
MSG 0 39438.078 $GPGSA,A,3,,14,16,20,,25,29,30,31,32,,,2.3,1.0,2.0*3C
MSG 0 39438.192 $GPGSV,3,3,10,31,67,036,48,32,45,258,46*7F
MSG 0 39438.284 $PGRME,4.8,M,8.4,M,9.6,M*21
MSG 0 39438.344 $PGRMB,0.0,200,,,,K,,N,N*31
MSG 0 39438.405 $PGRMM,WGS 84*06
MSG 0 39438.783 $GPRMC,145839,A,4303.1695,N,07037.4276,W,000.2,118.5,030712,016.1,W*71
POS 0 39519.000 367759.486 4767960.377
QUA 0 39519.000 7 9.000 1.000 8.000 1.000 0.000 0.000 0.000
RAW 0 39519.000 4 430316.95000 -703742.76000 -21.40000 145839.00000
MSG 0 39438.933 $GPGGA,145839,4303.1695,N,07037.4276,W,1,08,1.0,11.0,M,-32.4,M,,*48
MSG 0 39439.076 $GPGSA,A,3,,14,16,20,,25,29,30,31,32,,,2.2,1.0,2.0*3D
MSG 0 39439.191 $GPGSV,3,1,10,11,00,242,34,14,31,128,48,16,32,209,47,20,31,291,47*7E
MSG 0 39439.336 $PGRME,4.8,M,8.4,M,9.6,M*21
MSG 0 39439.397 $PGRMB,0.0,200,,,,K,,N,N*31
MSG 0 39439.457 $PGRMM,WGS 84*06
MSG 0 39439.794 $GPRMC,145840,A,4303.1694,N,07037.4273,W,000.5,104.2,030712,016.1,W*76
POS 0 39520.000 367759.890 4767960.184
QUA 0 39520.000 7 9.000 1.000 8.000 1.000 0.000 0.000 0.000
RAW 0 39520.000 4 430316.94000 -703742.73000 -21.30000 145840.00000
MSG 0 39439.944 $GPGGA,145840,4303.1694,N,07037.4273,W,1,08,1.0,11.1,M,-32.4,M,,*43
MSG 0 39440.087 $GPGSA,A,3,,14,16,20,,25,29,30,31,32,,,2.3,1.0,2.0*3C
MSG 0 39440.202 $GPGSV,3,2,10,23,15,310,37,25,23,046,44,29,25,073,47,30,62,209,50*7C
MSG 0 39440.348 $PGRME,4.8,M,8.4,M,9.6,M*21
MSG 0 39440.408 $PGRMB,0.0,200,,,,K,,N,N*31
MSG 0 39440.468 $PGRMM,WGS 84*06
MSG 0 39440.788 $GPRMC,145841,A,4303.1695,N,07037.4274,W,000.0,104.2,030712,016.1,W*74
POS 0 39521.000 367759.758 4767960.371
QUA 0 39521.000 7 9.000 1.000 8.000 1.000 0.000 0.000 0.000
RAW 0 39521.000 4 430316.95000 -703742.74000 -21.50000 145841.00000
MSG 0 39440.938 $GPGGA,145841,4303.1695,N,07037.4274,W,1,08,1.0,10.9,M,-32.4,M,,*4D
MSG 0 39441.081 $GPGSA,A,3,,14,16,20,,25,29,30,31,32,,,2.2,1.0,2.0*3D
MSG 0 39441.196 $GPGSV,3,3,10,31,67,036,48,32,45,258,46*7F
MSG 0 39441.288 $PGRME,4.8,M,8.4,M,9.6,M*21
MSG 0 39441.348 $PGRMB,0.0,200,,,,K,,N,N*31
MSG 0 39441.408 $PGRMM,WGS 84*06
MSG 0 39441.778 $GPRMC,145842,A,4303.1695,N,07037.4274,W,000.0,104.2,030712,016.1,W*77
POS 0 39522.000 367759.758 4767960.371
QUA 0 39522.000 7 9.000 1.000 8.000 1.000 0.000 0.000 0.000
RAW 0 39522.000 4 430316.95000 -703742.74000 -21.30000 145842.00000
MSG 0 39441.928 $GPGGA,145842,4303.1695,N,07037.4274,W,1,08,1.0,11.1,M,-32.4,M,,*47
MSG 0 39442.072 $GPGSA,A,3,,14,16,20,,25,29,30,31,32,,,2.2,1.0,2.0*3D
MSG 0 39442.186 $GPGSV,3,1,10,11,00,242,33,14,31,128,48,16,32,209,47,20,31,291,47*79
MSG 0 39442.332 $PGRME,4.8,M,8.4,M,9.6,M*21
MSG 0 39442.393 $PGRMB,0.0,200,,,,K,,N,N*31
MSG 0 39442.453 $PGRMM,WGS 84*06
MSG 0 39442.783 $GPRMC,145843,A,4303.1694,N,07037.4273,W,000.3,128.7,030712,016.1,W*78
POS 0 39523.000 367759.890 4767960.184
QUA 0 39523.000 7 9.000 1.000 8.000 1.000 0.000 0.000 0.000
RAW 0 39523.000 4 430316.94000 -703742.73000 -21.50000 145843.00000
MSG 0 39442.933 $GPGGA,145843,4303.1694,N,07037.4273,W,1,08,1.0,10.9,M,-32.4,M,,*49
MSG 0 39443.076 $GPGSA,A,3,,14,16,20,,25,29,30,31,32,,,2.2,1.0,2.0*3D
MSG 0 39443.191 $GPGSV,3,2,10,23,15,310,37,25,23,046,44,29,25,073,47,30,62,209,51*7D
MSG 0 39443.337 $PGRME,4.8,M,8.4,M,9.6,M*21
MSG 0 39443.397 $PGRMB,0.0,200,,,,K,,N,N*31
MSG 0 39443.457 $PGRMM,WGS 84*06
MSG 0 39443.784 $GPRMC,145844,A,4303.1693,N,07037.4271,W,000.4,126.3,030712,016.1,W*77
POS 0 39524.000 367760.158 4767959.993
QUA 0 39524.000 7 9.000 1.000 8.000 1.000 0.000 0.000 0.000
RAW 0 39524.000 4 430316.93000 -703742.71000 -21.40000 145844.00000
MSG 0 39443.933 $GPGGA,145844,4303.1693,N,07037.4271,W,1,08,1.0,11.0,M,-32.4,M,,*43
MSG 0 39444.077 $GPGSA,A,3,,14,16,20,,25,29,30,31,32,,,2.2,1.0,2.0*3D
MSG 0 39444.192 $GPGSV,3,3,10,31,67,036,48,32,45,258,45*7C
MSG 0 39444.283 $PGRME,4.8,M,8.4,M,9.6,M*21
MSG 0 39444.344 $PGRMB,0.0,200,,,,K,,N,N*31
MSG 0 39444.404 $PGRMM,WGS 84*06
FIX 99 39444.654 69 367760.158 4767959.993
