FTP NEW 2
VER 11.0.6.21
INF "" "" "" "" 0.000 0.000 0.000
ELL WGS-84 6378137.000 298.257223563
PRO TME -69.000000 0.999600 0.000000 0.000000 0.000000 500000.0000 0.0000
DTM 0.00 0.00 0.00 0.00000 0.00000 0.00000 0.00000
GEO ??? 0.000
HVU 1.0000000000 1.0000000000
TND 11:49:31 07/03/2012 240
DEV 0 32869 "Garmin GPS" 49156 C:\HYPACK 2011\devices\GPS.dll 11.0.10.6
OFF 0 0.000 0.000 0.000 0.000 0.000 0.000 0.000
DDT 0 SYN 
DEV 1 0 "Disabled" 0 Odom CV3 MK3 Disabled Unknown
USR "NOAA Joint Hydrographic Center" "HYPACK Inc." 0x8 15681181
EOH 0001FFFFFFFFFFFFFFFFFFFFFFFFFFFFFFFFFFFFFFFFFFFFFFFFFFFFFFFFFFFFFFFFFFFFFFFFFFFFFFFFFFFFFFFFFFFFFFFFFFFFFFFFFFFFFFFFFFFFFFFFFFFFFFFFFFFFFFFFFFFFFFFFFFFFFFFFFFFFFFFFFFFFFFFFFFFFFFFFFFFF003021300906052B0E03021A0500041479550CA6B9BED25607B7D42E408BE74A6A82988B
MSG 0 42569.800 $GPRMC,155050,A,4303.4253,N,07039.0224,W,000.5,108.7,030712,016.1,W*75
POS 0 42650.000 365604.103 4768476.066
QUA 0 42650.000 7 9.300 0.700 11.000 1.000 0.000 0.000 0.000
RAW 0 42650.000 4 430342.53000 -703902.24000 -24.60000 155050.00000
MSG 0 42569.950 $GPGGA,155050,4303.4253,N,07039.0224,W,1,11,0.7,7.8,M,-32.4,M,,*79
MSG 0 42570.091 $GPGSA,A,3,,06,13,14,16,20,23,25,29,30,31,32,1.3,0.7,1.0*3F
MSG 0 42570.218 $GPGSV,3,3,12,29,22,050,43,30,87,243,50,31,51,070,50,32,31,233,46*78
MSG 0 42570.364 $PGRME,4.4,M,5.5,M,7.1,M*28
MSG 0 42570.425 $PGRMB,0.0,200,,,,K,,N,N*31
MSG 0 42570.485 $PGRMM,WGS 84*06
MSG 0 42570.801 $GPRMC,155051,A,4303.4254,N,07039.0224,W,000.3,088.4,030712,016.1,W*7F
POS 0 42651.000 365604.106 4768476.251
QUA 0 42651.000 7 9.300 0.700 11.000 1.000 0.000 0.000 0.000
RAW 0 42651.000 4 430342.54000 -703902.24000 -24.50000 155051.00000
MSG 0 42570.951 $GPGGA,155051,4303.4254,N,07039.0224,W,1,11,0.7,7.9,M,-32.4,M,,*7E
MSG 0 42571.092 $GPGSA,A,3,,06,13,14,16,20,23,25,29,30,31,32,1.3,0.7,1.0*3F
MSG 0 42571.219 $GPGSV,3,1,12,03,09,183,33,06,18,169,46,13,05,316,43,14,10,140,43*79
MSG 0 42571.365 $PGRME,4.4,M,5.5,M,7.1,M*28
MSG 0 42571.425 $PGRMB,0.0,200,,,,K,,N,N*31
MSG 0 42571.486 $PGRMM,WGS 84*06
FIX 99 42571.909 84 365604.106 4768476.251
MSG 0 42571.816 $GPRMC,155052,A,4303.4253,N,07039.0222,W,000.4,117.4,030712,016.1,W*7D
POS 0 42652.000 365604.374 4768476.061
QUA 0 42652.000 7 9.300 0.700 11.000 1.000 0.000 0.000 0.000
RAW 0 42652.000 4 430342.53000 -703902.22000 -24.50000 155052.00000
MSG 0 42571.966 $GPGGA,155052,4303.4253,N,07039.0222,W,1,11,0.7,7.9,M,-32.4,M,,*7C
MSG 0 42572.108 $GPGSA,A,3,,06,13,14,16,20,23,25,29,30,31,32,1.3,0.7,1.0*3F
MSG 0 42572.235 $GPGSV,3,2,12,16,57,221,49,20,27,264,44,23,35,311,42,25,03,048,41*7A
MSG 0 42572.381 $PGRME,4.4,M,5.5,M,7.1,M*28
MSG 0 42572.441 $PGRMB,0.0,200,,,,K,,N,N*31
MSG 0 42572.502 $PGRMM,WGS 84*06
MSG 0 42572.801 $GPRMC,155053,A,4303.4253,N,07039.0220,W,000.5,106.1,030712,016.1,W*7A
POS 0 42653.000 365604.646 4768476.055
QUA 0 42653.000 7 9.300 0.700 11.000 1.000 0.000 0.000 0.000
RAW 0 42653.000 4 430342.53000 -703902.20000 -24.40000 155053.00000
MSG 0 42572.951 $GPGGA,155053,4303.4253,N,07039.0220,W,1,11,0.7,8.0,M,-32.4,M,,*79
MSG 0 42573.093 $GPGSA,A,3,,06,13,14,16,20,23,25,29,30,31,32,1.3,0.7,1.0*3F
MSG 0 42573.220 $GPGSV,3,3,12,29,22,050,43,30,87,243,50,31,51,070,50,32,31,233,47*79
MSG 0 42573.366 $PGRME,4.4,M,5.5,M,7.1,M*28
MSG 0 42573.426 $PGRMB,0.0,200,,,,K,,N,N*31
MSG 0 42573.486 $PGRMM,WGS 84*06
MSG 0 42573.801 $GPRMC,155054,A,4303.4251,N,07039.0219,W,000.6,135.5,030712,016.1,W*72
POS 0 42654.000 365604.774 4768475.683
QUA 0 42654.000 7 9.300 0.700 11.000 1.000 0.000 0.000 0.000
RAW 0 42654.000 4 430342.51000 -703902.19000 -24.50000 155054.00000
MSG 0 42573.951 $GPGGA,155054,4303.4251,N,07039.0219,W,1,11,0.7,7.9,M,-32.4,M,,*70
MSG 0 42574.092 $GPGSA,A,3,,06,13,14,16,20,23,25,29,30,31,32,1.3,0.7,1.0*3F
MSG 0 42574.219 $GPGSV,3,1,12,03,09,183,33,06,18,169,46,13,05,316,42,14,10,140,42*79
MSG 0 42574.365 $PGRME,4.4,M,5.5,M,7.1,M*28
MSG 0 42574.425 $PGRMB,0.0,200,,,,K,,N,N*31
MSG 0 42574.486 $PGRMM,WGS 84*06
MSG 0 42574.800 $GPRMC,155055,A,4303.4251,N,07039.0217,W,000.5,117.2,030712,016.1,W*79
POS 0 42655.000 365605.046 4768475.677
QUA 0 42655.000 7 9.300 0.700 11.000 1.000 0.000 0.000 0.000
RAW 0 42655.000 4 430342.51000 -703902.17000 -24.60000 155055.00000
MSG 0 42574.950 $GPGGA,155055,4303.4251,N,07039.0217,W,1,11,0.7,7.8,M,-32.4,M,,*7E
MSG 0 42575.091 $GPGSA,A,3,,06,13,14,16,20,23,25,29,30,31,32,1.3,0.7,1.0*3F
MSG 0 42575.218 $GPGSV,3,2,12,16,57,221,48,20,27,264,43,23,35,311,42,25,03,048,41*7C
MSG 0 42575.364 $PGRME,4.4,M,5.5,M,7.1,M*28
MSG 0 42575.425 $PGRMB,0.0,200,,,,K,,N,N*31
MSG 0 42575.485 $PGRMM,WGS 84*06
MSG 0 42575.801 $GPRMC,155056,A,4303.4250,N,07039.0215,W,000.5,122.1,030712,016.1,W*7C
POS 0 42656.000 365605.313 4768475.487
QUA 0 42656.000 7 9.300 0.700 11.000 1.000 0.000 0.000 0.000
RAW 0 42656.000 4 430342.50000 -703902.15000 -24.60000 155056.00000
MSG 0 42575.951 $GPGGA,155056,4303.4250,N,07039.0215,W,1,11,0.7,7.8,M,-32.4,M,,*7E
MSG 0 42576.092 $GPGSA,A,3,,06,13,14,16,20,23,25,29,30,31,32,1.3,0.7,1.0*3F
MSG 0 42576.219 $GPGSV,3,3,12,29,22,050,45,30,87,243,50,31,51,070,50,32,31,233,47*7F
MSG 0 42576.365 $PGRME,4.4,M,5.5,M,7.1,M*28
MSG 0 42576.425 $PGRMB,0.0,200,,,,K,,N,N*31
MSG 0 42576.486 $PGRMM,WGS 84*06
MSG 0 42576.801 $GPRMC,155057,A,4303.4250,N,07039.0212,W,000.7,098.6,030712,016.1,W*7F
POS 0 42657.000 365605.721 4768475.479
QUA 0 42657.000 7 9.300 0.700 11.000 1.000 0.000 0.000 0.000
RAW 0 42657.000 4 430342.50000 -703902.12000 -24.50000 155057.00000
MSG 0 42576.951 $GPGGA,155057,4303.4250,N,07039.0212,W,1,11,0.7,7.9,M,-32.4,M,,*79
MSG 0 42577.092 $GPGSA,A,3,,06,13,14,16,20,23,25,29,30,31,32,1.3,0.7,1.0*3F
MSG 0 42577.219 $GPGSV,3,1,12,03,09,183,33,06,18,169,46,13,05,316,42,14,10,140,41*7A
MSG 0 42577.365 $PGRME,4.4,M,5.5,M,7.1,M*28
MSG 0 42577.425 $PGRMB,0.0,200,,,,K,,N,N*31
MSG 0 42577.486 $PGRMM,WGS 84*06
MSG 0 42577.801 $GPRMC,155058,A,4303.4250,N,07039.0211,W,000.4,103.8,030712,016.1,W*7D
POS 0 42658.000 365605.856 4768475.476
QUA 0 42658.000 7 9.300 0.700 11.000 1.000 0.000 0.000 0.000
RAW 0 42658.000 4 430342.50000 -703902.11000 -24.40000 155058.00000
MSG 0 42577.951 $GPGGA,155058,4303.4250,N,07039.0211,W,1,11,0.7,8.0,M,-32.4,M,,*73
MSG 0 42578.092 $GPGSA,A,3,,06,13,14,16,20,23,25,29,30,31,32,1.3,0.7,1.0*3F
MSG 0 42578.219 $GPGSV,3,2,12,16,57,221,48,20,27,264,43,23,35,311,41,25,03,048,41*7F
MSG 0 42578.365 $PGRME,4.4,M,5.5,M,7.1,M*28
MSG 0 42578.425 $PGRMB,0.0,200,,,,K,,N,N*31
MSG 0 42578.486 $PGRMM,WGS 84*06
MSG 0 42578.802 $GPRMC,155059,A,4303.4249,N,07039.0209,W,000.5,106.3,030712,016.1,W*72
POS 0 42659.000 365606.124 4768475.286
QUA 0 42659.000 7 9.300 0.700 11.000 1.000 0.000 0.000 0.000
RAW 0 42659.000 4 430342.49000 -703902.09000 -24.50000 155059.00000
MSG 0 42578.952 $GPGGA,155059,4303.4249,N,07039.0209,W,1,11,0.7,7.9,M,-32.4,M,,*75
MSG 0 42579.093 $GPGSA,A,3,,06,13,14,16,20,23,25,29,30,31,32,1.3,0.7,1.0*3F
MSG 0 42579.220 $GPGSV,3,3,12,29,22,050,45,30,87,243,50,31,51,070,50,32,31,233,47*7F
MSG 0 42579.366 $PGRME,4.4,M,5.5,M,7.1,M*28
MSG 0 42579.427 $PGRMB,0.0,200,,,,K,,N,N*31
MSG 0 42579.487 $PGRMM,WGS 84*06
MSG 0 42579.801 $GPRMC,155100,A,4303.4249,N,07039.0210,W,000.2,133.2,030712,016.1,W*77
POS 0 42660.000 365605.988 4768475.288
QUA 0 42660.000 7 9.300 0.700 11.000 1.000 0.000 0.000 0.000
RAW 0 42660.000 4 430342.49000 -703902.10000 -24.50000 155100.00000
MSG 0 42579.951 $GPGGA,155100,4303.4249,N,07039.0210,W,1,11,0.7,7.9,M,-32.4,M,,*70
MSG 0 42580.092 $GPGSA,A,3,,06,13,14,16,20,23,25,29,30,31,32,1.3,0.7,1.0*3F
MSG 0 42580.219 $GPGSV,3,1,12,03,09,183,33,06,18,169,46,13,05,316,41,14,10,140,41*79
MSG 0 42580.365 $PGRME,4.4,M,5.5,M,7.1,M*28
MSG 0 42580.425 $PGRMB,0.0,200,,,,K,,N,N*31
MSG 0 42580.486 $PGRMM,WGS 84*06
MSG 0 42580.802 $GPRMC,155101,A,4303.4247,N,07039.0207,W,000.5,137.3,030712,016.1,W*7C
POS 0 42661.000 365606.388 4768474.910
QUA 0 42661.000 7 9.300 0.700 11.000 1.000 0.000 0.000 0.000
RAW 0 42661.000 4 430342.47000 -703902.07000 -24.70000 155101.00000
MSG 0 42580.952 $GPGGA,155101,4303.4247,N,07039.0207,W,1,11,0.7,7.7,M,-32.4,M,,*77
MSG 0 42581.094 $GPGSA,A,3,,06,13,14,16,20,23,25,29,30,31,32,1.3,0.7,1.0*3F
MSG 0 42581.221 $GPGSV,3,2,12,16,57,221,48,20,27,264,43,23,35,311,40,25,03,048,41*7E
MSG 0 42581.366 $PGRME,4.4,M,5.5,M,7.1,M*28
MSG 0 42581.427 $PGRMB,0.0,200,,,,K,,N,N*31
MSG 0 42581.487 $PGRMM,WGS 84*06
MSG 0 42581.816 $GPRMC,155102,A,4303.4248,N,07039.0206,W,000.4,101.7,030712,016.1,W*71
POS 0 42662.000 365606.528 4768475.093
QUA 0 42662.000 7 9.300 0.700 11.000 1.000 0.000 0.000 0.000
RAW 0 42662.000 4 430342.48000 -703902.06000 -24.50000 155102.00000
MSG 0 42581.966 $GPGGA,155102,4303.4248,N,07039.0206,W,1,11,0.7,7.9,M,-32.4,M,,*74
MSG 0 42582.108 $GPGSA,A,3,,06,13,14,16,20,23,25,29,30,31,32,1.3,0.7,1.0*3F
MSG 0 42582.235 $GPGSV,3,3,12,29,22,050,45,30,87,243,50,31,51,070,50,32,31,233,47*7F
MSG 0 42582.380 $PGRME,4.4,M,5.5,M,7.1,M*28
MSG 0 42582.441 $PGRMB,0.0,200,,,,K,,N,N*31
MSG 0 42582.501 $PGRMM,WGS 84*06
MSG 0 42582.800 $GPRMC,155103,A,4303.4247,N,07039.0203,W,000.6,121.0,030712,016.1,W*7D
POS 0 42663.000 365606.931 4768474.899
QUA 0 42663.000 7 9.300 0.700 11.000 1.000 0.000 0.000 0.000
RAW 0 42663.000 4 430342.47000 -703902.03000 -24.70000 155103.00000
MSG 0 42582.950 $GPGGA,155103,4303.4247,N,07039.0203,W,1,11,0.7,7.7,M,-32.4,M,,*71
MSG 0 42583.092 $GPGSA,A,3,,06,13,14,16,20,23,25,29,30,31,32,1.3,0.7,1.0*3F
MSG 0 42583.219 $GPGSV,3,1,12,03,09,183,33,06,18,169,46,13,05,316,41,14,10,140,40*78
MSG 0 42583.365 $PGRME,4.4,M,5.5,M,7.1,M*28
MSG 0 42583.425 $PGRMB,0.0,200,,,,K,,N,N*31
MSG 0 42583.485 $PGRMM,WGS 84*06
MSG 0 42583.802 $GPRMC,155104,A,4303.4247,N,07039.0201,W,000.5,092.8,030712,016.1,W*7A
POS 0 42664.000 365607.203 4768474.894
QUA 0 42664.000 7 9.300 0.700 11.000 1.000 0.000 0.000 0.000
RAW 0 42664.000 4 430342.47000 -703902.01000 -24.40000 155104.00000
MSG 0 42583.952 $GPGGA,155104,4303.4247,N,07039.0201,W,1,11,0.7,8.0,M,-32.4,M,,*7C
MSG 0 42584.093 $GPGSA,A,3,,06,13,14,16,20,23,25,29,30,31,32,1.3,0.7,1.0*3F
MSG 0 42584.220 $GPGSV,3,2,12,16,57,221,48,20,27,264,43,23,35,311,39,25,03,048,41*70
MSG 0 42584.366 $PGRME,4.4,M,5.5,M,7.1,M*28
MSG 0 42584.426 $PGRMB,0.0,200,,,,K,,N,N*31
MSG 0 42584.487 $PGRMM,WGS 84*06
MSG 0 42584.800 $GPRMC,155105,A,4303.4246,N,07039.0200,W,000.5,114.5,030712,016.1,W*79
POS 0 42665.000 365607.335 4768474.706
QUA 0 42665.000 7 9.300 0.700 11.000 1.000 0.000 0.000 0.000
RAW 0 42665.000 4 430342.46000 -703902.00000 -24.50000 155105.00000
MSG 0 42584.950 $GPGGA,155105,4303.4246,N,07039.0200,W,1,11,0.7,7.9,M,-32.4,M,,*7B
MSG 0 42585.091 $GPGSA,A,3,,06,13,14,16,20,23,25,29,30,31,32,1.3,0.7,1.0*3F
MSG 0 42585.219 $GPGSV,3,3,12,29,22,050,45,30,87,243,50,31,51,070,50,32,31,233,47*7F
MSG 0 42585.364 $PGRME,4.4,M,5.5,M,7.1,M*28
MSG 0 42585.425 $PGRMB,0.0,200,,,,K,,N,N*31
MSG 0 42585.485 $PGRMM,WGS 84*06
MSG 0 42585.815 $GPRMC,155106,A,4303.4246,N,07039.0198,W,000.5,115.2,030712,016.1,W*7E
POS 0 42666.000 365607.606 4768474.701
QUA 0 42666.000 7 9.300 0.700 11.000 1.000 0.000 0.000 0.000
RAW 0 42666.000 4 430342.46000 -703901.98000 -24.40000 155106.00000
MSG 0 42585.965 $GPGGA,155106,4303.4246,N,07039.0198,W,1,11,0.7,8.0,M,-32.4,M,,*7C
MSG 0 42586.107 $GPGSA,A,3,,06,13,14,16,20,23,25,29,30,31,32,1.3,0.7,1.0*3F
MSG 0 42586.234 $GPGSV,3,1,12,03,09,183,33,06,18,169,46,13,05,316,41,14,10,140,40*78
MSG 0 42586.379 $PGRME,4.4,M,5.5,M,7.1,M*28
MSG 0 42586.440 $PGRMB,0.0,200,,,,K,,N,N*31
MSG 0 42586.500 $PGRMM,WGS 84*06
MSG 0 42586.800 $GPRMC,155107,A,4303.4245,N,07039.0197,W,000.3,130.6,030712,016.1,W*76
POS 0 42667.000 365607.738 4768474.513
QUA 0 42667.000 7 9.300 0.700 11.000 1.000 0.000 0.000 0.000
RAW 0 42667.000 4 430342.45000 -703901.97000 -24.40000 155107.00000
MSG 0 42586.950 $GPGGA,155107,4303.4245,N,07039.0197,W,1,11,0.7,8.0,M,-32.4,M,,*71
MSG 0 42587.092 $GPGSA,A,3,,06,13,14,16,20,23,25,29,30,31,32,1.3,0.7,1.0*3F
MSG 0 42587.219 $GPGSV,3,2,12,16,57,221,48,20,27,264,42,23,36,310,38,25,03,048,41*72
MSG 0 42587.364 $PGRME,4.5,M,5.5,M,7.1,M*29
MSG 0 42587.425 $PGRMB,0.0,200,,,,K,,N,N*31
MSG 0 42587.485 $PGRMM,WGS 84*06
MSG 0 42587.816 $GPRMC,155108,A,4303.4244,N,07039.0195,W,000.5,130.5,030712,016.1,W*7F
POS 0 42668.000 365608.006 4768474.323
QUA 0 42668.000 7 9.300 0.700 11.000 1.000 0.000 0.000 0.000
RAW 0 42668.000 4 430342.44000 -703901.95000 -24.60000 155108.00000
MSG 0 42587.966 $GPGGA,155108,4303.4244,N,07039.0195,W,1,11,0.7,7.8,M,-32.4,M,,*7A
MSG 0 42588.108 $GPGSA,A,3,,06,13,14,16,20,23,25,29,30,31,32,1.3,0.7,1.0*3F
MSG 0 42588.235 $GPGSV,3,3,12,29,22,050,46,30,87,243,50,31,51,070,50,32,31,233,47*7C
MSG 0 42588.381 $PGRME,4.5,M,5.5,M,7.1,M*29
MSG 0 42588.441 $PGRMB,0.0,200,,,,K,,N,N*31
MSG 0 42588.501 $PGRMM,WGS 84*06
MSG 0 42588.800 $GPRMC,155109,A,4303.4244,N,07039.0194,W,000.4,118.4,030712,016.1,W*75
POS 0 42669.000 365608.142 4768474.320
QUA 0 42669.000 7 9.300 0.700 11.000 1.000 0.000 0.000 0.000
RAW 0 42669.000 4 430342.44000 -703901.94000 -24.60000 155109.00000
MSG 0 42588.950 $GPGGA,155109,4303.4244,N,07039.0194,W,1,11,0.7,7.8,M,-32.4,M,,*7A
MSG 0 42589.091 $GPGSA,A,3,,06,13,14,16,20,23,25,29,30,31,32,1.3,0.7,1.0*3F
MSG 0 42589.218 $GPGSV,3,1,12,03,09,183,33,06,18,169,46,13,05,316,40,14,10,140,40*79
MSG 0 42589.364 $PGRME,4.4,M,5.5,M,7.1,M*28
MSG 0 42589.424 $PGRMB,0.0,200,,,,K,,N,N*31
MSG 0 42589.485 $PGRMM,WGS 84*06
MSG 0 42589.803 $GPRMC,155110,A,4303.4244,N,07039.0192,W,000.5,107.8,030712,016.1,W*78
POS 0 42670.000 365608.413 4768474.315
QUA 0 42670.000 7 9.300 0.700 11.000 1.000 0.000 0.000 0.000
RAW 0 42670.000 4 430342.44000 -703901.92000 -24.60000 155110.00000
MSG 0 42589.953 $GPGGA,155110,4303.4244,N,07039.0192,W,1,11,0.7,7.8,M,-32.4,M,,*74
MSG 0 42590.094 $GPGSA,A,3,,06,13,14,16,20,23,25,29,30,31,32,1.3,0.7,1.0*3F
MSG 0 42590.221 $GPGSV,3,2,12,16,57,221,48,20,27,264,42,23,36,310,40,25,03,048,41*7D
MSG 0 42590.367 $PGRME,4.4,M,5.5,M,7.1,M*28
MSG 0 42590.427 $PGRMB,0.0,200,,,,K,,N,N*31
MSG 0 42590.488 $PGRMM,WGS 84*06
MSG 0 42590.810 $GPRMC,155111,A,4303.4243,N,07039.0190,W,000.5,112.9,030712,016.1,W*79
POS 0 42671.000 365608.681 4768474.124
QUA 0 42671.000 7 9.300 0.700 11.000 1.000 0.000 0.000 0.000
RAW 0 42671.000 4 430342.43000 -703901.90000 -24.60000 155111.00000
MSG 0 42590.960 $GPGGA,155111,4303.4243,N,07039.0190,W,1,11,0.7,7.8,M,-32.4,M,,*70
MSG 0 42591.102 $GPGSA,A,3,,06,13,14,16,20,23,25,29,30,31,32,1.3,0.7,1.0*3F
MSG 0 42591.229 $GPGSV,3,3,12,29,22,050,46,30,87,243,50,31,51,070,50,32,31,233,47*7C
MSG 0 42591.375 $PGRME,4.4,M,5.5,M,7.1,M*28
MSG 0 42591.435 $PGRMB,0.0,200,,,,K,,N,N*31
MSG 0 42591.495 $PGRMM,WGS 84*06
MSG 0 42591.810 $GPRMC,155112,A,4303.4243,N,07039.0188,W,000.5,102.4,030712,016.1,W*7F
POS 0 42672.000 365608.952 4768474.119
QUA 0 42672.000 7 9.300 0.700 11.000 1.000 0.000 0.000 0.000
RAW 0 42672.000 4 430342.43000 -703901.88000 -24.50000 155112.00000
MSG 0 42591.960 $GPGGA,155112,4303.4243,N,07039.0188,W,1,11,0.7,7.9,M,-32.4,M,,*7B
MSG 0 42592.101 $GPGSA,A,3,,06,13,14,16,20,23,25,29,30,31,32,1.3,0.7,1.0*3F
MSG 0 42592.228 $GPGSV,3,1,12,03,09,183,00,06,18,169,45,13,05,316,39,14,10,140,41*75
MSG 0 42592.374 $PGRME,4.4,M,5.5,M,7.1,M*28
MSG 0 42592.434 $PGRMB,0.0,200,,,,K,,N,N*31
MSG 0 42592.495 $PGRMM,WGS 84*06
MSG 0 42592.811 $GPRMC,155113,A,4303.4242,N,07039.0188,W,000.3,129.3,030712,016.1,W*77
POS 0 42673.000 365608.949 4768473.934
QUA 0 42673.000 7 9.300 0.700 11.000 1.000 0.000 0.000 0.000
RAW 0 42673.000 4 430342.42000 -703901.88000 -24.50000 155113.00000
MSG 0 42592.961 $GPGGA,155113,4303.4242,N,07039.0188,W,1,11,0.7,7.9,M,-32.4,M,,*7B
MSG 0 42593.102 $GPGSA,A,3,,06,13,14,16,20,23,25,29,30,31,32,1.3,0.7,1.0*3F
MSG 0 42593.229 $GPGSV,3,2,12,16,57,221,48,20,27,264,42,23,36,310,38,25,03,048,41*72
MSG 0 42593.375 $PGRME,4.5,M,5.5,M,7.1,M*29
MSG 0 42593.435 $PGRMB,0.0,200,,,,K,,N,N*31
MSG 0 42593.496 $PGRMM,WGS 84*06
MSG 0 42593.800 $GPRMC,155114,A,4303.4242,N,07039.0185,W,000.5,117.6,030712,016.1,W*73
POS 0 42674.000 365609.356 4768473.926
QUA 0 42674.000 7 9.300 0.700 11.000 1.000 0.000 0.000 0.000
RAW 0 42674.000 4 430342.42000 -703901.85000 -24.60000 155114.00000
MSG 0 42593.950 $GPGGA,155114,4303.4242,N,07039.0185,W,1,11,0.7,7.8,M,-32.4,M,,*70
MSG 0 42594.092 $GPGSA,A,3,,06,13,14,16,20,23,25,29,30,31,32,1.3,0.7,1.0*3F
MSG 0 42594.219 $GPGSV,3,3,12,29,22,050,45,30,87,243,50,31,51,070,50,32,31,233,47*7F
MSG 0 42594.364 $PGRME,4.4,M,5.5,M,7.1,M*28
MSG 0 42594.425 $PGRMB,0.0,200,,,,K,,N,N*31
MSG 0 42594.485 $PGRMM,WGS 84*06
MSG 0 42594.814 $GPRMC,155115,A,4303.4241,N,07039.0183,W,000.6,123.5,030712,016.1,W*70
POS 0 42675.000 365609.624 4768473.736
QUA 0 42675.000 7 9.300 0.700 11.000 1.000 0.000 0.000 0.000
RAW 0 42675.000 4 430342.41000 -703901.83000 -24.70000 155115.00000
MSG 0 42594.964 $GPGGA,155115,4303.4241,N,07039.0183,W,1,11,0.7,7.7,M,-32.4,M,,*7B
MSG 0 42595.105 $GPGSA,A,3,,06,13,14,16,20,23,25,29,30,31,32,1.3,0.7,1.0*3F
MSG 0 42595.232 $GPGSV,3,1,12,03,09,183,33,06,18,169,45,13,06,316,39,14,10,140,42*75
MSG 0 42595.378 $PGRME,4.4,M,5.5,M,7.1,M*28
MSG 0 42595.438 $PGRMB,0.0,200,,,,K,,N,N*31
MSG 0 42595.499 $PGRMM,WGS 84*06
MSG 0 42595.816 $GPRMC,155116,A,4303.4241,N,07039.0182,W,000.4,111.0,030712,016.1,W*74
POS 0 42676.000 365609.760 4768473.733
QUA 0 42676.000 7 9.300 0.700 11.000 1.000 0.000 0.000 0.000
RAW 0 42676.000 4 430342.41000 -703901.82000 -24.50000 155116.00000
MSG 0 42595.966 $GPGGA,155116,4303.4241,N,07039.0182,W,1,11,0.7,7.9,M,-32.4,M,,*77
MSG 0 42596.107 $GPGSA,A,3,,06,13,14,16,20,23,25,29,30,31,32,1.3,0.7,1.0*3F
MSG 0 42596.234 $GPGSV,3,2,12,16,57,221,48,20,27,264,43,23,36,310,42,25,02,049,43*7C
MSG 0 42596.380 $PGRME,4.4,M,5.5,M,7.1,M*28
MSG 0 42596.441 $PGRMB,0.0,200,,,,K,,N,N*31
MSG 0 42596.501 $PGRMM,WGS 84*06
MSG 0 42596.800 $GPRMC,155117,A,4303.4240,N,07039.0182,W,000.3,126.6,030712,016.1,W*71
POS 0 42677.000 365609.756 4768473.548
QUA 0 42677.000 7 9.300 0.700 11.000 1.000 0.000 0.000 0.000
RAW 0 42677.000 4 430342.40000 -703901.82000 -24.20000 155117.00000
MSG 0 42596.950 $GPGGA,155117,4303.4240,N,07039.0182,W,1,11,0.7,8.2,M,-32.4,M,,*73
MSG 0 42597.092 $GPGSA,A,3,,06,13,14,16,20,23,25,29,30,31,32,1.3,0.7,1.0*3F
MSG 0 42597.219 $GPGSV,3,3,12,29,22,050,45,30,87,243,50,31,51,070,50,32,31,233,47*7F
MSG 0 42597.364 $PGRME,4.4,M,5.5,M,7.1,M*28
MSG 0 42597.425 $PGRMB,0.0,200,,,,K,,N,N*31
MSG 0 42597.485 $PGRMM,WGS 84*06
MSG 0 42597.816 $GPRMC,155118,A,4303.4240,N,07039.0180,W,000.4,113.3,030712,016.1,W*78
POS 0 42678.000 365610.027 4768473.542
QUA 0 42678.000 7 9.300 0.700 11.000 1.000 0.000 0.000 0.000
RAW 0 42678.000 4 430342.40000 -703901.80000 -24.40000 155118.00000
MSG 0 42597.966 $GPGGA,155118,4303.4240,N,07039.0180,W,1,11,0.7,8.0,M,-32.4,M,,*7C
MSG 0 42598.107 $GPGSA,A,3,,06,13,14,16,20,23,25,29,30,31,32,1.3,0.7,1.0*3F
MSG 0 42598.234 $GPGSV,3,1,12,03,09,183,33,06,18,169,44,13,06,316,38,14,10,140,42*75
MSG 0 42598.380 $PGRME,4.4,M,5.5,M,7.1,M*28
MSG 0 42598.441 $PGRMB,0.0,200,,,,K,,N,N*31
MSG 0 42598.501 $PGRMM,WGS 84*06
MSG 0 42598.813 $GPRMC,155119,A,4303.4240,N,07039.0180,W,000.1,113.3,030712,016.1,W*7C
POS 0 42679.000 365610.027 4768473.542
QUA 0 42679.000 7 9.300 0.700 11.000 1.000 0.000 0.000 0.000
RAW 0 42679.000 4 430342.40000 -703901.80000 -24.50000 155119.00000
MSG 0 42598.963 $GPGGA,155119,4303.4240,N,07039.0180,W,1,11,0.7,7.9,M,-32.4,M,,*7B
MSG 0 42599.105 $GPGSA,A,3,,06,13,14,16,20,23,25,29,30,31,32,1.3,0.7,1.0*3F
MSG 0 42599.232 $GPGSV,3,2,12,16,57,221,48,20,27,264,43,23,36,310,40,25,02,049,43*7E
MSG 0 42599.378 $PGRME,4.4,M,5.5,M,7.1,M*28
MSG 0 42599.438 $PGRMB,0.0,200,,,,K,,N,N*31
MSG 0 42599.499 $PGRMM,WGS 84*06
MSG 0 42599.799 $GPRMC,155120,A,4303.4238,N,07039.0177,W,000.5,127.2,030712,016.1,W*73
POS 0 42680.000 365610.427 4768473.164
QUA 0 42680.000 7 9.300 0.700 11.000 1.000 0.000 0.000 0.000
RAW 0 42680.000 4 430342.38000 -703901.77000 -25.00000 155120.00000
MSG 0 42599.949 $GPGGA,155120,4303.4238,N,07039.0177,W,1,11,0.7,7.4,M,-32.4,M,,*7B
MSG 0 42600.091 $GPGSA,A,3,,06,13,14,16,20,23,25,29,30,31,32,1.3,0.7,1.0*3F
MSG 0 42600.218 $GPGSV,3,3,12,29,22,050,44,30,87,243,50,31,51,070,50,32,31,233,47*7E
MSG 0 42600.363 $PGRME,4.4,M,5.5,M,7.1,M*28
MSG 0 42600.424 $PGRMB,0.0,200,,,,K,,N,N*31
MSG 0 42600.484 $PGRMM,WGS 84*06
MSG 0 42600.799 $GPRMC,155121,A,4303.4238,N,07039.0175,W,000.6,122.8,030712,016.1,W*7C
POS 0 42681.000 365610.699 4768473.159
QUA 0 42681.000 7 9.300 0.700 11.000 1.000 0.000 0.000 0.000
RAW 0 42681.000 4 430342.38000 -703901.75000 -24.90000 155121.00000
MSG 0 42600.949 $GPGGA,155121,4303.4238,N,07039.0175,W,1,11,0.7,7.5,M,-32.4,M,,*79
MSG 0 42601.091 $GPGSA,A,3,,06,13,14,16,20,23,25,29,30,31,32,1.3,0.7,1.0*3F
MSG 0 42601.218 $GPGSV,3,1,12,03,09,183,33,06,18,169,44,13,06,316,38,14,10,140,42*75
MSG 0 42601.364 $PGRME,4.4,M,5.5,M,7.1,M*28
MSG 0 42601.424 $PGRMB,0.0,200,,,,K,,N,N*31
MSG 0 42601.484 $PGRMM,WGS 84*06
MSG 0 42601.799 $GPRMC,155122,A,4303.4237,N,07039.0173,W,000.6,122.5,030712,016.1,W*7B
POS 0 42682.000 365610.966 4768472.969
QUA 0 42682.000 7 9.300 0.700 11.000 1.000 0.000 0.000 0.000
RAW 0 42682.000 4 430342.37000 -703901.73000 -24.70000 155122.00000
MSG 0 42601.949 $GPGGA,155122,4303.4237,N,07039.0173,W,1,11,0.7,7.7,M,-32.4,M,,*71
MSG 0 42602.091 $GPGSA,A,3,,06,13,14,16,20,23,25,29,30,31,32,1.3,0.7,1.0*3F
MSG 0 42602.218 $GPGSV,3,2,12,16,57,221,48,20,27,264,43,23,36,310,43,25,02,049,43*7D
MSG 0 42602.364 $PGRME,4.4,M,5.5,M,7.1,M*28
MSG 0 42602.424 $PGRMB,0.0,200,,,,K,,N,N*31
MSG 0 42602.484 $PGRMM,WGS 84*06
MSG 0 42602.799 $GPRMC,155123,A,4303.4237,N,07039.0171,W,000.5,116.0,030712,016.1,W*79
POS 0 42683.000 365611.238 4768472.963
QUA 0 42683.000 7 9.300 0.700 11.000 1.000 0.000 0.000 0.000
RAW 0 42683.000 4 430342.37000 -703901.71000 -24.30000 155123.00000
MSG 0 42602.949 $GPGGA,155123,4303.4237,N,07039.0171,W,1,11,0.7,8.1,M,-32.4,M,,*7B
MSG 0 42603.091 $GPGSA,A,3,,06,13,14,16,20,23,25,29,30,31,32,1.3,0.7,1.0*3F
MSG 0 42603.218 $GPGSV,3,3,12,29,22,050,43,30,87,243,51,31,51,070,51,32,31,233,47*79
MSG 0 42603.364 $PGRME,4.4,M,5.5,M,7.1,M*28
MSG 0 42603.424 $PGRMB,0.0,200,,,,K,,N,N*31
MSG 0 42603.484 $PGRMM,WGS 84*06
MSG 0 42603.800 $GPRMC,155124,A,4303.4236,N,07039.0170,W,000.4,110.1,030712,016.1,W*78
POS 0 42684.000 365611.370 4768472.775
QUA 0 42684.000 7 9.300 0.700 11.000 1.000 0.000 0.000 0.000
RAW 0 42684.000 4 430342.36000 -703901.70000 -24.40000 155124.00000
MSG 0 42603.950 $GPGGA,155124,4303.4236,N,07039.0170,W,1,11,0.7,8.0,M,-32.4,M,,*7D
MSG 0 42604.091 $GPGSA,A,3,,06,13,14,16,20,23,25,29,30,31,32,1.3,0.7,1.0*3F
MSG 0 42604.218 $GPGSV,3,1,12,03,09,183,33,06,18,169,43,13,06,316,38,14,10,140,41*71
MSG 0 42604.364 $PGRME,4.4,M,5.5,M,7.1,M*28
MSG 0 42604.424 $PGRMB,0.0,200,,,,K,,N,N*31
MSG 0 42604.485 $PGRMM,WGS 84*06
MSG 0 42604.801 $GPRMC,155125,A,4303.4236,N,07039.0169,W,000.3,112.7,030712,016.1,W*72
POS 0 42685.000 365611.506 4768472.773
QUA 0 42685.000 7 9.300 0.700 11.000 1.000 0.000 0.000 0.000
RAW 0 42685.000 4 430342.36000 -703901.69000 -24.30000 155125.00000
MSG 0 42604.951 $GPGGA,155125,4303.4236,N,07039.0169,W,1,11,0.7,8.1,M,-32.4,M,,*75
MSG 0 42605.093 $GPGSA,A,3,,06,13,14,16,20,23,25,29,30,31,32,1.3,0.7,1.1*3E
MSG 0 42605.220 $GPGSV,3,2,12,16,57,221,48,20,27,264,44,23,36,310,42,25,02,049,45*7D
MSG 0 42605.365 $PGRME,4.4,M,5.6,M,7.1,M*2B
MSG 0 42605.426 $PGRMB,0.0,200,,,,K,,N,N*31
MSG 0 42605.486 $PGRMM,WGS 84*06
MSG 0 42605.815 $GPRMC,155126,A,4303.4236,N,07039.0167,W,000.3,109.3,030712,016.1,W*71
POS 0 42686.000 365611.777 4768472.767
QUA 0 42686.000 7 9.300 0.700 11.000 1.000 0.000 0.000 0.000
RAW 0 42686.000 4 430342.36000 -703901.67000 -24.50000 155126.00000
MSG 0 42605.965 $GPGGA,155126,4303.4236,N,07039.0167,W,1,11,0.7,7.9,M,-32.4,M,,*7F
MSG 0 42606.107 $GPGSA,A,3,,06,13,14,16,20,23,25,29,30,31,32,1.3,0.7,1.1*3E
MSG 0 42606.234 $GPGSV,3,3,12,29,22,050,43,30,87,243,50,31,51,070,51,32,31,233,47*78
MSG 0 42606.380 $PGRME,4.4,M,5.5,M,7.1,M*28
MSG 0 42606.440 $PGRMB,0.0,200,,,,K,,N,N*31
MSG 0 42606.500 $PGRMM,WGS 84*06
MSG 0 42606.799 $GPRMC,155127,A,4303.4234,N,07039.0165,W,000.5,126.1,030712,016.1,W*79
POS 0 42687.000 365612.041 4768472.392
QUA 0 42687.000 7 9.200 0.800 11.000 1.000 0.000 0.000 0.000
RAW 0 42687.000 4 430342.34000 -703901.65000 -24.70000 155127.00000
MSG 0 42606.949 $GPGGA,155127,4303.4234,N,07039.0165,W,1,11,0.8,7.7,M,-32.4,M,,*7F
MSG 0 42607.091 $GPGSA,A,3,,06,13,14,16,20,23,25,29,30,31,32,1.3,0.8,1.1*31
MSG 0 42607.218 $GPGSV,3,1,12,03,09,183,33,06,18,169,43,13,06,316,37,14,10,140,40*7F
MSG 0 42607.363 $PGRME,4.5,M,5.6,M,7.1,M*2A
MSG 0 42607.424 $PGRMB,0.0,200,,,,K,,N,N*31
MSG 0 42607.484 $PGRMM,WGS 84*06
MSG 0 42607.801 $GPRMC,155128,A,4303.4234,N,07039.0163,W,000.5,121.4,030712,016.1,W*72
POS 0 42688.000 365612.313 4768472.387
QUA 0 42688.000 7 9.200 0.800 11.000 1.000 0.000 0.000 0.000
RAW 0 42688.000 4 430342.34000 -703901.63000 -24.30000 155128.00000
MSG 0 42607.951 $GPGGA,155128,4303.4234,N,07039.0163,W,1,11,0.8,8.1,M,-32.4,M,,*7F
MSG 0 42608.092 $GPGSA,A,3,,06,13,14,16,20,23,25,29,30,31,32,1.3,0.8,1.1*31
MSG 0 42608.219 $GPGSV,3,2,12,16,57,221,48,20,27,264,44,23,36,310,43,25,02,049,45*7C
MSG 0 42608.365 $PGRME,4.5,M,5.6,M,7.1,M*2A
MSG 0 42608.425 $PGRMB,0.0,200,,,,K,,N,N*31
MSG 0 42608.486 $PGRMM,WGS 84*06
MSG 0 42608.799 $GPRMC,155129,A,4303.4232,N,07039.0162,W,000.5,144.0,030712,016.1,W*73
POS 0 42689.000 365612.441 4768472.014
QUA 0 42689.000 7 9.200 0.800 11.000 1.000 0.000 0.000 0.000
RAW 0 42689.000 4 430342.32000 -703901.62000 -24.50000 155129.00000
MSG 0 42608.949 $GPGGA,155129,4303.4232,N,07039.0162,W,1,11,0.8,7.9,M,-32.4,M,,*7E
MSG 0 42609.091 $GPGSA,A,3,,06,13,14,16,20,23,25,29,30,31,32,1.3,0.8,1.1*31
MSG 0 42609.218 $GPGSV,3,3,12,29,22,050,42,30,87,243,50,31,51,070,51,32,31,233,47*79
MSG 0 42609.364 $PGRME,4.4,M,5.5,M,7.1,M*28
MSG 0 42609.424 $PGRMB,0.0,200,,,,K,,N,N*31
MSG 0 42609.484 $PGRMM,WGS 84*06
MSG 0 42609.799 $GPRMC,155130,A,4303.4232,N,07039.0160,W,000.5,112.6,030712,016.1,W*7C
POS 0 42690.000 365612.713 4768472.008
QUA 0 42690.000 7 9.200 0.800 11.000 1.000 0.000 0.000 0.000
RAW 0 42690.000 4 430342.32000 -703901.60000 -24.50000 155130.00000
MSG 0 42609.949 $GPGGA,155130,4303.4232,N,07039.0160,W,1,11,0.8,7.9,M,-32.4,M,,*74
MSG 0 42610.091 $GPGSA,A,3,,06,13,14,16,20,23,25,29,30,31,32,1.3,0.8,1.0*30
MSG 0 42610.218 $GPGSV,3,1,12,03,09,183,33,06,18,169,43,13,06,316,38,14,10,140,40*70
MSG 0 42610.364 $PGRME,4.4,M,5.5,M,7.1,M*28
MSG 0 42610.424 $PGRMB,0.0,200,,,,K,,N,N*31
MSG 0 42610.484 $PGRMM,WGS 84*06
MSG 0 42610.800 $GPRMC,155131,A,4303.4230,N,07039.0158,W,000.6,138.6,030712,016.1,W*7F
POS 0 42691.000 365612.977 4768471.633
QUA 0 42691.000 7 9.300 0.700 11.000 1.000 0.000 0.000 0.000
RAW 0 42691.000 4 430342.30000 -703901.58000 -24.70000 155131.00000
MSG 0 42610.950 $GPGGA,155131,4303.4230,N,07039.0158,W,1,11,0.7,7.7,M,-32.4,M,,*7D
MSG 0 42611.092 $GPGSA,A,3,,06,13,14,16,20,23,25,29,30,31,32,1.3,0.7,1.0*3F
MSG 0 42611.219 $GPGSV,3,2,12,16,57,221,49,20,27,264,44,23,36,310,44,25,02,049,45*7A
MSG 0 42611.365 $PGRME,4.4,M,5.5,M,7.1,M*28
MSG 0 42611.425 $PGRMB,0.0,200,,,,K,,N,N*31
MSG 0 42611.485 $PGRMM,WGS 84*06
MSG 0 42611.814 $GPRMC,155132,A,4303.4232,N,07039.0157,W,000.3,084.9,030712,016.1,W*7D
POS 0 42692.000 365613.120 4768472.000
QUA 0 42692.000 7 9.300 0.700 11.000 1.000 0.000 0.000 0.000
RAW 0 42692.000 4 430342.32000 -703901.57000 -24.60000 155132.00000
MSG 0 42611.964 $GPGGA,155132,4303.4232,N,07039.0157,W,1,11,0.7,7.8,M,-32.4,M,,*7C
MSG 0 42612.106 $GPGSA,A,3,,06,13,14,16,20,23,25,29,30,31,32,1.3,0.7,1.0*3F
MSG 0 42612.233 $GPGSV,3,3,12,29,22,049,42,30,87,243,50,31,51,070,51,32,31,233,47*71
MSG 0 42612.379 $PGRME,4.4,M,5.5,M,7.1,M*28
MSG 0 42612.439 $PGRMB,0.0,200,,,,K,,N,N*31
MSG 0 42612.499 $PGRMM,WGS 84*06
MSG 0 42612.852 $GPRMC,155133,A,4303.4230,N,07039.0155,W,000.5,125.6,030712,016.1,W*7F
POS 0 42693.000 365613.384 4768471.625
QUA 0 42693.000 7 9.300 0.700 11.000 1.000 0.000 0.000 0.000
RAW 0 42693.000 4 430342.30000 -703901.55000 -24.60000 155133.00000
MSG 0 42613.002 $GPGGA,155133,4303.4230,N,07039.0155,W,1,11,0.7,7.8,M,-32.4,M,,*7D
MSG 0 42613.144 $GPGSA,A,3,,06,13,14,16,20,23,25,29,30,31,32,1.3,0.7,1.0*3F
MSG 0 42613.271 $GPGSV,3,1,12,03,09,183,33,06,18,169,42,13,06,316,37,14,10,140,39*70
MSG 0 42613.416 $PGRME,4.4,M,5.5,M,7.1,M*28
MSG 0 42613.477 $PGRMB,0.0,200,,,,K,,N,N*31
MSG 0 42613.537 $PGRMM,WGS 84*06
MSG 0 42613.801 $GPRMC,155134,A,4303.4230,N,07039.0153,W,000.6,105.1,030712,016.1,W*78
POS 0 42694.000 365613.656 4768471.620
QUA 0 42694.000 7 9.200 0.800 11.000 1.000 0.000 0.000 0.000
RAW 0 42694.000 4 430342.30000 -703901.53000 -24.40000 155134.00000
MSG 0 42613.951 $GPGGA,155134,4303.4230,N,07039.0153,W,1,11,0.8,8.0,M,-32.4,M,,*74
MSG 0 42614.092 $GPGSA,A,3,,06,13,14,16,20,23,25,29,30,31,32,1.3,0.8,1.1*31
MSG 0 42614.219 $GPGSV,3,2,12,16,57,221,49,20,27,264,45,23,36,310,44,25,02,049,46*78
MSG 0 42614.365 $PGRME,4.5,M,5.6,M,7.2,M*29
MSG 0 42614.425 $PGRMT,GPS 17-HVS Ver. 2.80,P,P,R,R,P,,38,R*00
MSG 0 42614.525 $PGRMB,0.0,200,,,,K,,N,N*31
MSG 0 42614.586 $PGRMM,WGS 84*06
MSG 0 42614.799 $GPRMC,155135,A,4303.4230,N,07039.0153,W,000.2,124.0,030712,016.1,W*7F
POS 0 42695.000 365613.656 4768471.620
QUA 0 42695.000 7 9.200 0.800 11.000 1.000 0.000 0.000 0.000
RAW 0 42695.000 4 430342.30000 -703901.53000 -24.30000 155135.00000
MSG 0 42614.949 $GPGGA,155135,4303.4230,N,07039.0153,W,1,11,0.8,8.1,M,-32.4,M,,*74
MSG 0 42615.091 $GPGSA,A,3,,06,13,14,16,20,23,25,29,30,31,32,1.3,0.8,1.1*31
MSG 0 42615.218 $GPGSV,3,3,12,29,22,049,42,30,88,258,50,31,51,070,51,32,31,233,46*75
MSG 0 42615.364 $PGRME,4.4,M,5.5,M,7.1,M*28
MSG 0 42615.424 $PGRMB,0.0,200,,,,K,,N,N*31
MSG 0 42615.484 $PGRMM,WGS 84*06
MSG 0 42615.799 $GPRMC,155136,A,4303.4229,N,07039.0151,W,000.5,127.8,030712,016.1,W*7A
POS 0 42696.000 365613.923 4768471.429
QUA 0 42696.000 7 9.200 0.800 11.000 1.000 0.000 0.000 0.000
RAW 0 42696.000 4 430342.29000 -703901.51000 -24.50000 155136.00000
MSG 0 42615.949 $GPGGA,155136,4303.4229,N,07039.0151,W,1,11,0.8,7.9,M,-32.4,M,,*7A
MSG 0 42616.091 $GPGSA,A,3,,06,13,14,16,20,23,25,29,30,31,32,1.3,0.8,1.1*31
MSG 0 42616.218 $GPGSV,3,1,12,03,09,183,33,06,18,169,41,13,06,316,39,14,10,140,40*73
MSG 0 42616.363 $PGRME,4.5,M,5.6,M,7.2,M*29
MSG 0 42616.424 $PGRMB,0.0,200,,,,K,,N,N*31
MSG 0 42616.484 $PGRMM,WGS 84*06
MSG 0 42616.799 $GPRMC,155137,A,4303.4228,N,07039.0149,W,000.5,123.6,030712,016.1,W*79
POS 0 42697.000 365614.191 4768471.239
QUA 0 42697.000 7 9.200 0.800 11.000 1.000 0.000 0.000 0.000
RAW 0 42697.000 4 430342.28000 -703901.49000 -24.70000 155137.00000
MSG 0 42616.949 $GPGGA,155137,4303.4228,N,07039.0149,W,1,11,0.8,7.7,M,-32.4,M,,*7D
MSG 0 42617.090 $GPGSA,A,3,,06,13,14,16,20,23,25,29,30,31,32,1.3,0.8,1.1*31
MSG 0 42617.217 $GPGSV,3,2,12,16,57,221,49,20,27,264,45,23,36,310,44,25,02,049,45*7B
MSG 0 42617.363 $PGRME,4.5,M,5.6,M,7.2,M*29
MSG 0 42617.423 $PGRMB,0.0,200,,,,K,,N,N*31
MSG 0 42617.484 $PGRMM,WGS 84*06
MSG 0 42617.798 $GPRMC,155138,A,4303.4228,N,07039.0149,W,000.4,138.3,030712,016.1,W*78
POS 0 42698.000 365614.191 4768471.239
QUA 0 42698.000 7 9.200 0.800 11.000 1.000 0.000 0.000 0.000
RAW 0 42698.000 4 430342.28000 -703901.49000 -24.60000 155138.00000
MSG 0 42617.948 $GPGGA,155138,4303.4228,N,07039.0149,W,1,11,0.8,7.8,M,-32.4,M,,*7D
MSG 0 42618.090 $GPGSA,A,3,,06,13,14,16,20,23,25,29,30,31,32,1.3,0.8,1.1*31
MSG 0 42618.217 $GPGSV,3,3,12,29,22,049,42,30,88,258,51,31,50,071,50,32,31,233,47*74
MSG 0 42618.363 $PGRME,4.4,M,5.5,M,7.1,M*28
MSG 0 42618.423 $PGRMB,0.0,200,,,,K,,N,N*31
MSG 0 42618.483 $PGRMM,WGS 84*06
MSG 0 42618.803 $GPRMC,155139,A,4303.4228,N,07039.0146,W,000.4,099.9,030712,016.1,W*76
POS 0 42699.000 365614.598 4768471.231
QUA 0 42699.000 7 9.300 0.700 11.000 1.000 0.000 0.000 0.000
RAW 0 42699.000 4 430342.28000 -703901.46000 -24.50000 155139.00000
MSG 0 42618.953 $GPGGA,155139,4303.4228,N,07039.0146,W,1,11,0.7,7.9,M,-32.4,M,,*7D
MSG 0 42619.094 $GPGSA,A,3,,06,13,14,16,20,23,25,29,30,31,32,1.3,0.7,1.0*3F
MSG 0 42619.221 $GPGSV,3,1,12,03,09,183,33,06,18,169,43,13,06,316,39,14,10,140,38*7E
MSG 0 42619.367 $PGRME,4.4,M,5.5,M,7.1,M*28
MSG 0 42619.427 $PGRMB,0.0,200,,,,K,,N,N*31
MSG 0 42619.488 $PGRMM,WGS 84*06
MSG 0 42619.810 $GPRMC,155140,A,4303.4227,N,07039.0144,W,000.6,115.4,030712,016.1,W*7F
POS 0 42700.000 365614.866 4768471.040
QUA 0 42700.000 7 9.300 0.700 11.000 1.000 0.000 0.000 0.000
RAW 0 42700.000 4 430342.27000 -703901.44000 -24.80000 155140.00000
MSG 0 42619.960 $GPGGA,155140,4303.4227,N,07039.0144,W,1,11,0.7,7.6,M,-32.4,M,,*71
MSG 0 42620.102 $GPGSA,A,3,,06,13,14,16,20,23,25,29,30,31,32,1.3,0.7,1.0*3F
MSG 0 42620.229 $GPGSV,3,2,12,16,57,221,49,20,27,264,45,23,36,310,45,25,02,049,45*7A
MSG 0 42620.375 $PGRME,4.4,M,5.5,M,7.1,M*28
MSG 0 42620.435 $PGRMB,0.0,200,,,,K,,N,N*31
MSG 0 42620.495 $PGRMM,WGS 84*06
MSG 0 42620.803 $GPRMC,155141,A,4303.4227,N,07039.0143,W,000.4,105.8,030712,016.1,W*76
POS 0 42701.000 365615.002 4768471.038
QUA 0 42701.000 7 9.300 0.700 11.000 1.000 0.000 0.000 0.000
RAW 0 42701.000 4 430342.27000 -703901.43000 -24.60000 155141.00000
MSG 0 42620.953 $GPGGA,155141,4303.4227,N,07039.0143,W,1,11,0.7,7.8,M,-32.4,M,,*79
MSG 0 42621.094 $GPGSA,A,3,,06,13,14,16,20,23,25,29,30,31,32,1.3,0.7,1.0*3F
MSG 0 42621.221 $GPGSV,3,3,12,29,22,049,43,30,88,258,50,31,50,071,50,32,30,232,47*74
MSG 0 42621.367 $PGRME,4.4,M,5.5,M,7.1,M*28
MSG 0 42621.427 $PGRMB,0.0,200,,,,K,,N,N*31
MSG 0 42621.488 $PGRMM,WGS 84*06
MSG 0 42621.802 $GPRMC,155142,A,4303.4227,N,07039.0142,W,000.3,115.1,030712,016.1,W*7B
POS 0 42702.000 365615.138 4768471.035
QUA 0 42702.000 7 9.300 0.700 11.000 1.000 0.000 0.000 0.000
RAW 0 42702.000 4 430342.27000 -703901.42000 -24.60000 155142.00000
MSG 0 42621.952 $GPGGA,155142,4303.4227,N,07039.0142,W,1,11,0.7,7.8,M,-32.4,M,,*7B
MSG 0 42622.094 $GPGSA,A,3,,06,13,14,16,20,23,25,29,30,31,32,1.3,0.7,1.0*3F
MSG 0 42622.221 $GPGSV,3,1,12,03,09,183,00,06,18,169,43,13,06,316,40,14,10,140,39*71
MSG 0 42622.366 $PGRME,4.4,M,5.5,M,7.1,M*28
MSG 0 42622.427 $PGRMB,0.0,200,,,,K,,N,N*31
MSG 0 42622.487 $PGRMM,WGS 84*06
MSG 0 42622.814 $GPRMC,155143,A,4303.4225,N,07039.0138,W,000.8,131.8,030712,016.1,W*71
POS 0 42703.000 365615.673 4768470.654
QUA 0 42703.000 7 9.300 0.700 11.000 1.000 0.000 0.000 0.000
RAW 0 42703.000 4 430342.25000 -703901.38000 -24.80000 155143.00000
MSG 0 42622.964 $GPGGA,155143,4303.4225,N,07039.0138,W,1,11,0.7,7.6,M,-32.4,M,,*7B
MSG 0 42623.105 $GPGSA,A,3,,06,13,14,16,20,23,25,29,30,31,32,1.3,0.7,1.0*3F
MSG 0 42623.232 $GPGSV,3,2,12,16,57,221,49,20,27,264,46,23,36,310,45,25,02,049,45*79
MSG 0 42623.378 $PGRME,4.4,M,5.5,M,7.1,M*28
MSG 0 42623.438 $PGRMB,0.0,200,,,,K,,N,N*31
MSG 0 42623.499 $PGRMM,WGS 84*06
MSG 0 42623.814 $GPRMC,155144,A,4303.4225,N,07039.0138,W,000.4,126.0,030712,016.1,W*74
POS 0 42704.000 365615.673 4768470.654
QUA 0 42704.000 7 9.300 0.700 11.000 1.000 0.000 0.000 0.000
RAW 0 42704.000 4 430342.25000 -703901.38000 -24.50000 155144.00000
MSG 0 42623.964 $GPGGA,155144,4303.4225,N,07039.0138,W,1,11,0.7,7.9,M,-32.4,M,,*73
MSG 0 42624.105 $GPGSA,A,3,,06,13,14,16,20,23,25,29,30,31,32,1.3,0.7,1.0*3F
MSG 0 42624.232 $GPGSV,3,3,12,29,22,049,41,30,88,258,50,31,50,071,50,32,30,232,47*76
MSG 0 42624.378 $PGRME,4.4,M,5.5,M,7.1,M*28
MSG 0 42624.438 $PGRMB,0.0,200,,,,K,,N,N*31
MSG 0 42624.499 $PGRMM,WGS 84*06
MSG 0 42624.813 $GPRMC,155145,A,4303.4224,N,07039.0138,W,000.3,146.6,030712,016.1,W*73
POS 0 42705.000 365615.670 4768470.469
QUA 0 42705.000 7 9.300 0.700 11.000 1.000 0.000 0.000 0.000
RAW 0 42705.000 4 430342.24000 -703901.38000 -24.50000 155145.00000
MSG 0 42624.963 $GPGGA,155145,4303.4224,N,07039.0138,W,1,11,0.7,7.9,M,-32.4,M,,*73
MSG 0 42625.105 $GPGSA,A,3,,06,13,14,16,20,23,25,29,30,31,32,1.3,0.7,1.0*3F
MSG 0 42625.232 $GPGSV,3,1,12,03,09,183,00,06,18,169,43,13,06,316,40,14,09,140,38*78
MSG 0 42625.378 $PGRME,4.4,M,5.5,M,7.1,M*28
MSG 0 42625.438 $PGRMB,0.0,200,,,,K,,N,N*31
MSG 0 42625.498 $PGRMM,WGS 84*06
MSG 0 42625.798 $GPRMC,155146,A,4303.4223,N,07039.0134,W,000.7,119.4,030712,016.1,W*77
POS 0 42706.000 365616.209 4768470.273
QUA 0 42706.000 7 9.300 0.700 11.000 1.000 0.000 0.000 0.000
RAW 0 42706.000 4 430342.23000 -703901.34000 -24.80000 155146.00000
MSG 0 42625.948 $GPGGA,155146,4303.4223,N,07039.0134,W,1,11,0.7,7.6,M,-32.4,M,,*74
MSG 0 42626.089 $GPGSA,A,3,,06,13,14,16,20,23,25,29,30,31,32,1.3,0.7,1.1*3E
MSG 0 42626.217 $GPGSV,3,2,12,16,57,221,49,20,27,264,45,23,36,310,45,25,02,049,44*7B
MSG 0 42626.362 $PGRME,4.5,M,5.6,M,7.2,M*29
MSG 0 42626.423 $PGRMB,0.0,200,,,,K,,N,N*31
MSG 0 42626.483 $PGRMM,WGS 84*06
MSG 0 42626.800 $GPRMC,155147,A,4303.4223,N,07039.0132,W,000.5,110.9,030712,016.1,W*76
POS 0 42707.000 365616.480 4768470.268
QUA 0 42707.000 7 9.300 0.700 11.000 1.000 0.000 0.000 0.000
RAW 0 42707.000 4 430342.23000 -703901.32000 -24.90000 155147.00000
MSG 0 42626.950 $GPGGA,155147,4303.4223,N,07039.0132,W,1,11,0.7,7.5,M,-32.4,M,,*70
MSG 0 42627.091 $GPGSA,A,3,,06,13,14,16,20,23,25,29,30,31,32,1.3,0.7,1.1*3E
MSG 0 42627.218 $GPGSV,3,3,12,29,22,049,42,30,88,258,50,31,50,071,50,32,30,232,47*75
MSG 0 42627.364 $PGRME,4.4,M,5.5,M,7.1,M*28
MSG 0 42627.424 $PGRMB,0.0,200,,,,K,,N,N*31
MSG 0 42627.485 $PGRMM,WGS 84*06
MSG 0 42627.814 $GPRMC,155148,A,4303.4223,N,07039.0132,W,000.2,117.4,030712,016.1,W*74
POS 0 42708.000 365616.480 4768470.268
QUA 0 42708.000 7 9.300 0.700 11.000 1.000 0.000 0.000 0.000
RAW 0 42708.000 4 430342.23000 -703901.32000 -24.50000 155148.00000
MSG 0 42627.964 $GPGGA,155148,4303.4223,N,07039.0132,W,1,11,0.7,7.9,M,-32.4,M,,*73
MSG 0 42628.105 $GPGSA,A,3,,06,13,14,16,20,23,25,29,30,31,32,1.3,0.7,1.0*3F
MSG 0 42628.232 $GPGSV,3,1,12,03,09,183,00,06,18,169,44,13,06,316,39,14,09,140,39*70
MSG 0 42628.378 $PGRME,4.4,M,5.5,M,7.1,M*28
MSG 0 42628.438 $PGRMB,0.0,200,,,,K,,N,N*31
MSG 0 42628.499 $PGRMM,WGS 84*06
MSG 0 42628.801 $GPRMC,155149,A,4303.4222,N,07039.0131,W,000.3,144.0,030712,016.1,W*74
POS 0 42709.000 365616.612 4768470.080
QUA 0 42709.000 7 9.300 0.700 11.000 1.000 0.000 0.000 0.000
RAW 0 42709.000 4 430342.22000 -703901.31000 -24.60000 155149.00000
MSG 0 42628.951 $GPGGA,155149,4303.4222,N,07039.0131,W,1,11,0.7,7.8,M,-32.4,M,,*71
MSG 0 42629.092 $GPGSA,A,3,,06,13,14,16,20,23,25,29,30,31,32,1.3,0.7,1.0*3F
MSG 0 42629.219 $GPGSV,3,2,12,16,57,221,49,20,27,264,46,23,36,310,46,25,02,049,44*7B
MSG 0 42629.365 $PGRME,4.4,M,5.5,M,7.1,M*28
MSG 0 42629.425 $PGRMB,0.0,200,,,,K,,N,N*31
MSG 0 42629.486 $PGRMM,WGS 84*06
MSG 0 42629.813 $GPRMC,155150,A,4303.4222,N,07039.0129,W,000.4,114.4,030712,016.1,W*73
POS 0 42710.000 365616.884 4768470.075
QUA 0 42710.000 7 9.300 0.700 11.000 1.000 0.000 0.000 0.000
RAW 0 42710.000 4 430342.22000 -703901.29000 -24.80000 155150.00000
MSG 0 42629.963 $GPGGA,155150,4303.4222,N,07039.0129,W,1,11,0.7,7.6,M,-32.4,M,,*7E
MSG 0 42630.105 $GPGSA,A,3,,06,13,14,16,20,23,25,29,30,31,32,1.3,0.7,1.0*3F
MSG 0 42630.232 $GPGSV,3,3,12,29,22,049,43,30,88,258,50,31,50,071,50,32,30,232,47*74
MSG 0 42630.377 $PGRME,4.4,M,5.5,M,7.1,M*28
MSG 0 42630.438 $PGRMB,0.0,200,,,,K,,N,N*31
MSG 0 42630.498 $PGRMM,WGS 84*06
MSG 0 42630.798 $GPRMC,155151,A,4303.4221,N,07039.0129,W,000.4,139.5,030712,016.1,W*7F
POS 0 42711.000 365616.880 4768469.890
QUA 0 42711.000 7 9.300 0.700 11.000 1.000 0.000 0.000 0.000
RAW 0 42711.000 4 430342.21000 -703901.29000 -25.10000 155151.00000
MSG 0 42630.948 $GPGGA,155151,4303.4221,N,07039.0129,W,1,11,0.7,7.3,M,-32.4,M,,*79
MSG 0 42631.090 $GPGSA,A,3,,06,13,14,16,20,23,25,29,30,31,32,1.3,0.7,1.0*3F
MSG 0 42631.217 $GPGSV,3,1,12,03,09,183,00,06,18,169,44,13,06,316,39,14,09,140,40*7E
MSG 0 42631.362 $PGRME,4.4,M,5.5,M,7.1,M*28
MSG 0 42631.423 $PGRMB,0.0,200,,,,K,,N,N*31
MSG 0 42631.483 $PGRMM,WGS 84*06
MSG 0 42631.834 $GPRMC,155152,A,4303.4220,N,07039.0127,W,000.4,125.4,030712,016.1,W*7F
POS 0 42712.000 365617.148 4768469.699
QUA 0 42712.000 7 9.300 0.700 11.000 1.000 0.000 0.000 0.000
RAW 0 42712.000 4 430342.20000 -703901.27000 -25.30000 155152.00000
MSG 0 42631.983 $GPGGA,155152,4303.4220,N,07039.0127,W,1,11,0.7,7.1,M,-32.4,M,,*77
MSG 0 42632.125 $GPGSA,A,3,,06,13,14,16,20,23,25,29,30,31,32,1.3,0.7,1.0*3F
MSG 0 42632.252 $GPGSV,3,2,12,16,57,221,49,20,27,264,45,23,36,310,45,25,02,049,43*7C
MSG 0 42632.398 $PGRME,4.4,M,5.5,M,7.1,M*28
MSG 0 42632.458 $PGRMB,0.0,200,,,,K,,N,N*31
MSG 0 42632.519 $PGRMM,WGS 84*06
MSG 0 42632.813 $GPRMC,155153,A,4303.4218,N,07039.0122,W,000.9,120.1,030712,016.1,W*7D
POS 0 42713.000 365617.819 4768469.316
QUA 0 42713.000 7 9.200 0.800 11.000 1.000 0.000 0.000 0.000
RAW 0 42713.000 4 430342.18000 -703901.22000 -25.30000 155153.00000
MSG 0 42632.963 $GPGGA,155153,4303.4218,N,07039.0122,W,1,11,0.8,7.1,M,-32.4,M,,*77
MSG 0 42633.104 $GPGSA,A,3,,06,13,14,16,20,23,25,29,30,31,32,1.3,0.8,1.1*31
MSG 0 42633.231 $GPGSV,3,3,12,29,22,049,44,30,88,258,50,31,50,071,50,32,30,232,47*73
MSG 0 42633.377 $PGRME,4.5,M,5.6,M,7.1,M*2A
MSG 0 42633.438 $PGRMB,0.0,200,,,,K,,N,N*31
MSG 0 42633.498 $PGRMM,WGS 84*06
MSG 0 42633.811 $GPRMC,155154,A,4303.4218,N,07039.0120,W,000.7,118.4,030712,016.1,W*78
POS 0 42714.000 365618.091 4768469.310
QUA 0 42714.000 7 9.200 0.800 11.000 1.000 0.000 0.000 0.000
RAW 0 42714.000 4 430342.18000 -703901.20000 -24.60000 155154.00000
MSG 0 42633.961 $GPGGA,155154,4303.4218,N,07039.0120,W,1,11,0.8,7.8,M,-32.4,M,,*7B
MSG 0 42634.103 $GPGSA,A,3,,06,13,14,16,20,23,25,29,30,31,32,1.3,0.8,1.1*31
MSG 0 42634.230 $GPGSV,3,1,12,03,10,183,32,06,18,169,44,13,06,316,38,14,09,140,40*76
MSG 0 42634.375 $PGRME,4.5,M,5.6,M,7.1,M*2A
MSG 0 42634.436 $PGRMB,0.0,200,,,,K,,N,N*31
MSG 0 42634.496 $PGRMM,WGS 84*06
MSG 0 42634.810 $GPRMC,155155,A,4303.4218,N,07039.0121,W,000.2,135.8,030712,016.1,W*7E
POS 0 42715.000 365617.955 4768469.313
QUA 0 42715.000 7 9.200 0.800 11.000 1.000 0.000 0.000 0.000
RAW 0 42715.000 4 430342.18000 -703901.21000 -24.30000 155155.00000
MSG 0 42634.960 $GPGGA,155155,4303.4218,N,07039.0121,W,1,11,0.8,8.1,M,-32.4,M,,*7D
MSG 0 42635.102 $GPGSA,A,3,,06,13,14,16,20,23,25,29,30,31,32,1.3,0.8,1.1*31
MSG 0 42635.229 $GPGSV,3,2,12,16,57,221,49,20,27,264,46,23,36,310,46,25,02,049,42*7D
MSG 0 42635.375 $PGRME,4.5,M,5.6,M,7.1,M*2A
MSG 0 42635.435 $PGRMB,0.0,200,,,,K,,N,N*31
MSG 0 42635.495 $PGRMM,WGS 84*06
MSG 0 42635.818 $GPRMC,155156,A,4303.4217,N,07039.0118,W,000.5,122.4,030712,016.1,W*75
POS 0 42716.000 365618.359 4768469.120
QUA 0 42716.000 7 9.200 0.800 11.000 1.000 0.000 0.000 0.000
RAW 0 42716.000 4 430342.17000 -703901.18000 -24.70000 155156.00000
MSG 0 42635.968 $GPGGA,155156,4303.4217,N,07039.0118,W,1,11,0.8,7.7,M,-32.4,M,,*72
MSG 0 42636.109 $GPGSA,A,3,,06,13,14,16,20,23,25,29,30,31,32,1.3,0.8,1.1*31
MSG 0 42636.236 $GPGSV,3,3,12,29,22,049,43,30,88,258,50,31,50,071,50,32,30,232,47*74
MSG 0 42636.382 $PGRME,4.5,M,5.6,M,7.1,M*2A
MSG 0 42636.442 $PGRMB,0.0,200,,,,K,,N,N*31
MSG 0 42636.503 $PGRMM,WGS 84*06
MSG 0 42636.799 $GPRMC,155157,A,4303.4217,N,07039.0117,W,000.4,118.5,030712,016.1,W*72
POS 0 42717.000 365618.494 4768469.117
QUA 0 42717.000 7 9.200 0.800 11.000 1.000 0.000 0.000 0.000
RAW 0 42717.000 4 430342.17000 -703901.17000 -24.80000 155157.00000
MSG 0 42636.948 $GPGGA,155157,4303.4217,N,07039.0117,W,1,11,0.8,7.6,M,-32.4,M,,*7D
MSG 0 42637.090 $GPGSA,A,3,,06,13,14,16,20,23,25,29,30,31,32,1.3,0.8,1.1*31
MSG 0 42637.217 $GPGSV,3,1,12,03,10,183,33,06,18,169,44,13,06,316,00,14,09,140,39*72
MSG 0 42637.363 $PGRME,4.5,M,5.6,M,7.1,M*2A
MSG 0 42637.423 $PGRMB,0.0,200,,,,K,,N,N*31
MSG 0 42637.484 $PGRMM,WGS 84*06
MSG 0 42637.800 $GPRMC,155158,A,4303.4216,N,07039.0119,W,000.1,118.5,030712,016.1,W*77
POS 0 42718.000 365618.219 4768468.938
QUA 0 42718.000 7 9.200 0.800 11.000 1.000 0.000 0.000 0.000
RAW 0 42718.000 4 430342.16000 -703901.19000 -24.80000 155158.00000
MSG 0 42637.950 $GPGGA,155158,4303.4216,N,07039.0119,W,1,11,0.8,7.6,M,-32.4,M,,*7D
MSG 0 42638.092 $GPGSA,A,3,,06,13,14,16,20,23,25,29,30,31,32,1.3,0.8,1.1*31
MSG 0 42638.219 $GPGSV,3,2,12,16,57,221,49,20,27,264,46,23,36,310,46,25,02,049,42*7D
MSG 0 42638.364 $PGRME,4.5,M,5.6,M,7.1,M*2A
MSG 0 42638.425 $PGRMB,0.0,200,,,,K,,N,N*31
MSG 0 42638.485 $PGRMM,WGS 84*06
MSG 0 42638.812 $GPRMC,155159,A,4303.4216,N,07039.0115,W,000.5,116.0,030712,016.1,W*75
POS 0 42719.000 365618.762 4768468.927
QUA 0 42719.000 7 9.200 0.800 11.000 1.000 0.000 0.000 0.000
RAW 0 42719.000 4 430342.16000 -703901.15000 -24.90000 155159.00000
MSG 0 42638.962 $GPGGA,155159,4303.4216,N,07039.0115,W,1,11,0.8,7.5,M,-32.4,M,,*73
MSG 0 42639.104 $GPGSA,A,3,,06,13,14,16,20,23,25,29,30,31,32,1.3,0.8,1.1*31
MSG 0 42639.231 $GPGSV,3,3,12,29,22,049,43,30,88,258,50,31,50,071,50,32,30,232,48*7B
MSG 0 42639.376 $PGRME,4.4,M,5.6,M,7.1,M*2B
MSG 0 42639.437 $PGRMB,0.0,200,,,,K,,N,N*31
MSG 0 42639.497 $PGRMM,WGS 84*06
MSG 0 42639.798 $GPRMC,155200,A,4303.4214,N,07039.0111,W,000.8,117.3,030712,016.1,W*73
POS 0 42720.000 365619.298 4768468.546
QUA 0 42720.000 7 9.300 0.700 11.000 1.000 0.000 0.000 0.000
RAW 0 42720.000 4 430342.14000 -703901.11000 -25.00000 155200.00000
MSG 0 42639.948 $GPGGA,155200,4303.4214,N,07039.0111,W,1,11,0.7,7.4,M,-32.4,M,,*74
MSG 0 42640.090 $GPGSA,A,3,,06,13,14,16,20,23,25,29,30,31,32,1.3,0.7,1.0*3F
MSG 0 42640.217 $GPGSV,3,1,12,03,10,183,31,06,18,169,44,13,06,316,39,14,09,140,39*7A
MSG 0 42640.362 $PGRME,4.4,M,5.6,M,7.1,M*2B
MSG 0 42640.423 $PGRMB,0.0,200,,,,K,,N,N*31
MSG 0 42640.483 $PGRMM,WGS 84*06
MSG 0 42640.801 $GPRMC,155201,A,4303.4214,N,07039.0113,W,000.2,155.5,030712,016.1,W*7A
POS 0 42721.000 365619.026 4768468.551
QUA 0 42721.000 7 9.300 0.700 11.000 1.000 0.000 0.000 0.000
RAW 0 42721.000 4 430342.14000 -703901.13000 -24.80000 155201.00000
MSG 0 42640.951 $GPGGA,155201,4303.4214,N,07039.0113,W,1,11,0.7,7.6,M,-32.4,M,,*75
MSG 0 42641.093 $GPGSA,A,3,,06,13,14,16,20,23,25,29,30,31,32,1.3,0.7,1.0*3F
MSG 0 42641.220 $GPGSV,3,2,12,16,57,221,49,20,27,264,45,23,36,310,46,25,02,049,42*7E
MSG 0 42641.366 $PGRME,4.4,M,5.6,M,7.1,M*2B
MSG 0 42641.426 $PGRMB,0.0,200,,,,K,,N,N*31
MSG 0 42641.486 $PGRMM,WGS 84*06
MSG 0 42641.798 $GPRMC,155202,A,4303.4213,N,07039.0111,W,000.4,134.6,030712,016.1,W*7E
POS 0 42722.000 365619.294 4768468.361
QUA 0 42722.000 7 9.300 0.700 11.000 1.000 0.000 0.000 0.000
RAW 0 42722.000 4 430342.13000 -703901.11000 -24.80000 155202.00000
MSG 0 42641.948 $GPGGA,155202,4303.4213,N,07039.0111,W,1,11,0.7,7.6,M,-32.4,M,,*73
MSG 0 42642.090 $GPGSA,A,3,,06,13,14,16,20,23,25,29,30,31,32,1.3,0.7,1.0*3F
MSG 0 42642.217 $GPGSV,3,3,12,29,22,049,44,30,88,258,50,31,50,071,50,32,30,232,48*7C
MSG 0 42642.362 $PGRME,4.4,M,5.6,M,7.1,M*2B
MSG 0 42642.423 $PGRMB,0.0,200,,,,K,,N,N*31
MSG 0 42642.483 $PGRMM,WGS 84*06
MSG 0 42642.798 $GPRMC,155203,A,4303.4211,N,07039.0106,W,000.9,121.4,030712,016.1,W*70
POS 0 42723.000 365619.965 4768467.977
QUA 0 42723.000 7 9.300 0.700 11.000 1.000 0.000 0.000 0.000
RAW 0 42723.000 4 430342.11000 -703901.06000 -25.10000 155203.00000
MSG 0 42642.948 $GPGGA,155203,4303.4211,N,07039.0106,W,1,11,0.7,7.3,M,-32.4,M,,*73
MSG 0 42643.090 $GPGSA,A,3,,06,13,14,16,20,23,25,29,30,31,32,1.3,0.7,1.0*3F
MSG 0 42643.217 $GPGSV,3,1,12,03,10,183,32,06,18,169,44,13,06,316,40,14,09,140,39*77
MSG 0 42643.363 $PGRME,4.4,M,5.6,M,7.1,M*2B
MSG 0 42643.423 $PGRMB,0.0,200,,,,K,,N,N*31
MSG 0 42643.483 $PGRMM,WGS 84*06
MSG 0 42643.813 $GPRMC,155204,A,4303.4211,N,07039.0106,W,000.6,126.3,030712,016.1,W*78
POS 0 42724.000 365619.965 4768467.977
QUA 0 42724.000 7 9.300 0.700 11.000 1.000 0.000 0.000 0.000
RAW 0 42724.000 4 430342.11000 -703901.06000 -25.10000 155204.00000
MSG 0 42643.963 $GPGGA,155204,4303.4211,N,07039.0106,W,1,11,0.7,7.3,M,-32.4,M,,*74
MSG 0 42644.104 $GPGSA,A,3,,06,13,14,16,20,23,25,29,30,31,32,1.3,0.7,1.0*3F
MSG 0 42644.231 $GPGSV,3,2,12,16,57,221,49,20,27,264,45,23,36,310,46,25,02,049,41*7D
MSG 0 42644.377 $PGRME,4.4,M,5.6,M,7.1,M*2B
MSG 0 42644.437 $PGRMB,0.0,200,,,,K,,N,N*31
MSG 0 42644.498 $PGRMM,WGS 84*06
MSG 0 42644.800 $GPRMC,155205,A,4303.4211,N,07039.0106,W,000.2,125.0,030712,016.1,W*7D
POS 0 42725.000 365619.965 4768467.977
QUA 0 42725.000 7 9.300 0.700 11.000 1.000 0.000 0.000 0.000
RAW 0 42725.000 4 430342.11000 -703901.06000 -24.70000 155205.00000
MSG 0 42644.949 $GPGGA,155205,4303.4211,N,07039.0106,W,1,11,0.7,7.7,M,-32.4,M,,*71
MSG 0 42645.091 $GPGSA,A,3,,06,13,14,16,20,23,25,29,30,31,32,1.3,0.7,1.0*3F
MSG 0 42645.218 $GPGSV,3,3,12,29,22,049,43,30,88,258,51,31,50,071,49,32,30,232,48*72
MSG 0 42645.364 $PGRME,4.4,M,5.6,M,7.1,M*2B
MSG 0 42645.424 $PGRMB,0.0,200,,,,K,,N,N*31
MSG 0 42645.485 $PGRMM,WGS 84*06
MSG 0 42645.825 $GPRMC,155206,A,4303.4210,N,07039.0102,W,000.5,111.6,030712,016.1,W*7D
POS 0 42726.000 365620.505 4768467.782
QUA 0 42726.000 7 9.300 0.700 11.000 1.000 0.000 0.000 0.000
RAW 0 42726.000 4 430342.10000 -703901.02000 -24.70000 155206.00000
MSG 0 42645.975 $GPGGA,155206,4303.4210,N,07039.0102,W,1,11,0.7,7.7,M,-32.4,M,,*77
MSG 0 42646.117 $GPGSA,A,3,,06,13,14,16,20,23,25,29,30,31,32,1.3,0.7,1.0*3F
MSG 0 42646.244 $GPGSV,3,1,12,03,10,183,32,06,19,168,44,13,06,316,00,14,09,140,40*7D
MSG 0 42646.390 $PGRME,4.4,M,5.6,M,7.1,M*2B
MSG 0 42646.450 $PGRMB,0.0,200,,,,K,,N,N*31
MSG 0 42646.510 $PGRMM,WGS 84*06
MSG 0 42646.808 $GPRMC,155207,A,4303.4209,N,07039.0100,W,000.5,120.5,030712,016.1,W*77
POS 0 42727.000 365620.773 4768467.591
QUA 0 42727.000 7 9.300 0.700 11.000 1.000 0.000 0.000 0.000
RAW 0 42727.000 4 430342.09000 -703901.00000 -24.70000 155207.00000
MSG 0 42646.957 $GPGGA,155207,4303.4209,N,07039.0100,W,1,11,0.7,7.7,M,-32.4,M,,*7C
MSG 0 42647.099 $GPGSA,A,3,,06,13,14,16,20,23,25,29,30,31,32,1.3,0.7,1.1*3E
MSG 0 42647.226 $GPGSV,3,2,12,16,57,221,49,20,27,264,45,23,36,310,46,25,02,049,42*7E
MSG 0 42647.372 $PGRME,4.5,M,5.6,M,7.2,M*29
MSG 0 42647.432 $PGRMB,0.0,200,,,,K,,N,N*31
MSG 0 42647.493 $PGRMM,WGS 84*06
MSG 0 42647.799 $GPRMC,155208,A,4303.4209,N,07039.0102,W,000.1,120.5,030712,016.1,W*7E
POS 0 42728.000 365620.501 4768467.597
QUA 0 42728.000 7 9.300 0.700 11.000 1.000 0.000 0.000 0.000
RAW 0 42728.000 4 430342.09000 -703901.02000 -24.80000 155208.00000
MSG 0 42647.949 $GPGGA,155208,4303.4209,N,07039.0102,W,1,11,0.7,7.6,M,-32.4,M,,*70
MSG 0 42648.091 $GPGSA,A,3,,06,13,14,16,20,23,25,29,30,31,32,1.3,0.7,1.1*3E
MSG 0 42648.218 $GPGSV,3,3,12,29,22,049,43,30,88,258,51,31,50,071,49,32,30,232,48*72
MSG 0 42648.363 $PGRME,4.5,M,5.6,M,7.2,M*29
MSG 0 42648.424 $PGRMB,0.0,200,,,,K,,N,N*31
MSG 0 42648.484 $PGRMM,WGS 84*06
MSG 0 42648.798 $GPRMC,155209,A,4303.4208,N,07039.0100,W,000.3,141.9,030712,016.1,W*75
POS 0 42729.000 365620.769 4768467.406
QUA 0 42729.000 7 9.300 0.700 11.000 1.000 0.000 0.000 0.000
RAW 0 42729.000 4 430342.08000 -703901.00000 -24.80000 155209.00000
MSG 0 42648.948 $GPGGA,155209,4303.4208,N,07039.0100,W,1,11,0.7,7.6,M,-32.4,M,,*72
MSG 0 42649.090 $GPGSA,A,3,,06,13,14,16,20,23,25,29,30,31,32,1.3,0.7,1.1*3E
MSG 0 42649.217 $GPGSV,3,1,12,03,10,183,33,06,19,168,44,13,06,316,40,14,09,140,39*76
MSG 0 42649.362 $PGRME,4.4,M,5.6,M,7.1,M*2B
MSG 0 42649.423 $PGRMB,0.0,200,,,,K,,N,N*31
MSG 0 42649.483 $PGRMM,WGS 84*06
MSG 0 42649.813 $GPRMC,155210,A,4303.4207,N,07039.0097,W,000.7,128.8,030712,016.1,W*77
POS 0 42730.000 365621.172 4768467.213
QUA 0 42730.000 7 9.200 0.800 11.000 1.000 0.000 0.000 0.000
RAW 0 42730.000 4 430342.07000 -703900.97000 -25.00000 155210.00000
MSG 0 42649.963 $GPGGA,155210,4303.4207,N,07039.0097,W,1,11,0.8,7.4,M,-32.4,M,,*77
MSG 0 42650.104 $GPGSA,A,3,,06,13,14,16,20,23,25,29,30,31,32,1.3,0.8,1.0*30
MSG 0 42650.231 $GPGSV,3,2,12,16,57,221,49,20,27,264,45,23,36,310,46,25,02,049,42*7E
MSG 0 42650.377 $PGRME,4.4,M,5.6,M,7.1,M*2B
MSG 0 42650.437 $PGRMB,0.0,200,,,,K,,N,N*31
MSG 0 42650.498 $PGRMM,WGS 84*06
MSG 0 42650.799 $GPRMC,155211,A,4303.4206,N,07039.0096,W,000.5,127.9,030712,016.1,W*7A
POS 0 42731.000 365621.304 4768467.025
QUA 0 42731.000 7 9.300 0.700 11.000 1.000 0.000 0.000 0.000
RAW 0 42731.000 4 430342.06000 -703900.96000 -25.10000 155211.00000
MSG 0 42650.949 $GPGGA,155211,4303.4206,N,07039.0096,W,1,11,0.7,7.3,M,-32.4,M,,*7E
MSG 0 42651.091 $GPGSA,A,3,,06,13,14,16,20,23,25,29,30,31,32,1.3,0.7,1.0*3F
MSG 0 42651.218 $GPGSV,3,3,12,29,22,049,43,30,88,258,50,31,50,071,50,32,30,232,48*7B
MSG 0 42651.364 $PGRME,4.4,M,5.6,M,7.1,M*2B
MSG 0 42651.424 $PGRMB,0.0,200,,,,K,,N,N*31
MSG 0 42651.484 $PGRMM,WGS 84*06
MSG 0 42651.798 $GPRMC,155212,A,4303.4205,N,07039.0094,W,000.5,130.3,030712,016.1,W*74
POS 0 42732.000 365621.572 4768466.835
QUA 0 42732.000 7 9.300 0.700 11.000 1.000 0.000 0.000 0.000
RAW 0 42732.000 4 430342.05000 -703900.94000 -25.00000 155212.00000
MSG 0 42651.948 $GPGGA,155212,4303.4205,N,07039.0094,W,1,11,0.7,7.4,M,-32.4,M,,*7B
MSG 0 42652.089 $GPGSA,A,3,,06,13,14,16,20,23,25,29,30,31,32,1.3,0.7,1.0*3F
MSG 0 42652.216 $GPGSV,3,1,12,03,10,183,33,06,19,168,44,13,06,316,40,14,09,140,40*78
MSG 0 42652.362 $PGRME,4.4,M,5.6,M,7.1,M*2B
MSG 0 42652.423 $PGRMB,0.0,200,,,,K,,N,N*31
MSG 0 42652.483 $PGRMM,WGS 84*06
MSG 0 42652.835 $GPRMC,155213,A,4303.4204,N,07039.0090,W,000.8,115.2,030712,016.1,W*7B
POS 0 42733.000 365622.112 4768466.639
QUA 0 42733.000 7 9.300 0.700 11.000 1.000 0.000 0.000 0.000
RAW 0 42733.000 4 430342.04000 -703900.90000 -24.80000 155213.00000
MSG 0 42652.985 $GPGGA,155213,4303.4204,N,07039.0090,W,1,11,0.7,7.6,M,-32.4,M,,*7D
MSG 0 42653.126 $GPGSA,A,3,,06,13,14,16,20,23,25,29,30,31,32,1.3,0.7,1.0*3F
MSG 0 42653.254 $GPGSV,3,2,12,16,57,221,49,20,27,264,46,23,36,310,46,25,02,049,42*7D
MSG 0 42653.399 $PGRME,4.4,M,5.6,M,7.1,M*2B
MSG 0 42653.460 $PGRMB,0.0,200,,,,K,,N,N*31
MSG 0 42653.520 $PGRMM,WGS 84*06
MSG 0 42653.799 $GPRMC,155214,A,4303.4204,N,07039.0090,W,000.4,116.1,030712,016.1,W*70
POS 0 42734.000 365622.112 4768466.639
QUA 0 42734.000 7 9.300 0.700 11.000 1.000 0.000 0.000 0.000
RAW 0 42734.000 4 430342.04000 -703900.90000 -24.50000 155214.00000
MSG 0 42653.949 $GPGGA,155214,4303.4204,N,07039.0090,W,1,11,0.7,7.9,M,-32.4,M,,*75
MSG 0 42654.090 $GPGSA,A,3,,06,13,14,16,20,23,25,29,30,31,32,1.3,0.7,1.1*3E
MSG 0 42654.217 $GPGSV,3,3,12,29,22,049,42,30,88,258,50,31,50,071,49,32,30,232,48*72
MSG 0 42654.363 $PGRME,4.5,M,5.6,M,7.2,M*29
MSG 0 42654.423 $PGRMB,0.0,200,,,,K,,N,N*31
MSG 0 42654.484 $PGRMM,WGS 84*06
MSG 0 42654.813 $GPRMC,155215,A,4303.4204,N,07039.0090,W,000.2,128.9,030712,016.1,W*72
POS 0 42735.000 365622.112 4768466.639
QUA 0 42735.000 7 9.300 0.700 11.000 1.000 0.000 0.000 0.000
RAW 0 42735.000 4 430342.04000 -703900.90000 -24.60000 155215.00000
MSG 0 42654.963 $GPGGA,155215,4303.4204,N,07039.0090,W,1,11,0.7,7.8,M,-32.4,M,,*75
MSG 0 42655.104 $GPGSA,A,3,,06,13,14,16,20,23,25,29,30,31,32,1.3,0.7,1.1*3E
MSG 0 42655.231 $GPGSV,3,1,12,03,10,183,33,06,19,168,44,13,06,316,39,14,09,140,39*78
MSG 0 42655.377 $PGRME,4.5,M,5.6,M,7.2,M*29
MSG 0 42655.438 $PGRMB,0.0,200,,,,K,,N,N*31
MSG 0 42655.498 $PGRMM,WGS 84*06
MSG 0 42655.799 $GPRMC,155216,A,4303.4203,N,07039.0089,W,000.4,148.8,030712,016.1,W*7F
POS 0 42736.000 365622.244 4768466.451
QUA 0 42736.000 7 9.300 0.700 11.000 1.000 0.000 0.000 0.000
RAW 0 42736.000 4 430342.03000 -703900.89000 -25.00000 155216.00000
MSG 0 42655.949 $GPGGA,155216,4303.4203,N,07039.0089,W,1,11,0.7,7.4,M,-32.4,M,,*75
MSG 0 42656.091 $GPGSA,A,3,,06,13,14,16,20,23,25,29,30,31,32,1.3,0.7,1.1*3E
MSG 0 42656.218 $GPGSV,3,2,12,16,57,221,49,20,27,264,46,23,36,310,46,25,02,049,43*7C
MSG 0 42656.364 $PGRME,4.4,M,5.5,M,7.1,M*28
MSG 0 42656.424 $PGRMB,0.0,200,,,,K,,N,N*31
MSG 0 42656.484 $PGRMM,WGS 84*06
MSG 0 42656.797 $GPRMC,155217,A,4303.4202,N,07039.0086,W,000.6,124.3,030712,016.1,W*73
POS 0 42737.000 365622.647 4768466.258
QUA 0 42737.000 7 9.300 0.700 11.000 1.000 0.000 0.000 0.000
RAW 0 42737.000 4 430342.02000 -703900.86000 -25.00000 155217.00000
MSG 0 42656.947 $GPGGA,155217,4303.4202,N,07039.0086,W,1,11,0.7,7.4,M,-32.4,M,,*7A
MSG 0 42657.089 $GPGSA,A,3,,06,13,14,16,20,23,25,29,30,31,32,1.3,0.7,1.0*3F
MSG 0 42657.216 $GPGSV,3,3,12,29,22,049,43,30,88,258,50,31,50,071,49,32,30,232,48*73
MSG 0 42657.362 $PGRME,4.4,M,5.5,M,7.1,M*28
MSG 0 42657.422 $PGRMB,0.0,200,,,,K,,N,N*31
MSG 0 42657.482 $PGRMM,WGS 84*06
MSG 0 42657.812 $GPRMC,155218,A,4303.4201,N,07039.0086,W,000.5,149.6,030712,016.1,W*72
POS 0 42738.000 365622.644 4768466.073
QUA 0 42738.000 7 9.300 0.700 11.000 1.000 0.000 0.000 0.000
RAW 0 42738.000 4 430342.01000 -703900.86000 -24.90000 155218.00000
MSG 0 42657.962 $GPGGA,155218,4303.4201,N,07039.0086,W,1,11,0.7,7.5,M,-32.4,M,,*77
MSG 0 42658.103 $GPGSA,A,3,,06,13,14,16,20,23,25,29,30,31,32,1.3,0.7,1.0*3F
MSG 0 42658.230 $GPGSV,3,1,12,03,10,183,31,06,19,168,44,13,06,316,40,14,09,140,40*7A
MSG 0 42658.376 $PGRME,4.4,M,5.5,M,7.1,M*28
MSG 0 42658.436 $PGRMB,0.0,200,,,,K,,N,N*31
MSG 0 42658.497 $PGRMM,WGS 84*06
MSG 0 42658.811 $GPRMC,155219,A,4303.4201,N,07039.0082,W,000.6,111.3,030712,016.1,W*7C
POS 0 42739.000 365623.186 4768466.062
QUA 0 42739.000 7 9.300 0.700 11.000 1.000 0.000 0.000 0.000
RAW 0 42739.000 4 430342.01000 -703900.82000 -24.90000 155219.00000
MSG 0 42658.961 $GPGGA,155219,4303.4201,N,07039.0082,W,1,11,0.7,7.5,M,-32.4,M,,*72
MSG 0 42659.102 $GPGSA,A,3,,06,13,14,16,20,23,25,29,30,31,32,1.3,0.7,1.0*3F
MSG 0 42659.229 $GPGSV,3,2,12,16,57,221,49,20,27,264,45,23,36,310,46,25,02,049,42*7E
MSG 0 42659.375 $PGRME,4.4,M,5.5,M,7.1,M*28
MSG 0 42659.435 $PGRMB,0.0,200,,,,K,,N,N*31
MSG 0 42659.496 $PGRMM,WGS 84*06
MSG 0 42659.801 $GPRMC,155220,A,4303.4199,N,07039.0080,W,000.8,125.7,030712,016.1,W*7B
POS 0 42740.000 365623.451 4768465.687
QUA 0 42740.000 7 9.300 0.700 11.000 1.000 0.000 0.000 0.000
RAW 0 42740.000 4 430341.99000 -703900.80000 -25.00000 155220.00000
MSG 0 42659.951 $GPGGA,155220,4303.4199,N,07039.0080,W,1,11,0.7,7.4,M,-32.4,M,,*79
MSG 0 42660.093 $GPGSA,A,3,,06,13,14,16,20,23,25,29,30,31,32,1.3,0.7,1.0*3F
MSG 0 42660.220 $GPGSV,3,3,12,29,22,049,43,30,88,258,50,31,50,071,50,32,30,232,48*7B
MSG 0 42660.366 $PGRME,4.4,M,5.5,M,7.1,M*28
MSG 0 42660.426 $PGRMB,0.0,200,,,,K,,N,N*31
MSG 0 42660.486 $PGRMM,WGS 84*06
MSG 0 42660.810 $GPRMC,155221,A,4303.4199,N,07039.0078,W,000.5,105.0,030712,016.1,W*75
POS 0 42741.000 365623.722 4768465.682
QUA 0 42741.000 7 9.300 0.700 11.000 1.000 0.000 0.000 0.000
RAW 0 42741.000 4 430341.99000 -703900.78000 -25.00000 155221.00000
MSG 0 42660.960 $GPGGA,155221,4303.4199,N,07039.0078,W,1,11,0.7,7.4,M,-32.4,M,,*7F
MSG 0 42661.102 $GPGSA,A,3,,06,13,14,16,20,23,25,29,30,31,32,1.3,0.7,1.0*3F
MSG 0 42661.229 $GPGSV,3,1,12,03,10,183,00,06,19,168,44,13,06,316,39,14,09,140,40*76
MSG 0 42661.375 $PGRME,4.4,M,5.5,M,7.1,M*28
MSG 0 42661.435 $PGRMB,0.0,200,,,,K,,N,N*31
MSG 0 42661.495 $PGRMM,WGS 84*06
MSG 0 42661.814 $GPRMC,155222,A,4303.4198,N,07039.0078,W,000.4,145.1,030712,016.1,W*73
POS 0 42742.000 365623.718 4768465.496
QUA 0 42742.000 7 9.300 0.700 11.000 1.000 0.000 0.000 0.000
RAW 0 42742.000 4 430341.98000 -703900.78000 -24.80000 155222.00000
MSG 0 42661.964 $GPGGA,155222,4303.4198,N,07039.0078,W,1,11,0.7,7.6,M,-32.4,M,,*7F
MSG 0 42662.105 $GPGSA,A,3,,06,13,14,16,20,23,25,29,30,31,32,1.3,0.7,1.0*3F
MSG 0 42662.233 $GPGSV,3,2,12,16,57,221,49,20,27,264,46,23,36,310,45,25,02,049,41*7D
MSG 0 42662.378 $PGRME,4.4,M,5.5,M,7.1,M*28
MSG 0 42662.439 $PGRMB,0.0,200,,,,K,,N,N*31
MSG 0 42662.499 $PGRMM,WGS 84*06
MSG 0 42662.807 $GPRMC,155223,A,4303.4198,N,07039.0075,W,000.5,107.3,030712,016.1,W*7A
POS 0 42743.000 365624.126 4768465.488
QUA 0 42743.000 7 9.300 0.700 11.000 1.000 0.000 0.000 0.000
RAW 0 42743.000 4 430341.98000 -703900.75000 -25.00000 155223.00000
MSG 0 42662.957 $GPGGA,155223,4303.4198,N,07039.0075,W,1,11,0.7,7.4,M,-32.4,M,,*71
MSG 0 42663.099 $GPGSA,A,3,,06,13,14,16,20,23,25,29,30,31,32,1.3,0.7,1.0*3F
