FTP NEW 2
VER 11.0.6.21
INF "" "" "" "" 0.000 0.000 0.000
ELL WGS-84 6378137.000 298.257223563
PRO TME -69.000000 0.999600 0.000000 0.000000 0.000000 500000.0000 0.0000
DTM 0.00 0.00 0.00 0.00000 0.00000 0.00000 0.00000
GEO ??? 0.000
HVU 1.0000000000 1.0000000000
TND 11:26:46 07/03/2012 240
DEV 0 32869 "Garmin GPS" 49156 C:\HYPACK 2011\devices\GPS.dll 11.0.10.6
OFF 0 0.000 0.000 0.000 0.000 0.000 0.000 0.000
DDT 0 SYN 
DEV 1 0 "Disabled" 0 Odom CV3 MK3 Disabled Unknown
USR "NOAA Joint Hydrographic Center" "HYPACK Inc." 0x8 15681181
EOH 0001FFFFFFFFFFFFFFFFFFFFFFFFFFFFFFFFFFFFFFFFFFFFFFFFFFFFFFFFFFFFFFFFFFFFFFFFFFFFFFFFFFFFFFFFFFFFFFFFFFFFFFFFFFFFFFFFFFFFFFFFFFFFFFFFFFFFFFFFFFFFFFFFFFFFFFFFFFFFFFFFFFFFFFFFFFFFFFFFFFFF003021300906052B0E03021A050004148513AE77704CF7EA13FA84396AC9B1CF362D8C60
MSG 0 41205.867 $GPRMC,152806,A,4303.2706,N,07038.3202,W,000.8,135.7,030712,016.1,W*7F
POS 0 41286.000 366551.574 4768171.054
QUA 0 41286.000 7 9.000 1.000 9.000 1.000 0.000 0.000 0.000
RAW 0 41286.000 4 430327.06000 -703832.02000 -23.00000 152806.00000
MSG 0 41206.017 $GPGGA,152806,4303.2706,N,07038.3202,W,1,09,1.0,9.4,M,-32.4,M,,*7D
MSG 0 41206.158 $GPGSA,A,3,,06,,14,16,20,,25,29,30,31,32,1.7,1.0,1.4*3A
MSG 0 41206.277 $GPGSV,3,1,12,03,01,186,34,06,09,172,43,11,00,235,34,14,19,135,47*74
MSG 0 41206.423 $PGRME,5.0,M,6.4,M,8.2,M*23
MSG 0 41206.483 $PGRMB,0.0,200,,,,K,,N,N*31
MSG 0 41206.543 $PGRMM,WGS 84*06
FIX 99 41206.849 78 366551.574 4768171.054
MSG 0 41206.845 $GPRMC,152807,A,4303.2706,N,07038.3202,W,000.4,140.9,030712,016.1,W*7E
POS 0 41287.000 366551.574 4768171.054
QUA 0 41287.000 7 9.000 1.000 9.000 1.000 0.000 0.000 0.000
RAW 0 41287.000 4 430327.06000 -703832.02000 -22.70000 152807.00000
MSG 0 41206.995 $GPGGA,152807,4303.2706,N,07038.3202,W,1,09,1.0,9.7,M,-32.4,M,,*7F
MSG 0 41207.137 $GPGSA,A,3,,06,,14,16,20,,25,29,30,31,32,1.7,1.0,1.4*3A
MSG 0 41207.255 $GPGSV,3,2,12,16,46,215,48,20,30,275,46,23,27,312,37,25,11,046,40*76
MSG 0 41207.401 $PGRME,5.0,M,6.4,M,8.2,M*23
MSG 0 41207.461 $PGRMB,0.0,200,,,,K,,N,N*31
MSG 0 41207.522 $PGRMM,WGS 84*06
MSG 0 41207.846 $GPRMC,152808,A,4303.2706,N,07038.3202,W,000.2,140.9,030712,016.1,W*77
POS 0 41288.000 366551.574 4768171.054
QUA 0 41288.000 7 9.000 1.000 9.000 1.000 0.000 0.000 0.000
RAW 0 41288.000 4 430327.06000 -703832.02000 -22.70000 152808.00000
MSG 0 41207.996 $GPGGA,152808,4303.2706,N,07038.3202,W,1,09,1.0,9.7,M,-32.4,M,,*70
MSG 0 41208.138 $GPGSA,A,3,,06,,14,16,20,,25,29,30,31,32,1.7,1.0,1.4*3A
MSG 0 41208.256 $GPGSV,3,3,12,29,25,059,45,30,76,217,49,31,58,058,49,32,38,242,47*72
MSG 0 41208.402 $PGRME,5.0,M,6.4,M,8.2,M*23
MSG 0 41208.462 $PGRMB,0.0,200,,,,K,,N,N*31
MSG 0 41208.523 $PGRMM,WGS 84*06
MSG 0 41208.844 $GPRMC,152809,A,4303.2704,N,07038.3197,W,000.8,123.4,030712,016.1,W*79
POS 0 41289.000 366552.245 4768170.671
QUA 0 41289.000 7 9.000 1.000 9.000 1.000 0.000 0.000 0.000
RAW 0 41289.000 4 430327.04000 -703831.97000 -22.80000 152809.00000
MSG 0 41208.994 $GPGGA,152809,4303.2704,N,07038.3197,W,1,09,1.0,9.6,M,-32.4,M,,*7D
MSG 0 41209.136 $GPGSA,A,3,,06,,14,16,20,,25,29,30,31,32,1.7,1.0,1.4*3A
MSG 0 41209.255 $GPGSV,3,1,12,03,01,186,33,06,09,172,42,11,00,235,34,14,19,135,47*72
MSG 0 41209.400 $PGRME,5.0,M,6.4,M,8.2,M*23
MSG 0 41209.461 $PGRMB,0.0,200,,,,K,,N,N*31
MSG 0 41209.521 $PGRMM,WGS 84*06
MSG 0 41209.845 $GPRMC,152810,A,4303.2703,N,07038.3195,W,000.7,122.3,030712,016.1,W*7D
POS 0 41290.000 366552.513 4768170.481
QUA 0 41290.000 7 9.000 1.000 9.000 1.000 0.000 0.000 0.000
RAW 0 41290.000 4 430327.03000 -703831.95000 -23.10000 152810.00000
MSG 0 41209.995 $GPGGA,152810,4303.2703,N,07038.3195,W,1,09,1.0,9.3,M,-32.4,M,,*75
MSG 0 41210.136 $GPGSA,A,3,,06,,14,16,20,,25,29,30,31,32,1.7,1.0,1.4*3A
MSG 0 41210.255 $GPGSV,3,2,12,16,46,215,48,20,30,275,46,23,27,312,37,25,11,046,41*77
MSG 0 41210.401 $PGRME,5.0,M,6.4,M,8.2,M*23
MSG 0 41210.461 $PGRMB,0.0,200,,,,K,,N,N*31
MSG 0 41210.522 $PGRMM,WGS 84*06
MSG 0 41210.845 $GPRMC,152811,A,4303.2703,N,07038.3196,W,000.4,144.3,030712,016.1,W*7C
POS 0 41291.000 366552.377 4768170.483
QUA 0 41291.000 7 9.000 1.000 9.000 1.000 0.000 0.000 0.000
RAW 0 41291.000 4 430327.03000 -703831.96000 -22.70000 152811.00000
MSG 0 41210.995 $GPGGA,152811,4303.2703,N,07038.3196,W,1,09,1.0,9.7,M,-32.4,M,,*73
MSG 0 41211.137 $GPGSA,A,3,,06,,14,16,20,,25,29,30,31,32,1.7,1.0,1.4*3A
MSG 0 41211.255 $GPGSV,3,3,12,29,25,059,45,30,76,217,49,31,58,058,49,32,38,242,47*72
MSG 0 41211.401 $PGRME,5.0,M,6.4,M,8.2,M*23
MSG 0 41211.461 $PGRMB,0.0,200,,,,K,,N,N*31
MSG 0 41211.522 $PGRMM,WGS 84*06
MSG 0 41211.844 $GPRMC,152812,A,4303.2702,N,07038.3193,W,000.5,124.6,030712,016.1,W*79
POS 0 41292.000 366552.781 4768170.290
QUA 0 41292.000 7 9.000 1.000 9.000 1.000 0.000 0.000 0.000
RAW 0 41292.000 4 430327.02000 -703831.93000 -22.60000 152812.00000
MSG 0 41211.994 $GPGGA,152812,4303.2702,N,07038.3193,W,1,09,1.0,9.8,M,-32.4,M,,*7B
MSG 0 41212.136 $GPGSA,A,3,,06,,14,16,20,,25,29,30,31,32,1.7,1.0,1.4*3A
MSG 0 41212.255 $GPGSV,3,1,12,03,01,186,33,06,09,172,42,11,00,235,34,14,19,135,47*72
MSG 0 41212.400 $PGRME,5.0,M,6.4,M,8.2,M*23
MSG 0 41212.461 $PGRMB,0.0,200,,,,K,,N,N*31
MSG 0 41212.521 $PGRMM,WGS 84*06
MSG 0 41212.860 $GPRMC,152813,A,4303.2699,N,07038.3192,W,000.7,149.3,030712,016.1,W*76
POS 0 41293.000 366552.906 4768169.732
QUA 0 41293.000 7 9.000 1.000 9.000 1.000 0.000 0.000 0.000
RAW 0 41293.000 4 430326.99000 -703831.92000 -22.50000 152813.00000
MSG 0 41213.010 $GPGGA,152813,4303.2699,N,07038.3192,W,1,09,1.0,9.9,M,-32.4,M,,*79
MSG 0 41213.151 $GPGSA,A,3,,06,,14,16,20,,25,29,30,31,32,1.7,1.0,1.4*3A
MSG 0 41213.270 $GPGSV,3,2,12,16,46,215,47,20,30,275,46,23,27,312,36,25,11,046,40*78
MSG 0 41213.416 $PGRME,5.0,M,6.4,M,8.2,M*23
MSG 0 41213.476 $PGRMB,0.0,200,,,,K,,N,N*31
MSG 0 41213.537 $PGRMM,WGS 84*06
MSG 0 41213.857 $GPRMC,152814,A,4303.2700,N,07038.3193,W,000.2,156.0,030712,016.1,W*79
POS 0 41294.000 366552.773 4768169.920
QUA 0 41294.000 7 9.000 1.000 9.000 1.000 0.000 0.000 0.000
RAW 0 41294.000 4 430327.00000 -703831.93000 -22.40000 152814.00000
MSG 0 41214.007 $GPGGA,152814,4303.2700,N,07038.3193,W,1,09,1.0,10.0,M,-32.4,M,,*4F
MSG 0 41214.151 $GPGSA,A,3,,06,,14,16,20,,25,29,30,31,32,1.7,1.0,1.4*3A
MSG 0 41214.270 $GPGSV,3,3,12,29,25,059,45,30,76,217,49,31,58,058,49,32,38,242,47*72
MSG 0 41214.415 $PGRME,5.0,M,6.4,M,8.2,M*23
MSG 0 41214.476 $PGRMB,0.0,200,,,,K,,N,N*31
MSG 0 41214.536 $PGRMM,WGS 84*06
MSG 0 41214.859 $GPRMC,152815,A,4303.2698,N,07038.3193,W,000.4,167.0,030712,016.1,W*7C
POS 0 41295.000 366552.766 4768169.550
QUA 0 41295.000 7 9.000 1.000 9.000 1.000 0.000 0.000 0.000
RAW 0 41295.000 4 430326.98000 -703831.93000 -22.80000 152815.00000
MSG 0 41215.009 $GPGGA,152815,4303.2698,N,07038.3193,W,1,09,1.0,9.6,M,-32.4,M,,*70
MSG 0 41215.151 $GPGSA,A,3,,06,,14,16,20,,25,29,30,31,32,1.7,1.0,1.4*3A
MSG 0 41215.270 $GPGSV,3,1,12,03,01,186,34,06,09,172,41,11,00,235,34,14,19,135,47*76
MSG 0 41215.415 $PGRME,5.0,M,6.4,M,8.2,M*23
MSG 0 41215.476 $PGRMB,0.0,200,,,,K,,N,N*31
MSG 0 41215.536 $PGRMM,WGS 84*06
MSG 0 41215.859 $GPRMC,152816,A,4303.2697,N,07038.3188,W,000.8,126.0,030712,016.1,W*73
POS 0 41296.000 366553.441 4768169.351
QUA 0 41296.000 7 9.000 1.000 9.000 1.000 0.000 0.000 0.000
RAW 0 41296.000 4 430326.97000 -703831.88000 -23.00000 152816.00000
MSG 0 41216.009 $GPGGA,152816,4303.2697,N,07038.3188,W,1,09,1.0,9.4,M,-32.4,M,,*74
MSG 0 41216.151 $GPGSA,A,3,,06,,14,16,20,,25,29,30,31,32,1.7,1.0,1.4*3A
MSG 0 41216.269 $GPGSV,3,2,12,16,46,215,47,20,30,275,46,23,27,312,36,25,11,046,41*79
MSG 0 41216.415 $PGRME,5.0,M,6.4,M,8.2,M*23
MSG 0 41216.475 $PGRMB,0.0,200,,,,K,,N,N*31
MSG 0 41216.536 $PGRMM,WGS 84*06
MSG 0 41216.844 $GPRMC,152817,A,4303.2695,N,07038.3188,W,000.6,144.9,030712,016.1,W*73
POS 0 41297.000 366553.434 4768168.981
QUA 0 41297.000 7 9.000 1.000 9.000 1.000 0.000 0.000 0.000
RAW 0 41297.000 4 430326.95000 -703831.88000 -22.70000 152817.00000
MSG 0 41216.994 $GPGGA,152817,4303.2695,N,07038.3188,W,1,09,1.0,9.7,M,-32.4,M,,*74
MSG 0 41217.136 $GPGSA,A,3,,06,,14,16,20,,25,29,30,31,32,1.7,1.0,1.4*3A
MSG 0 41217.254 $GPGSV,3,3,12,29,25,059,46,30,76,217,49,31,58,058,49,32,38,242,47*71
MSG 0 41217.400 $PGRME,5.0,M,6.4,M,8.2,M*23
MSG 0 41217.461 $PGRMB,0.0,200,,,,K,,N,N*31
MSG 0 41217.521 $PGRMM,WGS 84*06
MSG 0 41217.854 $GPRMC,152818,A,4303.2696,N,07038.3187,W,000.4,116.1,030712,016.1,W*7D
POS 0 41298.000 366553.573 4768169.164
QUA 0 41298.000 7 9.000 1.000 9.000 1.000 0.000 0.000 0.000
RAW 0 41298.000 4 430326.96000 -703831.87000 -22.60000 152818.00000
MSG 0 41218.004 $GPGGA,152818,4303.2696,N,07038.3187,W,1,09,1.0,9.8,M,-32.4,M,,*78
MSG 0 41218.146 $GPGSA,A,3,,06,,14,16,20,,25,29,30,31,32,1.7,1.0,1.4*3A
MSG 0 41218.265 $GPGSV,3,1,12,03,01,186,34,06,09,172,42,11,00,235,34,14,19,135,47*75
MSG 0 41218.410 $PGRME,5.0,M,6.4,M,8.2,M*23
MSG 0 41218.471 $PGRMB,0.0,200,,,,K,,N,N*31
MSG 0 41218.531 $PGRMM,WGS 84*06
MSG 0 41218.849 $GPRMC,152819,A,4303.2694,N,07038.3184,W,000.7,136.8,030712,016.1,W*75
POS 0 41299.000 366553.973 4768168.786
QUA 0 41299.000 7 9.000 1.000 9.000 1.000 0.000 0.000 0.000
RAW 0 41299.000 4 430326.94000 -703831.84000 -22.40000 152819.00000
MSG 0 41218.999 $GPGGA,152819,4303.2694,N,07038.3184,W,1,09,1.0,10.0,M,-32.4,M,,*48
MSG 0 41219.142 $GPGSA,A,3,,06,,14,16,20,,25,29,30,31,32,1.7,1.0,1.4*3A
MSG 0 41219.261 $GPGSV,3,2,12,16,46,215,48,20,30,275,46,23,27,312,37,25,11,046,41*77
MSG 0 41219.407 $PGRME,5.0,M,6.4,M,8.2,M*23
MSG 0 41219.467 $PGRMB,0.0,200,,,,K,,N,N*31
MSG 0 41219.527 $PGRMM,WGS 84*06
MSG 0 41219.880 $GPRMC,152820,A,4303.2693,N,07038.3183,W,000.5,124.5,030712,016.1,W*73
POS 0 41300.000 366554.105 4768168.598
QUA 0 41300.000 7 9.000 1.000 9.000 1.000 0.000 0.000 0.000
RAW 0 41300.000 4 430326.93000 -703831.83000 -22.60000 152820.00000
MSG 0 41220.030 $GPGGA,152820,4303.2693,N,07038.3183,W,1,09,1.0,9.8,M,-32.4,M,,*72
MSG 0 41220.172 $GPGSA,A,3,,06,,14,16,20,,25,29,30,31,32,1.7,1.0,1.4*3A
MSG 0 41220.291 $GPGSV,3,3,12,29,25,059,45,30,76,217,49,31,58,058,50,32,38,242,47*7A
MSG 0 41220.436 $PGRME,5.0,M,6.4,M,8.2,M*23
MSG 0 41220.497 $PGRMB,0.0,200,,,,K,,N,N*31
MSG 0 41220.557 $PGRMM,WGS 84*06
MSG 0 41220.856 $GPRMC,152821,A,4303.2692,N,07038.3184,W,000.4,175.9,030712,016.1,W*7D
POS 0 41301.000 366553.966 4768168.415
QUA 0 41301.000 7 9.000 1.000 9.000 1.000 0.000 0.000 0.000
RAW 0 41301.000 4 430326.92000 -703831.84000 -22.50000 152821.00000
MSG 0 41221.006 $GPGGA,152821,4303.2692,N,07038.3184,W,1,09,1.0,9.9,M,-32.4,M,,*74
MSG 0 41221.147 $GPGSA,A,3,,06,,14,16,20,,25,29,30,31,32,1.7,1.0,1.4*3A
MSG 0 41221.266 $GPGSV,3,1,12,03,01,186,34,06,09,172,41,11,00,235,33,14,19,135,47*71
MSG 0 41221.412 $PGRME,5.0,M,6.4,M,8.2,M*23
MSG 0 41221.472 $PGRMB,0.0,200,,,,K,,N,N*31
MSG 0 41221.532 $PGRMM,WGS 84*06
MSG 0 41221.869 $GPRMC,152822,A,4303.2692,N,07038.3182,W,000.4,133.3,030712,016.1,W*70
POS 0 41302.000 366554.238 4768168.410
QUA 0 41302.000 7 9.000 1.000 9.000 1.000 0.000 0.000 0.000
RAW 0 41302.000 4 430326.92000 -703831.82000 -22.80000 152822.00000
MSG 0 41222.019 $GPGGA,152822,4303.2692,N,07038.3182,W,1,09,1.0,9.6,M,-32.4,M,,*7E
MSG 0 41222.160 $GPGSA,A,3,,06,,14,16,20,,25,29,30,31,32,1.7,1.0,1.4*3A
MSG 0 41222.279 $GPGSV,3,2,12,16,46,215,48,20,30,275,46,23,27,312,37,25,11,046,41*77
MSG 0 41222.425 $PGRME,5.0,M,6.4,M,8.2,M*23
MSG 0 41222.485 $PGRMB,0.0,200,,,,K,,N,N*31
MSG 0 41222.545 $PGRMM,WGS 84*06
MSG 0 41222.851 $GPRMC,152823,A,4303.2688,N,07038.3178,W,001.1,142.2,030712,016.1,W*7C
POS 0 41303.000 366554.766 4768167.659
QUA 0 41303.000 7 9.000 1.000 9.000 1.000 0.000 0.000 0.000
RAW 0 41303.000 4 430326.88000 -703831.78000 -23.00000 152823.00000
MSG 0 41223.001 $GPGGA,152823,4303.2688,N,07038.3178,W,1,09,1.0,9.4,M,-32.4,M,,*73
MSG 0 41223.142 $GPGSA,A,3,,06,,14,16,20,,25,29,30,31,32,1.7,1.0,1.4*3A
MSG 0 41223.261 $GPGSV,3,3,12,29,25,059,46,30,76,217,49,31,58,058,49,32,38,242,47*71
MSG 0 41223.407 $PGRME,5.0,M,6.4,M,8.2,M*23
MSG 0 41223.467 $PGRMB,0.0,200,,,,K,,N,N*31
MSG 0 41223.527 $PGRMM,WGS 84*06
MSG 0 41223.877 $GPRMC,152824,A,4303.2688,N,07038.3178,W,000.5,141.7,030712,016.1,W*78
POS 0 41304.000 366554.766 4768167.659
QUA 0 41304.000 7 9.000 1.000 9.000 1.000 0.000 0.000 0.000
RAW 0 41304.000 4 430326.88000 -703831.78000 -22.80000 152824.00000
MSG 0 41224.027 $GPGGA,152824,4303.2688,N,07038.3178,W,1,09,1.0,9.6,M,-32.4,M,,*76
MSG 0 41224.169 $GPGSA,A,3,,06,,14,16,20,,25,29,30,31,32,1.7,1.0,1.4*3A
MSG 0 41224.287 $GPGSV,3,1,12,03,01,186,34,06,09,172,42,11,00,235,33,14,19,135,46*73
MSG 0 41224.433 $PGRME,5.0,M,6.4,M,8.2,M*23
MSG 0 41224.493 $PGRMB,0.0,200,,,,K,,N,N*31
MSG 0 41224.554 $PGRMM,WGS 84*06
MSG 0 41224.859 $GPRMC,152825,A,4303.2688,N,07038.3177,W,000.3,122.8,030712,016.1,W*7A
POS 0 41305.000 366554.902 4768167.657
QUA 0 41305.000 7 9.000 1.000 9.000 1.000 0.000 0.000 0.000
RAW 0 41305.000 4 430326.88000 -703831.77000 -22.40000 152825.00000
MSG 0 41225.009 $GPGGA,152825,4303.2688,N,07038.3177,W,1,09,1.0,10.0,M,-32.4,M,,*46
MSG 0 41225.152 $GPGSA,A,3,,06,,14,16,20,,25,29,30,31,32,1.7,1.0,1.4*3A
MSG 0 41225.271 $GPGSV,3,2,12,16,46,215,48,20,30,275,46,23,27,312,37,25,11,046,41*77
MSG 0 41225.417 $PGRME,5.0,M,6.4,M,8.2,M*23
MSG 0 41225.477 $PGRMB,0.0,200,,,,K,,N,N*31
MSG 0 41225.538 $PGRMM,WGS 84*06
MSG 0 41225.879 $GPRMC,152826,A,4303.2685,N,07038.3174,W,000.8,132.8,030712,016.1,W*7D
POS 0 41306.000 366555.298 4768167.093
QUA 0 41306.000 7 9.000 1.000 9.000 1.000 0.000 0.000 0.000
RAW 0 41306.000 4 430326.85000 -703831.74000 -22.60000 152826.00000
MSG 0 41226.029 $GPGGA,152826,4303.2685,N,07038.3174,W,1,09,1.0,9.8,M,-32.4,M,,*7B
MSG 0 41226.170 $GPGSA,A,3,,06,,14,16,20,,25,29,30,31,32,1.7,1.0,1.4*3A
MSG 0 41226.289 $GPGSV,3,3,12,29,25,059,46,30,76,217,49,31,58,058,49,32,38,242,47*71
MSG 0 41226.435 $PGRME,5.0,M,6.4,M,8.2,M*23
MSG 0 41226.495 $PGRMB,0.0,200,,,,K,,N,N*31
MSG 0 41226.555 $PGRMM,WGS 84*06
FIX 99 41226.652 79 366555.298 4768167.093
